%time,field.data0.header.seq,field.data0.header.stamp,field.data0.header.frame_id,field.data0.pose.position.x,field.data0.pose.position.y,field.data0.pose.position.z,field.data0.pose.orientation.x,field.data0.pose.orientation.y,field.data0.pose.orientation.z,field.data0.pose.orientation.w
1630047169235810107,1630047169,0,30306,2716.0,4018.0,679.0,0.0,0.0,0.0,0.0
1630047169336703083,1630047169,0,30306,2712.0,4022.0,688.0,0.0,0.0,0.0,0.0
1630047169425331402,1630047169,0,30306,2706.0,4020.0,706.0,0.0,0.0,0.0,0.0
1630047169535218069,1630047169,0,30306,2700.0,4025.0,715.0,0.0,0.0,0.0,0.0
1630047169623807495,1630047169,0,30306,2693.0,4033.0,718.0,0.0,0.0,0.0,0.0
1630047169733902747,1630047169,0,30306,2708.0,4014.0,689.0,0.0,0.0,0.0,0.0
1630047169834942104,1630047169,0,30306,2718.0,3997.0,660.0,0.0,0.0,0.0,0.0
1630047169933779376,1630047169,0,30306,2724.0,3982.0,640.0,0.0,0.0,0.0,0.0
1630047170034875986,1630047170,0,30306,2732.0,3969.0,620.0,0.0,0.0,0.0,0.0
1630047170123691964,1630047170,0,30306,2734.0,3959.0,596.0,0.0,0.0,0.0,0.0
1630047170233062518,1630047170,0,30306,2737.0,3950.0,564.0,0.0,0.0,0.0,0.0
1630047170323467143,1630047170,0,30306,2735.0,3944.0,524.0,0.0,0.0,0.0,0.0
1630047170434963382,1630047170,0,30306,2733.0,3937.0,489.0,0.0,0.0,0.0,0.0
1630047170523399043,1630047170,0,30306,2730.0,3931.0,459.0,0.0,0.0,0.0,0.0
1630047170632871934,1630047170,0,30306,2727.0,3921.0,416.0,0.0,0.0,0.0,0.0
1630047170723029265,1630047170,0,30306,2735.0,3938.0,431.0,0.0,0.0,0.0,0.0
1630047170832449055,1630047170,0,30306,2742.0,3953.0,431.0,0.0,0.0,0.0,0.0
1630047170932417488,1630047170,0,30306,2748.0,3965.0,423.0,0.0,0.0,0.0,0.0
1630047171033720080,1630047171,0,30306,2756.0,3980.0,411.0,0.0,0.0,0.0,0.0
1630047171132994806,1630047171,0,30306,2765.0,3985.0,396.0,0.0,0.0,0.0,0.0
1630047171221588000,1630047171,0,30306,2775.0,3991.0,375.0,0.0,0.0,0.0,0.0
1630047171332871876,1630047171,0,30306,2775.0,3995.0,359.0,0.0,0.0,0.0,0.0
1630047171422018483,1630047171,0,30306,2772.0,3998.0,340.0,0.0,0.0,0.0,0.0
1630047171530751706,1630047171,0,30306,2766.0,4003.0,324.0,0.0,0.0,0.0,0.0
1630047171621315672,1630047171,0,30306,2763.0,4007.0,312.0,0.0,0.0,0.0,0.0
1630047171730580580,1630047171,0,30306,2759.0,4010.0,296.0,0.0,0.0,0.0,0.0
1630047171832718241,1630047171,0,30306,2751.0,4011.0,285.0,0.0,0.0,0.0,0.0
1630047171932445105,1630047171,0,30306,2742.0,4013.0,270.0,0.0,0.0,0.0,0.0
1630047172032120661,1630047172,0,30306,2739.0,4015.0,256.0,0.0,0.0,0.0,0.0
1630047172121868354,1630047172,0,30306,2731.0,4014.0,237.0,0.0,0.0,0.0,0.0
1630047172232260686,1630047172,0,30306,2723.0,4016.0,235.0,0.0,0.0,0.0,0.0
1630047172332386321,1630047172,0,30306,2715.0,4013.0,214.0,0.0,0.0,0.0,0.0
1630047172433562700,1630047172,0,30306,2707.0,4009.0,200.0,0.0,0.0,0.0,0.0
1630047172533216238,1630047172,0,30306,2695.0,4012.0,185.0,0.0,0.0,0.0,0.0
1630047172621273562,1630047172,0,30306,2684.0,4010.0,165.0,0.0,0.0,0.0,0.0
1630047172730637166,1630047172,0,30306,2690.0,4020.0,225.0,0.0,0.0,0.0,0.0
1630047172820676984,1630047172,0,30306,2690.0,4022.0,263.0,0.0,0.0,0.0,0.0
1630047172932560615,1630047172,0,30306,2689.0,4024.0,287.0,0.0,0.0,0.0,0.0
1630047173032237834,1630047173,0,30306,2688.0,4030.0,300.0,0.0,0.0,0.0,0.0
1630047173119800985,1630047173,0,30306,2683.0,4034.0,313.0,0.0,0.0,0.0,0.0
1630047173229598600,1630047173,0,30306,2678.0,4032.0,316.0,0.0,0.0,0.0,0.0
1630047173328352931,1630047173,0,30306,2674.0,4027.0,308.0,0.0,0.0,0.0,0.0
1630047173428770337,1630047173,0,30306,2671.0,4024.0,293.0,0.0,0.0,0.0,0.0
1630047173528771882,1630047173,0,30306,2664.0,4019.0,270.0,0.0,0.0,0.0,0.0
1630047173639704071,1630047173,0,30306,2658.0,4017.0,248.0,0.0,0.0,0.0,0.0
1630047173729598601,1630047173,0,30306,2663.0,4001.0,289.0,0.0,0.0,0.0,0.0
1630047173829008521,1630047173,0,30306,2673.0,3983.0,313.0,0.0,0.0,0.0,0.0
1630047173939596922,1630047173,0,30306,2674.0,3969.0,335.0,0.0,0.0,0.0,0.0
1630047174029599459,1630047174,0,30306,2674.0,3961.0,354.0,0.0,0.0,0.0,0.0
1630047174140880451,1630047174,0,30306,2672.0,3953.0,365.0,0.0,0.0,0.0,0.0
1630047174229920514,1630047174,0,30306,2670.0,3948.0,384.0,0.0,0.0,0.0,0.0
1630047174339648402,1630047174,0,30306,2670.0,3939.0,405.0,0.0,0.0,0.0,0.0
1630047174428734512,1630047174,0,30306,2665.0,3935.0,407.0,0.0,0.0,0.0,0.0
1630047174528633773,1630047174,0,30306,2665.0,3933.0,407.0,0.0,0.0,0.0,0.0
1630047174629018938,1630047174,0,30306,2664.0,3929.0,407.0,0.0,0.0,0.0,0.0
1630047174727189254,1630047174,0,30306,2695.0,3936.0,450.0,0.0,0.0,0.0,0.0
1630047174838376914,1630047174,0,30306,2716.0,3940.0,487.0,0.0,0.0,0.0,0.0
1630047174928126414,1630047174,0,30306,2731.0,3937.0,510.0,0.0,0.0,0.0,0.0
1630047175038972819,1630047175,0,30306,2743.0,3932.0,532.0,0.0,0.0,0.0,0.0
1630047175127614475,1630047175,0,30306,2757.0,3928.0,541.0,0.0,0.0,0.0,0.0
1630047175239040566,1630047175,0,30306,2760.0,3922.0,543.0,0.0,0.0,0.0,0.0
1630047175328258986,1630047175,0,30306,2757.0,3920.0,550.0,0.0,0.0,0.0,0.0
1630047175428154048,1630047175,0,30306,2753.0,3919.0,544.0,0.0,0.0,0.0,0.0
1630047175528086610,1630047175,0,30306,2750.0,3915.0,538.0,0.0,0.0,0.0,0.0
1630047175629513166,1630047175,0,30306,2746.0,3907.0,536.0,0.0,0.0,0.0,0.0
1630047175739198455,1630047175,0,30306,2747.0,3927.0,550.0,0.0,0.0,0.0,0.0
1630047175828537842,1630047175,0,30306,2744.0,3939.0,558.0,0.0,0.0,0.0,0.0
1630047175936849156,1630047175,0,30306,2740.0,3948.0,574.0,0.0,0.0,0.0,0.0
1630047176028542970,1630047176,0,30306,2731.0,3953.0,592.0,0.0,0.0,0.0,0.0
1630047176139884487,1630047176,0,30306,2725.0,3954.0,608.0,0.0,0.0,0.0,0.0
1630047176228671452,1630047176,0,30306,2718.0,3960.0,625.0,0.0,0.0,0.0,0.0
1630047176318253798,1630047176,0,30306,2711.0,3964.0,643.0,0.0,0.0,0.0,0.0
1630047176429182640,1630047176,0,30306,2716.0,3966.0,670.0,0.0,0.0,0.0,0.0
1630047176526697428,1630047176,0,30306,2718.0,3968.0,692.0,0.0,0.0,0.0,0.0
1630047176628283940,1630047176,0,30306,2723.0,3970.0,712.0,0.0,0.0,0.0,0.0
1630047176727157544,1630047176,0,30306,2731.0,3980.0,742.0,0.0,0.0,0.0,0.0
1630047176838584517,1630047176,0,30306,2743.0,3990.0,765.0,0.0,0.0,0.0,0.0
1630047176927513103,1630047176,0,30306,2748.0,3998.0,786.0,0.0,0.0,0.0,0.0
1630047177038138857,1630047177,0,30306,2755.0,4007.0,811.0,0.0,0.0,0.0,0.0
1630047177127092806,1630047177,0,30306,2761.0,4014.0,834.0,0.0,0.0,0.0,0.0
1630047177228810349,1630047177,0,30306,2762.0,4021.0,845.0,0.0,0.0,0.0,0.0
1630047177336610603,1630047177,0,30306,2763.0,4023.0,859.0,0.0,0.0,0.0,0.0
1630047177426145662,1630047177,0,30306,2767.0,4024.0,863.0,0.0,0.0,0.0,0.0
1630047177535293792,1630047177,0,30306,2765.0,4029.0,864.0,0.0,0.0,0.0,0.0
1630047177627142447,1630047177,0,30306,2763.0,4030.0,879.0,0.0,0.0,0.0,0.0
1630047177724928147,1630047177,0,30306,2763.0,4021.0,827.0,0.0,0.0,0.0,0.0
1630047177836838531,1630047177,0,30306,2767.0,4007.0,766.0,0.0,0.0,0.0,0.0
1630047177925488775,1630047177,0,30306,2769.0,3996.0,716.0,0.0,0.0,0.0,0.0
1630047178036897582,1630047178,0,30306,2769.0,3987.0,670.0,0.0,0.0,0.0,0.0
1630047178126962072,1630047178,0,30306,2770.0,3973.0,626.0,0.0,0.0,0.0,0.0
1630047178236703386,1630047178,0,30306,2768.0,3964.0,585.0,0.0,0.0,0.0,0.0
1630047178327116606,1630047178,0,30306,2763.0,3957.0,557.0,0.0,0.0,0.0,0.0
1630047178437203440,1630047178,0,30306,2757.0,3957.0,528.0,0.0,0.0,0.0,0.0
1630047178526321630,1630047178,0,30306,2752.0,3955.0,505.0,0.0,0.0,0.0,0.0
1630047178637779947,1630047178,0,30306,2748.0,3958.0,489.0,0.0,0.0,0.0,0.0
1630047178726593361,1630047178,0,30306,2739.0,3952.0,451.0,0.0,0.0,0.0,0.0
1630047178837963057,1630047178,0,30306,2732.0,3947.0,423.0,0.0,0.0,0.0,0.0
1630047178936290169,1630047178,0,30306,2726.0,3943.0,401.0,0.0,0.0,0.0,0.0
1630047179027168690,1630047179,0,30306,2721.0,3942.0,386.0,0.0,0.0,0.0,0.0
1630047179137631972,1630047179,0,30306,2716.0,3941.0,374.0,0.0,0.0,0.0,0.0
1630047179226669224,1630047179,0,30306,2714.0,3936.0,364.0,0.0,0.0,0.0,0.0
1630047179337218871,1630047179,0,30306,2715.0,3933.0,363.0,0.0,0.0,0.0,0.0
1630047179427975772,1630047179,0,30306,2719.0,3936.0,360.0,0.0,0.0,0.0,0.0
1630047179537983237,1630047179,0,30306,2728.0,3938.0,348.0,0.0,0.0,0.0,0.0
1630047179628410585,1630047179,0,30306,2737.0,3941.0,350.0,0.0,0.0,0.0,0.0
1630047179737753737,1630047179,0,30306,2750.0,3945.0,365.0,0.0,0.0,0.0,0.0
1630047179826729695,1630047179,0,30306,2769.0,3951.0,392.0,0.0,0.0,0.0,0.0
1630047179927671667,1630047179,0,30306,2779.0,3960.0,411.0,0.0,0.0,0.0,0.0
1630047180027526422,1630047180,0,30306,2792.0,3962.0,429.0,0.0,0.0,0.0,0.0
1630047180128736457,1630047180,0,30306,2801.0,3965.0,451.0,0.0,0.0,0.0,0.0
1630047180237306659,1630047180,0,30306,2812.0,3964.0,466.0,0.0,0.0,0.0,0.0
1630047180328471055,1630047180,0,30306,2819.0,3959.0,485.0,0.0,0.0,0.0,0.0
1630047180428565938,1630047180,0,30306,2823.0,3954.0,504.0,0.0,0.0,0.0,0.0
1630047180527610168,1630047180,0,30306,2827.0,3949.0,521.0,0.0,0.0,0.0,0.0
1630047180628091884,1630047180,0,30306,2834.0,3940.0,536.0,0.0,0.0,0.0,0.0
1630047180737645439,1630047180,0,30306,2819.0,3938.0,566.0,0.0,0.0,0.0,0.0
1630047180828970401,1630047180,0,30306,2808.0,3938.0,584.0,0.0,0.0,0.0,0.0
1630047180939171306,1630047180,0,30306,2795.0,3944.0,611.0,0.0,0.0,0.0,0.0
1630047181028464327,1630047181,0,30306,2786.0,3943.0,636.0,0.0,0.0,0.0,0.0
1630047181139225181,1630047181,0,30306,2787.0,3941.0,667.0,0.0,0.0,0.0,0.0
1630047181238818770,1630047181,0,30306,2785.0,3941.0,701.0,0.0,0.0,0.0,0.0
1630047181329071775,1630047181,0,30306,2785.0,3940.0,732.0,0.0,0.0,0.0,0.0
1630047181438567495,1630047181,0,30306,2793.0,3939.0,764.0,0.0,0.0,0.0,0.0
1630047181529496243,1630047181,0,30306,2798.0,3940.0,791.0,0.0,0.0,0.0,0.0
1630047181628284591,1630047181,0,30306,2800.0,3945.0,820.0,0.0,0.0,0.0,0.0
1630047181728391827,1630047181,0,30306,2783.0,3956.0,819.0,0.0,0.0,0.0,0.0
1630047181828809275,1630047181,0,30306,2772.0,3968.0,832.0,0.0,0.0,0.0,0.0
1630047181938010813,1630047181,0,30306,2765.0,3977.0,848.0,0.0,0.0,0.0,0.0
1630047182027860401,1630047182,0,30306,2761.0,3980.0,872.0,0.0,0.0,0.0,0.0
1630047182138013230,1630047182,0,30306,2760.0,3978.0,890.0,0.0,0.0,0.0,0.0
1630047182227193790,1630047182,0,30306,2760.0,3977.0,919.0,0.0,0.0,0.0,0.0
1630047182337429514,1630047182,0,30306,2759.0,3977.0,947.0,0.0,0.0,0.0,0.0
1630047182425801719,1630047182,0,30306,2759.0,3977.0,976.0,0.0,0.0,0.0,0.0
1630047182526832593,1630047182,0,30306,2762.0,3983.0,996.0,0.0,0.0,0.0,0.0
1630047182637217817,1630047182,0,30306,2766.0,3982.0,1018.0,0.0,0.0,0.0,0.0
1630047182726289479,1630047182,0,30306,2759.0,3984.0,962.0,0.0,0.0,0.0,0.0
1630047182837177165,1630047182,0,30306,2756.0,3984.0,913.0,0.0,0.0,0.0,0.0
1630047182927090259,1630047182,0,30306,2754.0,3992.0,872.0,0.0,0.0,0.0,0.0
1630047183036054803,1630047183,0,30306,2748.0,3996.0,842.0,0.0,0.0,0.0,0.0
1630047183126299248,1630047183,0,30306,2748.0,4000.0,818.0,0.0,0.0,0.0,0.0
1630047183235236185,1630047183,0,30306,2743.0,4006.0,791.0,0.0,0.0,0.0,0.0
1630047183324846947,1630047183,0,30306,2746.0,4012.0,771.0,0.0,0.0,0.0,0.0
1630047183434048452,1630047183,0,30306,2744.0,4017.0,755.0,0.0,0.0,0.0,0.0
1630047183534521386,1630047183,0,30306,2743.0,4020.0,747.0,0.0,0.0,0.0,0.0
1630047183624029910,1630047183,0,30306,2740.0,4025.0,728.0,0.0,0.0,0.0,0.0
1630047183732478867,1630047183,0,30306,2741.0,4023.0,667.0,0.0,0.0,0.0,0.0
1630047183822898541,1630047183,0,30306,2739.0,4021.0,610.0,0.0,0.0,0.0,0.0
1630047183933961499,1630047183,0,30306,2733.0,4014.0,569.0,0.0,0.0,0.0,0.0
1630047184021934741,1630047184,0,30306,2727.0,4009.0,546.0,0.0,0.0,0.0,0.0
1630047184132461534,1630047184,0,30306,2721.0,4006.0,535.0,0.0,0.0,0.0,0.0
1630047184222406963,1630047184,0,30306,2715.0,4002.0,530.0,0.0,0.0,0.0,0.0
1630047184333107634,1630047184,0,30306,2705.0,3999.0,529.0,0.0,0.0,0.0,0.0
1630047184433301968,1630047184,0,30306,2708.0,3996.0,528.0,0.0,0.0,0.0,0.0
1630047184533764412,1630047184,0,30306,2710.0,3993.0,525.0,0.0,0.0,0.0,0.0
1630047184632985432,1630047184,0,30306,2711.0,3991.0,530.0,0.0,0.0,0.0,0.0
1630047184722056671,1630047184,0,30306,2714.0,3978.0,547.0,0.0,0.0,0.0,0.0
1630047184833442696,1630047184,0,30306,2715.0,3967.0,563.0,0.0,0.0,0.0,0.0
1630047184922380419,1630047184,0,30306,2720.0,3962.0,580.0,0.0,0.0,0.0,0.0
1630047185033830541,1630047185,0,30306,2724.0,3954.0,584.0,0.0,0.0,0.0,0.0
1630047185132885137,1630047185,0,30306,2729.0,3944.0,586.0,0.0,0.0,0.0,0.0
1630047185233168706,1630047185,0,30306,2738.0,3937.0,591.0,0.0,0.0,0.0,0.0
1630047185331966954,1630047185,0,30306,2738.0,3930.0,607.0,0.0,0.0,0.0,0.0
1630047185422320244,1630047185,0,30306,2741.0,3921.0,612.0,0.0,0.0,0.0,0.0
1630047185531531769,1630047185,0,30306,2747.0,3912.0,637.0,0.0,0.0,0.0,0.0
1630047185621261942,1630047185,0,30306,2753.0,3904.0,653.0,0.0,0.0,0.0,0.0
1630047185733127121,1630047185,0,30306,2759.0,3911.0,659.0,0.0,0.0,0.0,0.0
1630047185820656088,1630047185,0,30306,2770.0,3918.0,666.0,0.0,0.0,0.0,0.0
1630047185932039613,1630047185,0,30306,2778.0,3923.0,664.0,0.0,0.0,0.0,0.0
1630047186033143033,1630047186,0,30306,2782.0,3927.0,663.0,0.0,0.0,0.0,0.0
1630047186133330413,1630047186,0,30306,2780.0,3931.0,671.0,0.0,0.0,0.0,0.0
1630047186234720919,1630047186,0,30306,2781.0,3934.0,673.0,0.0,0.0,0.0,0.0
1630047186333516138,1630047186,0,30306,2786.0,3935.0,686.0,0.0,0.0,0.0,0.0
1630047186433948837,1630047186,0,30306,2781.0,3938.0,697.0,0.0,0.0,0.0,0.0
1630047186522589409,1630047186,0,30306,2777.0,3944.0,702.0,0.0,0.0,0.0,0.0
1630047186633078811,1630047186,0,30306,2779.0,3951.0,716.0,0.0,0.0,0.0,0.0
1630047186721134805,1630047186,0,30306,2781.0,3977.0,686.0,0.0,0.0,0.0,0.0
1630047186832727316,1630047186,0,30306,2782.0,4000.0,665.0,0.0,0.0,0.0,0.0
1630047186932917015,1630047186,0,30306,2783.0,4020.0,647.0,0.0,0.0,0.0,0.0
1630047187021812994,1630047187,0,30306,2787.0,4035.0,639.0,0.0,0.0,0.0,0.0
1630047187132572219,1630047187,0,30306,2792.0,4049.0,635.0,0.0,0.0,0.0,0.0
1630047187233012119,1630047187,0,30306,2801.0,4059.0,640.0,0.0,0.0,0.0,0.0
1630047187331351017,1630047187,0,30306,2810.0,4065.0,647.0,0.0,0.0,0.0,0.0
1630047187433948977,1630047187,0,30306,2819.0,4069.0,654.0,0.0,0.0,0.0,0.0
1630047187522620607,1630047187,0,30306,2828.0,4073.0,666.0,0.0,0.0,0.0,0.0
1630047187632017240,1630047187,0,30306,2832.0,4075.0,688.0,0.0,0.0,0.0,0.0
1630047187720069860,1630047187,0,30306,2820.0,4055.0,694.0,0.0,0.0,0.0,0.0
1630047187832424332,1630047187,0,30306,2811.0,4040.0,697.0,0.0,0.0,0.0,0.0
1630047187932592550,1630047187,0,30306,2804.0,4028.0,696.0,0.0,0.0,0.0,0.0
1630047188022294943,1630047188,0,30306,2805.0,4022.0,700.0,0.0,0.0,0.0,0.0
1630047188131217052,1630047188,0,30306,2795.0,4016.0,696.0,0.0,0.0,0.0,0.0
1630047188222433896,1630047188,0,30306,2787.0,4013.0,696.0,0.0,0.0,0.0,0.0
1630047188331576246,1630047188,0,30306,2784.0,4012.0,699.0,0.0,0.0,0.0,0.0
1630047188428767667,1630047188,0,30306,2788.0,4020.0,705.0,0.0,0.0,0.0,0.0
1630047188541943571,1630047188,0,30306,2789.0,4023.0,710.0,0.0,0.0,0.0,0.0
1630047188632458226,1630047188,0,30306,2792.0,4029.0,719.0,0.0,0.0,0.0,0.0
1630047188721518532,1630047188,0,30306,2771.0,4016.0,674.0,0.0,0.0,0.0,0.0
1630047188832050535,1630047188,0,30306,2759.0,4011.0,639.0,0.0,0.0,0.0,0.0
1630047188931158438,1630047188,0,30306,2749.0,4009.0,612.0,0.0,0.0,0.0,0.0
1630047189042408247,1630047189,0,30306,2736.0,4002.0,572.0,0.0,0.0,0.0,0.0
1630047189131275066,1630047189,0,30306,2723.0,4001.0,538.0,0.0,0.0,0.0,0.0
1630047189241443940,1630047189,0,30306,2719.0,3996.0,519.0,0.0,0.0,0.0,0.0
1630047189331332792,1630047189,0,30306,2711.0,3985.0,488.0,0.0,0.0,0.0,0.0
1630047189420903359,1630047189,0,30306,2700.0,3971.0,455.0,0.0,0.0,0.0,0.0
1630047189531685452,1630047189,0,30306,2689.0,3963.0,427.0,0.0,0.0,0.0,0.0
1630047189630711619,1630047189,0,30306,2689.0,3955.0,404.0,0.0,0.0,0.0,0.0
1630047189729215992,1630047189,0,30306,2697.0,3949.0,408.0,0.0,0.0,0.0,0.0
1630047189830905995,1630047189,0,30306,2707.0,3944.0,417.0,0.0,0.0,0.0,0.0
1630047189940221534,1630047189,0,30306,2714.0,3942.0,427.0,0.0,0.0,0.0,0.0
1630047190029602152,1630047190,0,30306,2715.0,3937.0,441.0,0.0,0.0,0.0,0.0
1630047190139178254,1630047190,0,30306,2718.0,3936.0,450.0,0.0,0.0,0.0,0.0
1630047190228365533,1630047190,0,30306,2719.0,3932.0,464.0,0.0,0.0,0.0,0.0
1630047190338722469,1630047190,0,30306,2715.0,3931.0,478.0,0.0,0.0,0.0,0.0
1630047190428208803,1630047190,0,30306,2709.0,3930.0,488.0,0.0,0.0,0.0,0.0
1630047190539016784,1630047190,0,30306,2704.0,3926.0,492.0,0.0,0.0,0.0,0.0
1630047190627944433,1630047190,0,30306,2705.0,3924.0,502.0,0.0,0.0,0.0,0.0
1630047190737224905,1630047190,0,30306,2715.0,3935.0,518.0,0.0,0.0,0.0,0.0
1630047190826395218,1630047190,0,30306,2722.0,3942.0,535.0,0.0,0.0,0.0,0.0
1630047190937781329,1630047190,0,30306,2724.0,3946.0,556.0,0.0,0.0,0.0,0.0
1630047191027336742,1630047191,0,30306,2722.0,3955.0,570.0,0.0,0.0,0.0,0.0
1630047191136942946,1630047191,0,30306,2715.0,3964.0,587.0,0.0,0.0,0.0,0.0
1630047191225906823,1630047191,0,30306,2709.0,3977.0,593.0,0.0,0.0,0.0,0.0
1630047191337178072,1630047191,0,30306,2704.0,3984.0,603.0,0.0,0.0,0.0,0.0
1630047191436403112,1630047191,0,30306,2695.0,3997.0,598.0,0.0,0.0,0.0,0.0
1630047191526382563,1630047191,0,30306,2685.0,4011.0,591.0,0.0,0.0,0.0,0.0
1630047191634518066,1630047191,0,30306,2679.0,4016.0,576.0,0.0,0.0,0.0,0.0
1630047191724745694,1630047191,0,30306,2686.0,4021.0,562.0,0.0,0.0,0.0,0.0
1630047191836213443,1630047191,0,30306,2687.0,4021.0,537.0,0.0,0.0,0.0,0.0
1630047191924432466,1630047191,0,30306,2685.0,4022.0,510.0,0.0,0.0,0.0,0.0
1630047192033332209,1630047192,0,30306,2682.0,4020.0,476.0,0.0,0.0,0.0,0.0
1630047192123742256,1630047192,0,30306,2676.0,4022.0,444.0,0.0,0.0,0.0,0.0
1630047192234231493,1630047192,0,30306,2665.0,4025.0,417.0,0.0,0.0,0.0,0.0
1630047192323222083,1630047192,0,30306,2652.0,4023.0,385.0,0.0,0.0,0.0,0.0
1630047192433224865,1630047192,0,30306,2637.0,4021.0,359.0,0.0,0.0,0.0,0.0
1630047192522159113,1630047192,0,30306,2623.0,4024.0,335.0,0.0,0.0,0.0,0.0
1630047192631387178,1630047192,0,30306,2616.0,4025.0,311.0,0.0,0.0,0.0,0.0
1630047192730128353,1630047192,0,30306,2636.0,4016.0,322.0,0.0,0.0,0.0,0.0
1630047192831928059,1630047192,0,30306,2648.0,4003.0,330.0,0.0,0.0,0.0,0.0
1630047192931066011,1630047192,0,30306,2661.0,3996.0,341.0,0.0,0.0,0.0,0.0
1630047193030968166,1630047193,0,30306,2673.0,3981.0,351.0,0.0,0.0,0.0,0.0
1630047193131027844,1630047193,0,30306,2681.0,3968.0,356.0,0.0,0.0,0.0,0.0
1630047193241770025,1630047193,0,30306,2684.0,3953.0,357.0,0.0,0.0,0.0,0.0
1630047193332252038,1630047193,0,30306,2688.0,3943.0,356.0,0.0,0.0,0.0,0.0
1630047193443514097,1630047193,0,30306,2684.0,3926.0,355.0,0.0,0.0,0.0,0.0
1630047193531446183,1630047193,0,30306,2685.0,3919.0,345.0,0.0,0.0,0.0,0.0
1630047193620773218,1630047193,0,30306,2685.0,3917.0,349.0,0.0,0.0,0.0,0.0
1630047193732353334,1630047193,0,30306,2716.0,3925.0,389.0,0.0,0.0,0.0,0.0
1630047193832432329,1630047193,0,30306,2737.0,3932.0,428.0,0.0,0.0,0.0,0.0
1630047193931399980,1630047193,0,30306,2757.0,3936.0,469.0,0.0,0.0,0.0,0.0
1630047194031608939,1630047194,0,30306,2769.0,3943.0,497.0,0.0,0.0,0.0,0.0
1630047194143244819,1630047194,0,30306,2776.0,3943.0,536.0,0.0,0.0,0.0,0.0
1630047194232145680,1630047194,0,30306,2778.0,3949.0,566.0,0.0,0.0,0.0,0.0
1630047194339589333,1630047194,0,30306,2781.0,3950.0,602.0,0.0,0.0,0.0,0.0
1630047194431333680,1630047194,0,30306,2786.0,3953.0,638.0,0.0,0.0,0.0,0.0
1630047194541993990,1630047194,0,30306,2790.0,3949.0,665.0,0.0,0.0,0.0,0.0
1630047194630919005,1630047194,0,30306,2797.0,3948.0,680.0,0.0,0.0,0.0,0.0
1630047194720522109,1630047194,0,30306,2801.0,3962.0,711.0,0.0,0.0,0.0,0.0
1630047194830985828,1630047194,0,30306,2804.0,3968.0,745.0,0.0,0.0,0.0,0.0
1630047194930501321,1630047194,0,30306,2806.0,3971.0,776.0,0.0,0.0,0.0,0.0
1630047195041558860,1630047195,0,30306,2806.0,3973.0,813.0,0.0,0.0,0.0,0.0
1630047195130154874,1630047195,0,30306,2808.0,3971.0,841.0,0.0,0.0,0.0,0.0
1630047195219462799,1630047195,0,30306,2810.0,3969.0,874.0,0.0,0.0,0.0,0.0
1630047195331171090,1630047195,0,30306,2807.0,3971.0,897.0,0.0,0.0,0.0,0.0
1630047195430224220,1630047195,0,30306,2808.0,3964.0,914.0,0.0,0.0,0.0,0.0
1630047195541085017,1630047195,0,30306,2805.0,3959.0,911.0,0.0,0.0,0.0,0.0
1630047195629649830,1630047195,0,30306,2806.0,3951.0,915.0,0.0,0.0,0.0,0.0
1630047195717039091,1630047195,0,30306,2793.0,3960.0,829.0,0.0,0.0,0.0,0.0
1630047195830151564,1630047195,0,30306,2778.0,3972.0,761.0,0.0,0.0,0.0,0.0
1630047195930768562,1630047195,0,30306,2770.0,3972.0,703.0,0.0,0.0,0.0,0.0
1630047196039995128,1630047196,0,30306,2761.0,3976.0,650.0,0.0,0.0,0.0,0.0
1630047196130550586,1630047196,0,30306,2753.0,3981.0,606.0,0.0,0.0,0.0,0.0
1630047196239591399,1630047196,0,30306,2752.0,3986.0,569.0,0.0,0.0,0.0,0.0
1630047196328905544,1630047196,0,30306,2745.0,3993.0,537.0,0.0,0.0,0.0,0.0
1630047196420486092,1630047196,0,30306,2744.0,4003.0,502.0,0.0,0.0,0.0,0.0
1630047196529210202,1630047196,0,30306,2737.0,4005.0,478.0,0.0,0.0,0.0,0.0
1630047196627630910,1630047196,0,30306,2733.0,4005.0,461.0,0.0,0.0,0.0,0.0
1630047196730212024,1630047196,0,30306,2737.0,3999.0,462.0,0.0,0.0,0.0,0.0
1630047196830270385,1630047196,0,30306,2739.0,3991.0,467.0,0.0,0.0,0.0,0.0
1630047196931360643,1630047196,0,30306,2742.0,3986.0,475.0,0.0,0.0,0.0,0.0
1630047197030472165,1630047197,0,30306,2741.0,3983.0,484.0,0.0,0.0,0.0,0.0
1630047197140528428,1630047197,0,30306,2740.0,3977.0,492.0,0.0,0.0,0.0,0.0
1630047197231203620,1630047197,0,30306,2740.0,3971.0,492.0,0.0,0.0,0.0,0.0
1630047197339109428,1630047197,0,30306,2739.0,3966.0,496.0,0.0,0.0,0.0,0.0
1630047197431353035,1630047197,0,30306,2737.0,3960.0,502.0,0.0,0.0,0.0,0.0
1630047197521137730,1630047197,0,30306,2737.0,3953.0,506.0,0.0,0.0,0.0,0.0
1630047197629040662,1630047197,0,30306,2741.0,3951.0,499.0,0.0,0.0,0.0,0.0
1630047197731106116,1630047197,0,30306,2745.0,3954.0,505.0,0.0,0.0,0.0,0.0
1630047197831638177,1630047197,0,30306,2751.0,3959.0,503.0,0.0,0.0,0.0,0.0
1630047197931403154,1630047197,0,30306,2762.0,3961.0,503.0,0.0,0.0,0.0,0.0
1630047198041370454,1630047198,0,30306,2773.0,3966.0,497.0,0.0,0.0,0.0,0.0
1630047198130632127,1630047198,0,30306,2780.0,3975.0,487.0,0.0,0.0,0.0,0.0
1630047198241888437,1630047198,0,30306,2791.0,3979.0,482.0,0.0,0.0,0.0,0.0
1630047198331245694,1630047198,0,30306,2798.0,3982.0,477.0,0.0,0.0,0.0,0.0
1630047198440548488,1630047198,0,30306,2806.0,3985.0,475.0,0.0,0.0,0.0,0.0
1630047198530792386,1630047198,0,30306,2820.0,3990.0,473.0,0.0,0.0,0.0,0.0
1630047198630681713,1630047198,0,30306,2834.0,3991.0,467.0,0.0,0.0,0.0,0.0
1630047198739377563,1630047198,0,30306,2824.0,3989.0,498.0,0.0,0.0,0.0,0.0
1630047198830558161,1630047198,0,30306,2815.0,3992.0,525.0,0.0,0.0,0.0,0.0
1630047198921102546,1630047198,0,30306,2810.0,3992.0,556.0,0.0,0.0,0.0,0.0
1630047199030425174,1630047199,0,30306,2810.0,3998.0,580.0,0.0,0.0,0.0,0.0
1630047199130757555,1630047199,0,30306,2817.0,4001.0,611.0,0.0,0.0,0.0,0.0
1630047199230845848,1630047199,0,30306,2823.0,4006.0,648.0,0.0,0.0,0.0,0.0
1630047199331021372,1630047199,0,30306,2830.0,4006.0,676.0,0.0,0.0,0.0,0.0
1630047199442275391,1630047199,0,30306,2829.0,4003.0,706.0,0.0,0.0,0.0,0.0
1630047199530929913,1630047199,0,30306,2830.0,4007.0,743.0,0.0,0.0,0.0,0.0
1630047199642144940,1630047199,0,30306,2831.0,4003.0,773.0,0.0,0.0,0.0,0.0
1630047199730204905,1630047199,0,30306,2813.0,4001.0,774.0,0.0,0.0,0.0,0.0
1630047199822016649,1630047199,0,30306,2797.0,3999.0,779.0,0.0,0.0,0.0,0.0
1630047199931344111,1630047199,0,30306,2785.0,4000.0,783.0,0.0,0.0,0.0,0.0
1630047200031627498,1630047200,0,30306,2776.0,4000.0,785.0,0.0,0.0,0.0,0.0
1630047200141036817,1630047200,0,30306,2772.0,4004.0,786.0,0.0,0.0,0.0,0.0
1630047200231930881,1630047200,0,30306,2769.0,4003.0,784.0,0.0,0.0,0.0,0.0
1630047200341904335,1630047200,0,30306,2764.0,4006.0,784.0,0.0,0.0,0.0,0.0
1630047200430194058,1630047200,0,30306,2763.0,4010.0,785.0,0.0,0.0,0.0,0.0
1630047200521943092,1630047200,0,30306,2761.0,4015.0,777.0,0.0,0.0,0.0,0.0
1630047200632231022,1630047200,0,30306,2769.0,4019.0,784.0,0.0,0.0,0.0,0.0
1630047200722108861,1630047200,0,30306,2763.0,4011.0,747.0,0.0,0.0,0.0,0.0
1630047200842322174,1630047200,0,30306,2753.0,4003.0,716.0,0.0,0.0,0.0,0.0
1630047200931513585,1630047200,0,30306,2756.0,4003.0,690.0,0.0,0.0,0.0,0.0
1630047201020149128,1630047201,0,30306,2759.0,4004.0,666.0,0.0,0.0,0.0,0.0
1630047201131996812,1630047201,0,30306,2757.0,4005.0,657.0,0.0,0.0,0.0,0.0
1630047201231738428,1630047201,0,30306,2759.0,4012.0,647.0,0.0,0.0,0.0,0.0
1630047201330545574,1630047201,0,30306,2766.0,4025.0,644.0,0.0,0.0,0.0,0.0
1630047201431809880,1630047201,0,30306,2767.0,4037.0,648.0,0.0,0.0,0.0,0.0
1630047201522139668,1630047201,0,30306,2771.0,4051.0,656.0,0.0,0.0,0.0,0.0
1630047201631889677,1630047201,0,30306,2777.0,4066.0,671.0,0.0,0.0,0.0,0.0
1630047201732835530,1630047201,0,30306,2772.0,4057.0,642.0,0.0,0.0,0.0,0.0
1630047201831669378,1630047201,0,30306,2764.0,4047.0,623.0,0.0,0.0,0.0,0.0
1630047201930739335,1630047201,0,30306,2758.0,4040.0,613.0,0.0,0.0,0.0,0.0
1630047202042083082,1630047202,0,30306,2754.0,4035.0,597.0,0.0,0.0,0.0,0.0
1630047202131001071,1630047202,0,30306,2747.0,4032.0,581.0,0.0,0.0,0.0,0.0
1630047202219864057,1630047202,0,30306,2745.0,4030.0,561.0,0.0,0.0,0.0,0.0
1630047202330050640,1630047202,0,30306,2745.0,4031.0,544.0,0.0,0.0,0.0,0.0
1630047202429928378,1630047202,0,30306,2749.0,4042.0,517.0,0.0,0.0,0.0,0.0
1630047202538491423,1630047202,0,30306,2752.0,4045.0,495.0,0.0,0.0,0.0,0.0
1630047202628546956,1630047202,0,30306,2752.0,4057.0,482.0,0.0,0.0,0.0,0.0
1630047202718421224,1630047202,0,30306,2744.0,4038.0,471.0,0.0,0.0,0.0,0.0
1630047202829034378,1630047202,0,30306,2737.0,4024.0,463.0,0.0,0.0,0.0,0.0
1630047202929397759,1630047202,0,30306,2731.0,4014.0,457.0,0.0,0.0,0.0,0.0
1630047203038866730,1630047203,0,30306,2728.0,4001.0,446.0,0.0,0.0,0.0,0.0
1630047203130863445,1630047203,0,30306,2730.0,3998.0,439.0,0.0,0.0,0.0,0.0
1630047203240831380,1630047203,0,30306,2731.0,3998.0,447.0,0.0,0.0,0.0,0.0
1630047203330086523,1630047203,0,30306,2732.0,4001.0,455.0,0.0,0.0,0.0,0.0
1630047203421097224,1630047203,0,30306,2736.0,4005.0,465.0,0.0,0.0,0.0,0.0
1630047203539366884,1630047203,0,30306,2736.0,4011.0,465.0,0.0,0.0,0.0,0.0
1630047203625971667,1630047203,0,30306,2731.0,4013.0,462.0,0.0,0.0,0.0,0.0
1630047203736733228,1630047203,0,30306,2738.0,4002.0,491.0,0.0,0.0,0.0,0.0
1630047203835575625,1630047203,0,30306,2740.0,3995.0,515.0,0.0,0.0,0.0,0.0
1630047203927304261,1630047203,0,30306,2738.0,3990.0,538.0,0.0,0.0,0.0,0.0
1630047204036261983,1630047204,0,30306,2727.0,3985.0,551.0,0.0,0.0,0.0,0.0
1630047204125211063,1630047204,0,30306,2711.0,3979.0,559.0,0.0,0.0,0.0,0.0
1630047204235953833,1630047204,0,30306,2696.0,3973.0,562.0,0.0,0.0,0.0,0.0
1630047204335870872,1630047204,0,30306,2684.0,3963.0,568.0,0.0,0.0,0.0,0.0
1630047204424271030,1630047204,0,30306,2672.0,3953.0,571.0,0.0,0.0,0.0,0.0
1630047204535966606,1630047204,0,30306,2653.0,3940.0,574.0,0.0,0.0,0.0,0.0
1630047204631151650,1630047204,0,30306,2641.0,3926.0,577.0,0.0,0.0,0.0,0.0
1630047204725780730,1630047204,0,30306,2656.0,3928.0,577.0,0.0,0.0,0.0,0.0
1630047204838732111,1630047204,0,30306,2663.0,3931.0,575.0,0.0,0.0,0.0,0.0
1630047204929184757,1630047204,0,30306,2666.0,3933.0,573.0,0.0,0.0,0.0,0.0
1630047205039826872,1630047205,0,30306,2665.0,3928.0,571.0,0.0,0.0,0.0,0.0
1630047205129266004,1630047205,0,30306,2666.0,3921.0,563.0,0.0,0.0,0.0,0.0
1630047205240487066,1630047205,0,30306,2668.0,3914.0,563.0,0.0,0.0,0.0,0.0
1630047205327936513,1630047205,0,30306,2669.0,3908.0,563.0,0.0,0.0,0.0,0.0
1630047205429423680,1630047205,0,30306,2669.0,3902.0,566.0,0.0,0.0,0.0,0.0
1630047205529338686,1630047205,0,30306,2670.0,3901.0,564.0,0.0,0.0,0.0,0.0
1630047205629229904,1630047205,0,30306,2675.0,3900.0,571.0,0.0,0.0,0.0,0.0
1630047205738958303,1630047205,0,30306,2706.0,3918.0,572.0,0.0,0.0,0.0,0.0
1630047205828853541,1630047205,0,30306,2734.0,3935.0,566.0,0.0,0.0,0.0,0.0
1630047205939398826,1630047205,0,30306,2760.0,3949.0,559.0,0.0,0.0,0.0,0.0
1630047206029103457,1630047206,0,30306,2780.0,3958.0,542.0,0.0,0.0,0.0,0.0
1630047206139856663,1630047206,0,30306,2798.0,3959.0,530.0,0.0,0.0,0.0,0.0
1630047206229037223,1630047206,0,30306,2814.0,3961.0,510.0,0.0,0.0,0.0,0.0
1630047206328856346,1630047206,0,30306,2823.0,3958.0,500.0,0.0,0.0,0.0,0.0
1630047206439576995,1630047206,0,30306,2827.0,3955.0,486.0,0.0,0.0,0.0,0.0
1630047206529641909,1630047206,0,30306,2837.0,3953.0,475.0,0.0,0.0,0.0,0.0
1630047206639396266,1630047206,0,30306,2854.0,3948.0,465.0,0.0,0.0,0.0,0.0
1630047206727929223,1630047206,0,30306,2859.0,3954.0,468.0,0.0,0.0,0.0,0.0
1630047206829623378,1630047206,0,30306,2868.0,3957.0,471.0,0.0,0.0,0.0,0.0
1630047206929822286,1630047206,0,30306,2881.0,3954.0,477.0,0.0,0.0,0.0,0.0
1630047207029949643,1630047207,0,30306,2893.0,3949.0,481.0,0.0,0.0,0.0,0.0
1630047207140131125,1630047207,0,30306,2902.0,3942.0,485.0,0.0,0.0,0.0,0.0
1630047207227841467,1630047207,0,30306,2920.0,3942.0,484.0,0.0,0.0,0.0,0.0
1630047207339441220,1630047207,0,30306,2936.0,3942.0,491.0,0.0,0.0,0.0,0.0
1630047207428733942,1630047207,0,30306,2952.0,3936.0,487.0,0.0,0.0,0.0,0.0
1630047207528678746,1630047207,0,30306,2967.0,3927.0,485.0,0.0,0.0,0.0,0.0
1630047207638428272,1630047207,0,30306,2985.0,3919.0,475.0,0.0,0.0,0.0,0.0
1630047207727495785,1630047207,0,30306,2938.0,3930.0,471.0,0.0,0.0,0.0,0.0
1630047207839320362,1630047207,0,30306,2895.0,3936.0,470.0,0.0,0.0,0.0,0.0
1630047207927792105,1630047207,0,30306,2869.0,3935.0,474.0,0.0,0.0,0.0,0.0
1630047208027728192,1630047208,0,30306,2851.0,3931.0,468.0,0.0,0.0,0.0,0.0
1630047208137840228,1630047208,0,30306,2843.0,3924.0,464.0,0.0,0.0,0.0,0.0
1630047208238125749,1630047208,0,30306,2838.0,3909.0,451.0,0.0,0.0,0.0,0.0
1630047208338577232,1630047208,0,30306,2846.0,3899.0,451.0,0.0,0.0,0.0,0.0
1630047208427095102,1630047208,0,30306,2854.0,3887.0,447.0,0.0,0.0,0.0,0.0
1630047208536245997,1630047208,0,30306,2867.0,3873.0,444.0,0.0,0.0,0.0,0.0
1630047208627696288,1630047208,0,30306,2877.0,3859.0,432.0,0.0,0.0,0.0,0.0
1630047208738117618,1630047208,0,30306,2833.0,3874.0,457.0,0.0,0.0,0.0,0.0
1630047208827052222,1630047208,0,30306,2799.0,3888.0,483.0,0.0,0.0,0.0,0.0
1630047208936671785,1630047208,0,30306,2776.0,3901.0,503.0,0.0,0.0,0.0,0.0
1630047209028079456,1630047209,0,30306,2762.0,3903.0,526.0,0.0,0.0,0.0,0.0
1630047209127624340,1630047209,0,30306,2748.0,3908.0,554.0,0.0,0.0,0.0,0.0
1630047209237969870,1630047209,0,30306,2743.0,3906.0,577.0,0.0,0.0,0.0,0.0
1630047209326406328,1630047209,0,30306,2740.0,3904.0,595.0,0.0,0.0,0.0,0.0
1630047209436492654,1630047209,0,30306,2746.0,3901.0,616.0,0.0,0.0,0.0,0.0
1630047209525317417,1630047209,0,30306,2749.0,3901.0,639.0,0.0,0.0,0.0,0.0
1630047209636401958,1630047209,0,30306,2750.0,3892.0,658.0,0.0,0.0,0.0,0.0
1630047209736997288,1630047209,0,30306,2741.0,3918.0,656.0,0.0,0.0,0.0,0.0
1630047209826514400,1630047209,0,30306,2737.0,3948.0,667.0,0.0,0.0,0.0,0.0
1630047209936042503,1630047209,0,30306,2732.0,3973.0,671.0,0.0,0.0,0.0,0.0
1630047210026142326,1630047210,0,30306,2732.0,4004.0,679.0,0.0,0.0,0.0,0.0
1630047210136945786,1630047210,0,30306,2726.0,4024.0,683.0,0.0,0.0,0.0,0.0
1630047210226671774,1630047210,0,30306,2725.0,4030.0,678.0,0.0,0.0,0.0,0.0
1630047210337013812,1630047210,0,30306,2712.0,4026.0,671.0,0.0,0.0,0.0,0.0
1630047210426561108,1630047210,0,30306,2701.0,4017.0,659.0,0.0,0.0,0.0,0.0
1630047210536165323,1630047210,0,30306,2690.0,4003.0,646.0,0.0,0.0,0.0,0.0
1630047210627000110,1630047210,0,30306,2670.0,3986.0,632.0,0.0,0.0,0.0,0.0
1630047210734112013,1630047210,0,30306,2677.0,3984.0,611.0,0.0,0.0,0.0,0.0
1630047210826207993,1630047210,0,30306,2683.0,3979.0,585.0,0.0,0.0,0.0,0.0
1630047210937143592,1630047210,0,30306,2685.0,3979.0,558.0,0.0,0.0,0.0,0.0
1630047211025507834,1630047211,0,30306,2685.0,3976.0,543.0,0.0,0.0,0.0,0.0
1630047211126193864,1630047211,0,30306,2683.0,3980.0,526.0,0.0,0.0,0.0,0.0
1630047211236447416,1630047211,0,30306,2674.0,3979.0,512.0,0.0,0.0,0.0,0.0
1630047211326778842,1630047211,0,30306,2661.0,3975.0,497.0,0.0,0.0,0.0,0.0
1630047211438065106,1630047211,0,30306,2653.0,3973.0,484.0,0.0,0.0,0.0,0.0
1630047211526161253,1630047211,0,30306,2648.0,3974.0,472.0,0.0,0.0,0.0,0.0
1630047211635221238,1630047211,0,30306,2638.0,3974.0,463.0,0.0,0.0,0.0,0.0
1630047211727944296,1630047211,0,30306,2655.0,3973.0,457.0,0.0,0.0,0.0,0.0
1630047211827420104,1630047211,0,30306,2674.0,3972.0,459.0,0.0,0.0,0.0,0.0
1630047211937763330,1630047211,0,30306,2683.0,3977.0,460.0,0.0,0.0,0.0,0.0
1630047212026592134,1630047212,0,30306,2694.0,3977.0,466.0,0.0,0.0,0.0,0.0
1630047212136732297,1630047212,0,30306,2700.0,3981.0,480.0,0.0,0.0,0.0,0.0
1630047212226274368,1630047212,0,30306,2708.0,3985.0,498.0,0.0,0.0,0.0,0.0
1630047212335403130,1630047212,0,30306,2712.0,3992.0,513.0,0.0,0.0,0.0,0.0
1630047212436069035,1630047212,0,30306,2710.0,3998.0,526.0,0.0,0.0,0.0,0.0
1630047212524632544,1630047212,0,30306,2713.0,4006.0,539.0,0.0,0.0,0.0,0.0
1630047212635753662,1630047212,0,30306,2718.0,4018.0,541.0,0.0,0.0,0.0,0.0
1630047212726105786,1630047212,0,30306,2731.0,4012.0,560.0,0.0,0.0,0.0,0.0
1630047212836426609,1630047212,0,30306,2745.0,4009.0,579.0,0.0,0.0,0.0,0.0
1630047212926412474,1630047212,0,30306,2756.0,4006.0,589.0,0.0,0.0,0.0,0.0
1630047213036440254,1630047213,0,30306,2759.0,4005.0,596.0,0.0,0.0,0.0,0.0
1630047213137712516,1630047213,0,30306,2758.0,4001.0,601.0,0.0,0.0,0.0,0.0
1630047213227223430,1630047213,0,30306,2766.0,3998.0,604.0,0.0,0.0,0.0,0.0
1630047213336403733,1630047213,0,30306,2763.0,3996.0,605.0,0.0,0.0,0.0,0.0
1630047213424906903,1630047213,0,30306,2761.0,3998.0,604.0,0.0,0.0,0.0,0.0
1630047213536718688,1630047213,0,30306,2762.0,4000.0,604.0,0.0,0.0,0.0,0.0
1630047213626281678,1630047213,0,30306,2761.0,4004.0,597.0,0.0,0.0,0.0,0.0
1630047213736598385,1630047213,0,30306,2756.0,3995.0,588.0,0.0,0.0,0.0,0.0
1630047213825421085,1630047213,0,30306,2760.0,3986.0,585.0,0.0,0.0,0.0,0.0
1630047213935535642,1630047213,0,30306,2767.0,3978.0,578.0,0.0,0.0,0.0,0.0
1630047214035430685,1630047214,0,30306,2775.0,3973.0,576.0,0.0,0.0,0.0,0.0
1630047214126926214,1630047214,0,30306,2778.0,3972.0,575.0,0.0,0.0,0.0,0.0
1630047214236838211,1630047214,0,30306,2780.0,3972.0,570.0,0.0,0.0,0.0,0.0
1630047214324839122,1630047214,0,30306,2781.0,3970.0,562.0,0.0,0.0,0.0,0.0
1630047214435641351,1630047214,0,30306,2785.0,3969.0,560.0,0.0,0.0,0.0,0.0
1630047214525048492,1630047214,0,30306,2789.0,3969.0,561.0,0.0,0.0,0.0,0.0
1630047214636590184,1630047214,0,30306,2790.0,3976.0,560.0,0.0,0.0,0.0,0.0
1630047214735912291,1630047214,0,30306,2789.0,3981.0,564.0,0.0,0.0,0.0,0.0
1630047214825810803,1630047214,0,30306,2786.0,3984.0,559.0,0.0,0.0,0.0,0.0
1630047214935486936,1630047214,0,30306,2778.0,3986.0,563.0,0.0,0.0,0.0,0.0
1630047215025192007,1630047215,0,30306,2773.0,3992.0,558.0,0.0,0.0,0.0,0.0
1630047215137029164,1630047215,0,30306,2765.0,4004.0,543.0,0.0,0.0,0.0,0.0
1630047215226523653,1630047215,0,30306,2757.0,4014.0,531.0,0.0,0.0,0.0,0.0
1630047215335335298,1630047215,0,30306,2751.0,4025.0,523.0,0.0,0.0,0.0,0.0
1630047215425776995,1630047215,0,30306,2749.0,4033.0,510.0,0.0,0.0,0.0,0.0
1630047215535891656,1630047215,0,30306,2742.0,4041.0,489.0,0.0,0.0,0.0,0.0
1630047215636640010,1630047215,0,30306,2737.0,4052.0,473.0,0.0,0.0,0.0,0.0
1630047215726028222,1630047215,0,30306,2732.0,4048.0,478.0,0.0,0.0,0.0,0.0
1630047215834686068,1630047215,0,30306,2733.0,4049.0,481.0,0.0,0.0,0.0,0.0
1630047215924760425,1630047215,0,30306,2733.0,4053.0,471.0,0.0,0.0,0.0,0.0
1630047216035146098,1630047216,0,30306,2732.0,4061.0,462.0,0.0,0.0,0.0,0.0
1630047216124255129,1630047216,0,30306,2733.0,4067.0,456.0,0.0,0.0,0.0,0.0
1630047216235706020,1630047216,0,30306,2729.0,4073.0,451.0,0.0,0.0,0.0,0.0
1630047216333758368,1630047216,0,30306,2726.0,4077.0,447.0,0.0,0.0,0.0,0.0
1630047216422754840,1630047216,0,30306,2725.0,4078.0,422.0,0.0,0.0,0.0,0.0
1630047216534445813,1630047216,0,30306,2721.0,4080.0,398.0,0.0,0.0,0.0,0.0
1630047216623916896,1630047216,0,30306,2715.0,4084.0,372.0,0.0,0.0,0.0,0.0
1630047216733039617,1630047216,0,30306,2723.0,4050.0,386.0,0.0,0.0,0.0,0.0
1630047216833140497,1630047216,0,30306,2727.0,4028.0,395.0,0.0,0.0,0.0,0.0
1630047216933130096,1630047216,0,30306,2725.0,4010.0,403.0,0.0,0.0,0.0,0.0
1630047217033554903,1630047217,0,30306,2721.0,4002.0,404.0,0.0,0.0,0.0,0.0
1630047217122672285,1630047217,0,30306,2711.0,4003.0,393.0,0.0,0.0,0.0,0.0
1630047217233589162,1630047217,0,30306,2703.0,4004.0,390.0,0.0,0.0,0.0,0.0
1630047217321038940,1630047217,0,30306,2692.0,4008.0,386.0,0.0,0.0,0.0,0.0
1630047217432186177,1630047217,0,30306,2682.0,4018.0,375.0,0.0,0.0,0.0,0.0
1630047217533641970,1630047217,0,30306,2676.0,4026.0,358.0,0.0,0.0,0.0,0.0
1630047217634008426,1630047217,0,30306,2663.0,4036.0,349.0,0.0,0.0,0.0,0.0
1630047217733442560,1630047217,0,30306,2668.0,4009.0,388.0,0.0,0.0,0.0,0.0
1630047217833300497,1630047217,0,30306,2671.0,3987.0,422.0,0.0,0.0,0.0,0.0
1630047217934013415,1630047217,0,30306,2670.0,3963.0,450.0,0.0,0.0,0.0,0.0
1630047218022938415,1630047218,0,30306,2674.0,3945.0,466.0,0.0,0.0,0.0,0.0
1630047218132117460,1630047218,0,30306,2667.0,3932.0,483.0,0.0,0.0,0.0,0.0
1630047218232243074,1630047218,0,30306,2669.0,3918.0,504.0,0.0,0.0,0.0,0.0
1630047218330704625,1630047218,0,30306,2665.0,3906.0,517.0,0.0,0.0,0.0,0.0
1630047218431382694,1630047218,0,30306,2660.0,3898.0,530.0,0.0,0.0,0.0,0.0
1630047218542133900,1630047218,0,30306,2653.0,3888.0,545.0,0.0,0.0,0.0,0.0
1630047218631477172,1630047218,0,30306,2646.0,3879.0,549.0,0.0,0.0,0.0,0.0
1630047218742791792,1630047218,0,30306,2664.0,3889.0,563.0,0.0,0.0,0.0,0.0
1630047218832297911,1630047218,0,30306,2674.0,3897.0,561.0,0.0,0.0,0.0,0.0
1630047218930752837,1630047218,0,30306,2684.0,3901.0,560.0,0.0,0.0,0.0,0.0
1630047219030377684,1630047219,0,30306,2686.0,3901.0,550.0,0.0,0.0,0.0,0.0
1630047219131665280,1630047219,0,30306,2689.0,3899.0,527.0,0.0,0.0,0.0,0.0
1630047219241232357,1630047219,0,30306,2687.0,3896.0,500.0,0.0,0.0,0.0,0.0
1630047219330939641,1630047219,0,30306,2686.0,3893.0,469.0,0.0,0.0,0.0,0.0
1630047219420881787,1630047219,0,30306,2687.0,3883.0,439.0,0.0,0.0,0.0,0.0
1630047219530860334,1630047219,0,30306,2689.0,3877.0,414.0,0.0,0.0,0.0,0.0
1630047219630103451,1630047219,0,30306,2690.0,3870.0,380.0,0.0,0.0,0.0,0.0
1630047219729270012,1630047219,0,30306,2708.0,3895.0,380.0,0.0,0.0,0.0,0.0
1630047219831147561,1630047219,0,30306,2716.0,3917.0,382.0,0.0,0.0,0.0,0.0
1630047219941818143,1630047219,0,30306,2723.0,3935.0,386.0,0.0,0.0,0.0,0.0
1630047220028572339,1630047220,0,30306,2724.0,3947.0,389.0,0.0,0.0,0.0,0.0
1630047220120048063,1630047220,0,30306,2727.0,3952.0,390.0,0.0,0.0,0.0,0.0
1630047220231245749,1630047220,0,30306,2727.0,3955.0,400.0,0.0,0.0,0.0,0.0
1630047220330824004,1630047220,0,30306,2720.0,3958.0,403.0,0.0,0.0,0.0,0.0
1630047220430878650,1630047220,0,30306,2715.0,3952.0,390.0,0.0,0.0,0.0,0.0
1630047220531720167,1630047220,0,30306,2711.0,3950.0,387.0,0.0,0.0,0.0,0.0
1630047220641912091,1630047220,0,30306,2709.0,3952.0,373.0,0.0,0.0,0.0,0.0
1630047220729412153,1630047220,0,30306,2717.0,3976.0,400.0,0.0,0.0,0.0,0.0
1630047220842474993,1630047220,0,30306,2728.0,3996.0,421.0,0.0,0.0,0.0,0.0
1630047220931565615,1630047220,0,30306,2739.0,4015.0,438.0,0.0,0.0,0.0,0.0
1630047221042511769,1630047221,0,30306,2751.0,4034.0,444.0,0.0,0.0,0.0,0.0
1630047221131697558,1630047221,0,30306,2763.0,4051.0,440.0,0.0,0.0,0.0,0.0
1630047221241817025,1630047221,0,30306,2774.0,4062.0,442.0,0.0,0.0,0.0,0.0
1630047221331993990,1630047221,0,30306,2779.0,4071.0,457.0,0.0,0.0,0.0,0.0
1630047221420944390,1630047221,0,30306,2783.0,4077.0,466.0,0.0,0.0,0.0,0.0
1630047221533684837,1630047221,0,30306,2785.0,4081.0,469.0,0.0,0.0,0.0,0.0
1630047221620632356,1630047221,0,30306,2789.0,4087.0,472.0,0.0,0.0,0.0,0.0
1630047221732878227,1630047221,0,30306,2778.0,4063.0,493.0,0.0,0.0,0.0,0.0
1630047221821280735,1630047221,0,30306,2769.0,4045.0,509.0,0.0,0.0,0.0,0.0
1630047221930806717,1630047221,0,30306,2760.0,4030.0,516.0,0.0,0.0,0.0,0.0
1630047222031401756,1630047222,0,30306,2754.0,4015.0,521.0,0.0,0.0,0.0,0.0
1630047222142041503,1630047222,0,30306,2749.0,4002.0,538.0,0.0,0.0,0.0,0.0
1630047222231708246,1630047222,0,30306,2748.0,3998.0,547.0,0.0,0.0,0.0,0.0
1630047222320233592,1630047222,0,30306,2744.0,3994.0,561.0,0.0,0.0,0.0,0.0
1630047222430956290,1630047222,0,30306,2740.0,3996.0,578.0,0.0,0.0,0.0,0.0
1630047222521937329,1630047222,0,30306,2733.0,4002.0,591.0,0.0,0.0,0.0,0.0
1630047222631912874,1630047222,0,30306,2727.0,4002.0,608.0,0.0,0.0,0.0,0.0
1630047222730568730,1630047222,0,30306,2725.0,3989.0,615.0,0.0,0.0,0.0,0.0
1630047222822820011,1630047222,0,30306,2717.0,3981.0,619.0,0.0,0.0,0.0,0.0
1630047222932389817,1630047222,0,30306,2715.0,3970.0,630.0,0.0,0.0,0.0,0.0
1630047223023595839,1630047223,0,30306,2716.0,3961.0,643.0,0.0,0.0,0.0,0.0
1630047223133166709,1630047223,0,30306,2710.0,3952.0,663.0,0.0,0.0,0.0,0.0
1630047223233269974,1630047223,0,30306,2706.0,3949.0,695.0,0.0,0.0,0.0,0.0
1630047223334004583,1630047223,0,30306,2708.0,3946.0,719.0,0.0,0.0,0.0,0.0
1630047223433491433,1630047223,0,30306,2714.0,3946.0,758.0,0.0,0.0,0.0,0.0
1630047223523263335,1630047223,0,30306,2718.0,3945.0,798.0,0.0,0.0,0.0,0.0
1630047223633634950,1630047223,0,30306,2722.0,3943.0,835.0,0.0,0.0,0.0,0.0
1630047223732497678,1630047223,0,30306,2738.0,3944.0,840.0,0.0,0.0,0.0,0.0
1630047223835665779,1630047223,0,30306,2749.0,3947.0,852.0,0.0,0.0,0.0,0.0
1630047223935537959,1630047223,0,30306,2758.0,3944.0,867.0,0.0,0.0,0.0,0.0
1630047224023218152,1630047224,0,30306,2763.0,3945.0,894.0,0.0,0.0,0.0,0.0
1630047224132627296,1630047224,0,30306,2773.0,3945.0,921.0,0.0,0.0,0.0,0.0
1630047224222783397,1630047224,0,30306,2781.0,3946.0,956.0,0.0,0.0,0.0,0.0
1630047224333517405,1630047224,0,30306,2788.0,3949.0,990.0,0.0,0.0,0.0,0.0
1630047224423367321,1630047224,0,30306,2796.0,3949.0,1042.0,0.0,0.0,0.0,0.0
1630047224532976159,1630047224,0,30306,2801.0,3952.0,1074.0,0.0,0.0,0.0,0.0
1630047224623682292,1630047224,0,30306,2808.0,3954.0,1106.0,0.0,0.0,0.0,0.0
1630047224733927293,1630047224,0,30306,2804.0,3969.0,1050.0,0.0,0.0,0.0,0.0
1630047224833761399,1630047224,0,30306,2799.0,3979.0,1001.0,0.0,0.0,0.0,0.0
1630047224934873872,1630047224,0,30306,2804.0,3988.0,949.0,0.0,0.0,0.0,0.0
1630047225034072613,1630047225,0,30306,2798.0,3992.0,914.0,0.0,0.0,0.0,0.0
1630047225124340464,1630047225,0,30306,2799.0,3996.0,879.0,0.0,0.0,0.0,0.0
1630047225234610649,1630047225,0,30306,2796.0,3998.0,851.0,0.0,0.0,0.0,0.0
1630047225323264411,1630047225,0,30306,2796.0,3994.0,833.0,0.0,0.0,0.0,0.0
1630047225434502040,1630047225,0,30306,2800.0,3994.0,815.0,0.0,0.0,0.0,0.0
1630047225534634957,1630047225,0,30306,2806.0,3991.0,800.0,0.0,0.0,0.0,0.0
1630047225623888868,1630047225,0,30306,2813.0,3986.0,785.0,0.0,0.0,0.0,0.0
1630047225734180856,1630047225,0,30306,2802.0,3977.0,698.0,0.0,0.0,0.0,0.0
1630047225823667514,1630047225,0,30306,2793.0,3963.0,621.0,0.0,0.0,0.0,0.0
1630047225933208599,1630047225,0,30306,2788.0,3947.0,548.0,0.0,0.0,0.0,0.0
1630047226023986645,1630047226,0,30306,2779.0,3932.0,487.0,0.0,0.0,0.0,0.0
1630047226134372352,1630047226,0,30306,2769.0,3924.0,442.0,0.0,0.0,0.0,0.0
1630047226233562620,1630047226,0,30306,2760.0,3910.0,399.0,0.0,0.0,0.0,0.0
1630047226345123252,1630047226,0,30306,2752.0,3899.0,361.0,0.0,0.0,0.0,0.0
1630047226434579698,1630047226,0,30306,2741.0,3894.0,330.0,0.0,0.0,0.0,0.0
1630047226524445077,1630047226,0,30306,2731.0,3889.0,303.0,0.0,0.0,0.0,0.0
1630047226635667387,1630047226,0,30306,2722.0,3885.0,277.0,0.0,0.0,0.0,0.0
1630047226724943262,1630047226,0,30306,2707.0,3897.0,301.0,0.0,0.0,0.0,0.0
1630047226835923606,1630047226,0,30306,2696.0,3903.0,319.0,0.0,0.0,0.0,0.0
1630047226933323159,1630047226,0,30306,2679.0,3913.0,328.0,0.0,0.0,0.0,0.0
1630047227034994577,1630047227,0,30306,2669.0,3919.0,327.0,0.0,0.0,0.0,0.0
1630047227134674139,1630047227,0,30306,2659.0,3926.0,320.0,0.0,0.0,0.0,0.0
1630047227234966721,1630047227,0,30306,2646.0,3932.0,322.0,0.0,0.0,0.0,0.0
1630047227333841176,1630047227,0,30306,2632.0,3933.0,316.0,0.0,0.0,0.0,0.0
1630047227424428447,1630047227,0,30306,2620.0,3940.0,319.0,0.0,0.0,0.0,0.0
1630047227533571181,1630047227,0,30306,2610.0,3945.0,310.0,0.0,0.0,0.0,0.0
1630047227623893071,1630047227,0,30306,2597.0,3942.0,305.0,0.0,0.0,0.0,0.0
1630047227735150804,1630047227,0,30306,2623.0,3954.0,358.0,0.0,0.0,0.0,0.0
1630047227825165442,1630047227,0,30306,2638.0,3962.0,401.0,0.0,0.0,0.0,0.0
1630047227935137902,1630047227,0,30306,2651.0,3970.0,442.0,0.0,0.0,0.0,0.0
1630047228034825923,1630047228,0,30306,2660.0,3977.0,477.0,0.0,0.0,0.0,0.0
1630047228126647771,1630047228,0,30306,2668.0,3977.0,500.0,0.0,0.0,0.0,0.0
1630047228235343271,1630047228,0,30306,2670.0,3976.0,512.0,0.0,0.0,0.0,0.0
1630047228323344358,1630047228,0,30306,2668.0,3969.0,518.0,0.0,0.0,0.0,0.0
1630047228436112739,1630047228,0,30306,2666.0,3962.0,525.0,0.0,0.0,0.0,0.0
1630047228525315170,1630047228,0,30306,2659.0,3960.0,521.0,0.0,0.0,0.0,0.0
1630047228625486083,1630047228,0,30306,2653.0,3954.0,515.0,0.0,0.0,0.0,0.0
1630047228732987196,1630047228,0,30306,2686.0,3954.0,535.0,0.0,0.0,0.0,0.0
1630047228823936594,1630047228,0,30306,2712.0,3955.0,550.0,0.0,0.0,0.0,0.0
1630047228933724231,1630047228,0,30306,2729.0,3955.0,554.0,0.0,0.0,0.0,0.0
1630047229032327204,1630047229,0,30306,2746.0,3959.0,555.0,0.0,0.0,0.0,0.0
1630047229142573271,1630047229,0,30306,2752.0,3966.0,552.0,0.0,0.0,0.0,0.0
1630047229232425314,1630047229,0,30306,2754.0,3978.0,535.0,0.0,0.0,0.0,0.0
1630047229321220161,1630047229,0,30306,2749.0,3985.0,520.0,0.0,0.0,0.0,0.0
1630047229430554436,1630047229,0,30306,2744.0,3994.0,499.0,0.0,0.0,0.0,0.0
1630047229532704278,1630047229,0,30306,2738.0,4002.0,482.0,0.0,0.0,0.0,0.0
1630047229632131806,1630047229,0,30306,2734.0,4011.0,466.0,0.0,0.0,0.0,0.0
1630047229730151665,1630047229,0,30306,2736.0,4014.0,474.0,0.0,0.0,0.0,0.0
1630047229841641311,1630047229,0,30306,2741.0,4019.0,485.0,0.0,0.0,0.0,0.0
1630047229932321450,1630047229,0,30306,2743.0,4018.0,489.0,0.0,0.0,0.0,0.0
1630047230022407827,1630047230,0,30306,2741.0,4020.0,504.0,0.0,0.0,0.0,0.0
1630047230132110893,1630047230,0,30306,2738.0,4019.0,499.0,0.0,0.0,0.0,0.0
1630047230221945604,1630047230,0,30306,2739.0,4015.0,499.0,0.0,0.0,0.0,0.0
1630047230332052996,1630047230,0,30306,2739.0,4016.0,501.0,0.0,0.0,0.0,0.0
1630047230431736304,1630047230,0,30306,2739.0,4016.0,502.0,0.0,0.0,0.0,0.0
1630047230520898558,1630047230,0,30306,2740.0,4011.0,502.0,0.0,0.0,0.0,0.0
1630047230631464328,1630047230,0,30306,2740.0,4012.0,502.0,0.0,0.0,0.0,0.0
1630047230731110253,1630047230,0,30306,2741.0,3998.0,511.0,0.0,0.0,0.0,0.0
1630047230830944449,1630047230,0,30306,2739.0,3988.0,533.0,0.0,0.0,0.0,0.0
1630047230932213032,1630047230,0,30306,2737.0,3979.0,539.0,0.0,0.0,0.0,0.0
1630047231044345640,1630047231,0,30306,2733.0,3974.0,544.0,0.0,0.0,0.0,0.0
1630047231133578670,1630047231,0,30306,2728.0,3971.0,546.0,0.0,0.0,0.0,0.0
1630047231222542662,1630047231,0,30306,2727.0,3970.0,547.0,0.0,0.0,0.0,0.0
1630047231333499022,1630047231,0,30306,2723.0,3972.0,553.0,0.0,0.0,0.0,0.0
1630047231422873029,1630047231,0,30306,2724.0,3976.0,541.0,0.0,0.0,0.0,0.0
1630047231533110358,1630047231,0,30306,2727.0,3983.0,532.0,0.0,0.0,0.0,0.0
1630047231633589343,1630047231,0,30306,2728.0,3985.0,514.0,0.0,0.0,0.0,0.0
1630047231733926741,1630047231,0,30306,2734.0,3981.0,495.0,0.0,0.0,0.0,0.0
1630047231834884681,1630047231,0,30306,2736.0,3979.0,495.0,0.0,0.0,0.0,0.0
1630047231934118940,1630047231,0,30306,2739.0,3975.0,492.0,0.0,0.0,0.0,0.0
1630047232034287925,1630047232,0,30306,2736.0,3974.0,481.0,0.0,0.0,0.0,0.0
1630047232123727236,1630047232,0,30306,2737.0,3976.0,471.0,0.0,0.0,0.0,0.0
1630047232233944521,1630047232,0,30306,2742.0,3974.0,466.0,0.0,0.0,0.0,0.0
1630047232323745363,1630047232,0,30306,2747.0,3971.0,478.0,0.0,0.0,0.0,0.0
1630047232433533549,1630047232,0,30306,2750.0,3966.0,484.0,0.0,0.0,0.0,0.0
1630047232523731242,1630047232,0,30306,2758.0,3959.0,497.0,0.0,0.0,0.0,0.0
1630047232634526495,1630047232,0,30306,2767.0,3959.0,512.0,0.0,0.0,0.0,0.0
1630047232724586913,1630047232,0,30306,2773.0,3965.0,537.0,0.0,0.0,0.0,0.0
1630047232835670312,1630047232,0,30306,2781.0,3971.0,557.0,0.0,0.0,0.0,0.0
1630047232933586010,1630047232,0,30306,2789.0,3975.0,573.0,0.0,0.0,0.0,0.0
1630047233024784585,1630047233,0,30306,2800.0,3980.0,589.0,0.0,0.0,0.0,0.0
1630047233133784972,1630047233,0,30306,2803.0,3983.0,602.0,0.0,0.0,0.0,0.0
1630047233223661628,1630047233,0,30306,2810.0,3984.0,617.0,0.0,0.0,0.0,0.0
1630047233333671451,1630047233,0,30306,2817.0,3984.0,632.0,0.0,0.0,0.0,0.0
1630047233433417936,1630047233,0,30306,2824.0,3980.0,638.0,0.0,0.0,0.0,0.0
1630047233533193687,1630047233,0,30306,2831.0,3978.0,651.0,0.0,0.0,0.0,0.0
1630047233633044315,1630047233,0,30306,2833.0,3972.0,657.0,0.0,0.0,0.0,0.0
1630047233732712049,1630047233,0,30306,2819.0,3981.0,652.0,0.0,0.0,0.0,0.0
1630047233832508440,1630047233,0,30306,2809.0,3988.0,647.0,0.0,0.0,0.0,0.0
1630047233920818240,1630047233,0,30306,2793.0,3994.0,641.0,0.0,0.0,0.0,0.0
1630047234033939875,1630047234,0,30306,2784.0,3999.0,644.0,0.0,0.0,0.0,0.0
1630047234132586236,1630047234,0,30306,2779.0,3998.0,638.0,0.0,0.0,0.0,0.0
1630047234242244047,1630047234,0,30306,2774.0,4002.0,636.0,0.0,0.0,0.0,0.0
1630047234331419324,1630047234,0,30306,2769.0,4001.0,628.0,0.0,0.0,0.0,0.0
1630047234420427579,1630047234,0,30306,2768.0,3998.0,633.0,0.0,0.0,0.0,0.0
1630047234531684895,1630047234,0,30306,2767.0,3995.0,626.0,0.0,0.0,0.0,0.0
1630047234621189549,1630047234,0,30306,2766.0,3995.0,628.0,0.0,0.0,0.0,0.0
1630047234729390212,1630047234,0,30306,2758.0,3993.0,625.0,0.0,0.0,0.0,0.0
1630047234831485254,1630047234,0,30306,2750.0,3992.0,624.0,0.0,0.0,0.0,0.0
1630047234940699991,1630047234,0,30306,2742.0,3992.0,617.0,0.0,0.0,0.0,0.0
1630047235029489986,1630047235,0,30306,2736.0,3989.0,605.0,0.0,0.0,0.0,0.0
1630047235128660311,1630047235,0,30306,2731.0,3991.0,604.0,0.0,0.0,0.0,0.0
1630047235240190049,1630047235,0,30306,2727.0,3987.0,599.0,0.0,0.0,0.0,0.0
1630047235330160714,1630047235,0,30306,2724.0,3988.0,592.0,0.0,0.0,0.0,0.0
1630047235439790337,1630047235,0,30306,2722.0,3991.0,579.0,0.0,0.0,0.0,0.0
1630047235529602895,1630047235,0,30306,2723.0,4001.0,570.0,0.0,0.0,0.0,0.0
1630047235628871694,1630047235,0,30306,2720.0,4008.0,565.0,0.0,0.0,0.0,0.0
1630047235739237500,1630047235,0,30306,2719.0,4006.0,568.0,0.0,0.0,0.0,0.0
1630047235828367193,1630047235,0,30306,2717.0,4005.0,569.0,0.0,0.0,0.0,0.0
1630047235939170837,1630047235,0,30306,2716.0,4002.0,562.0,0.0,0.0,0.0,0.0
1630047236028293201,1630047236,0,30306,2713.0,4003.0,567.0,0.0,0.0,0.0,0.0
1630047236128960967,1630047236,0,30306,2706.0,4005.0,563.0,0.0,0.0,0.0,0.0
1630047236228745470,1630047236,0,30306,2697.0,4011.0,561.0,0.0,0.0,0.0,0.0
1630047236328464481,1630047236,0,30306,2686.0,4014.0,560.0,0.0,0.0,0.0,0.0
1630047236440119528,1630047236,0,30306,2679.0,4025.0,560.0,0.0,0.0,0.0,0.0
1630047236529197313,1630047236,0,30306,2674.0,4034.0,561.0,0.0,0.0,0.0,0.0
1630047236639866513,1630047236,0,30306,2670.0,4039.0,560.0,0.0,0.0,0.0,0.0
1630047236728459420,1630047236,0,30306,2684.0,4030.0,560.0,0.0,0.0,0.0,0.0
1630047236829648203,1630047236,0,30306,2699.0,4021.0,559.0,0.0,0.0,0.0,0.0
1630047236938982901,1630047236,0,30306,2714.0,4017.0,560.0,0.0,0.0,0.0,0.0
1630047237029639704,1630047237,0,30306,2724.0,4014.0,561.0,0.0,0.0,0.0,0.0
1630047237140657463,1630047237,0,30306,2737.0,4016.0,567.0,0.0,0.0,0.0,0.0
1630047237229766952,1630047237,0,30306,2743.0,4018.0,566.0,0.0,0.0,0.0,0.0
1630047237319053282,1630047237,0,30306,2744.0,4022.0,565.0,0.0,0.0,0.0,0.0
1630047237428825927,1630047237,0,30306,2743.0,4028.0,569.0,0.0,0.0,0.0,0.0
1630047237528667340,1630047237,0,30306,2735.0,4027.0,557.0,0.0,0.0,0.0,0.0
1630047237639170257,1630047237,0,30306,2730.0,4032.0,542.0,0.0,0.0,0.0,0.0
1630047237728341989,1630047237,0,30306,2737.0,4018.0,548.0,0.0,0.0,0.0,0.0
1630047237838380800,1630047237,0,30306,2744.0,4009.0,551.0,0.0,0.0,0.0,0.0
1630047237930108051,1630047237,0,30306,2748.0,3999.0,556.0,0.0,0.0,0.0,0.0
1630047238021287098,1630047238,0,30306,2744.0,3994.0,566.0,0.0,0.0,0.0,0.0
1630047238132146198,1630047238,0,30306,2736.0,3992.0,565.0,0.0,0.0,0.0,0.0
1630047238230889946,1630047238,0,30306,2727.0,3994.0,564.0,0.0,0.0,0.0,0.0
1630047238330336866,1630047238,0,30306,2720.0,3994.0,554.0,0.0,0.0,0.0,0.0
1630047238430574010,1630047238,0,30306,2713.0,3994.0,549.0,0.0,0.0,0.0,0.0
1630047238541468906,1630047238,0,30306,2715.0,3992.0,546.0,0.0,0.0,0.0,0.0
1630047238631149786,1630047238,0,30306,2710.0,3988.0,542.0,0.0,0.0,0.0,0.0
1630047238720573484,1630047238,0,30306,2713.0,3979.0,538.0,0.0,0.0,0.0,0.0
1630047238831140517,1630047238,0,30306,2718.0,3977.0,531.0,0.0,0.0,0.0,0.0
1630047238930860258,1630047238,0,30306,2718.0,3972.0,529.0,0.0,0.0,0.0,0.0
1630047239033378771,1630047239,0,30306,2716.0,3971.0,521.0,0.0,0.0,0.0,0.0
1630047239133018866,1630047239,0,30306,2716.0,3969.0,519.0,0.0,0.0,0.0,0.0
1630047239243426025,1630047239,0,30306,2712.0,3964.0,515.0,0.0,0.0,0.0,0.0
1630047239331238534,1630047239,0,30306,2711.0,3961.0,508.0,0.0,0.0,0.0,0.0
1630047239421901816,1630047239,0,30306,2712.0,3960.0,501.0,0.0,0.0,0.0,0.0
1630047239531660138,1630047239,0,30306,2710.0,3960.0,498.0,0.0,0.0,0.0,0.0
1630047239621423125,1630047239,0,30306,2711.0,3965.0,494.0,0.0,0.0,0.0,0.0
1630047239730561351,1630047239,0,30306,2720.0,3969.0,524.0,0.0,0.0,0.0,0.0
1630047239831149649,1630047239,0,30306,2725.0,3975.0,535.0,0.0,0.0,0.0,0.0
1630047239941370380,1630047239,0,30306,2730.0,3980.0,545.0,0.0,0.0,0.0,0.0
1630047240029011131,1630047240,0,30306,2726.0,3988.0,548.0,0.0,0.0,0.0,0.0
1630047240121046506,1630047240,0,30306,2726.0,3995.0,548.0,0.0,0.0,0.0,0.0
1630047240231283693,1630047240,0,30306,2722.0,3997.0,544.0,0.0,0.0,0.0,0.0
1630047240330758191,1630047240,0,30306,2717.0,4005.0,549.0,0.0,0.0,0.0,0.0
1630047240429985243,1630047240,0,30306,2716.0,4015.0,562.0,0.0,0.0,0.0,0.0
1630047240531911705,1630047240,0,30306,2709.0,4023.0,571.0,0.0,0.0,0.0,0.0
1630047240631469868,1630047240,0,30306,2704.0,4028.0,569.0,0.0,0.0,0.0,0.0
1630047240730057203,1630047240,0,30306,2709.0,4025.0,554.0,0.0,0.0,0.0,0.0
1630047240832282146,1630047240,0,30306,2709.0,4028.0,550.0,0.0,0.0,0.0,0.0
1630047240932150458,1630047240,0,30306,2707.0,4028.0,550.0,0.0,0.0,0.0,0.0
1630047241039686550,1630047241,0,30306,2706.0,4029.0,547.0,0.0,0.0,0.0,0.0
1630047241130125896,1630047241,0,30306,2705.0,4031.0,558.0,0.0,0.0,0.0,0.0
1630047241220052847,1630047241,0,30306,2706.0,4032.0,569.0,0.0,0.0,0.0,0.0
1630047241330218611,1630047241,0,30306,2705.0,4035.0,575.0,0.0,0.0,0.0,0.0
1630047241420375372,1630047241,0,30306,2706.0,4039.0,581.0,0.0,0.0,0.0,0.0
1630047241530697002,1630047241,0,30306,2701.0,4040.0,582.0,0.0,0.0,0.0,0.0
1630047241629813733,1630047241,0,30306,2692.0,4041.0,577.0,0.0,0.0,0.0,0.0
1630047241738784771,1630047241,0,30306,2702.0,4020.0,581.0,0.0,0.0,0.0,0.0
1630047241829986601,1630047241,0,30306,2714.0,4000.0,584.0,0.0,0.0,0.0,0.0
1630047241921131546,1630047241,0,30306,2721.0,3992.0,594.0,0.0,0.0,0.0,0.0
1630047242030839532,1630047242,0,30306,2727.0,3983.0,600.0,0.0,0.0,0.0,0.0
1630047242130177153,1630047242,0,30306,2733.0,3974.0,615.0,0.0,0.0,0.0,0.0
1630047242240234480,1630047242,0,30306,2734.0,3970.0,622.0,0.0,0.0,0.0,0.0
1630047242330728539,1630047242,0,30306,2735.0,3963.0,630.0,0.0,0.0,0.0,0.0
1630047242440919451,1630047242,0,30306,2733.0,3957.0,642.0,0.0,0.0,0.0,0.0
1630047242529698536,1630047242,0,30306,2731.0,3949.0,658.0,0.0,0.0,0.0,0.0
1630047242621837876,1630047242,0,30306,2725.0,3945.0,665.0,0.0,0.0,0.0,0.0
1630047242729528769,1630047242,0,30306,2732.0,3945.0,660.0,0.0,0.0,0.0,0.0
1630047242831502583,1630047242,0,30306,2740.0,3943.0,658.0,0.0,0.0,0.0,0.0
1630047242928142493,1630047242,0,30306,2745.0,3942.0,653.0,0.0,0.0,0.0,0.0
1630047243031014994,1630047243,0,30306,2750.0,3942.0,650.0,0.0,0.0,0.0,0.0
1630047243131630541,1630047243,0,30306,2754.0,3935.0,655.0,0.0,0.0,0.0,0.0
1630047243231934771,1630047243,0,30306,2759.0,3931.0,663.0,0.0,0.0,0.0,0.0
1630047243341019515,1630047243,0,30306,2763.0,3928.0,675.0,0.0,0.0,0.0,0.0
1630047243430127767,1630047243,0,30306,2771.0,3918.0,681.0,0.0,0.0,0.0,0.0
1630047243530027658,1630047243,0,30306,2782.0,3909.0,695.0,0.0,0.0,0.0,0.0
1630047243630309032,1630047243,0,30306,2793.0,3904.0,708.0,0.0,0.0,0.0,0.0
1630047243729244394,1630047243,0,30306,2792.0,3924.0,686.0,0.0,0.0,0.0,0.0
1630047243840950140,1630047243,0,30306,2797.0,3934.0,670.0,0.0,0.0,0.0,0.0
1630047243930966476,1630047243,0,30306,2800.0,3939.0,667.0,0.0,0.0,0.0,0.0
1630047244019935289,1630047244,0,30306,2803.0,3940.0,684.0,0.0,0.0,0.0,0.0
1630047244137365596,1630047244,0,30306,2810.0,3945.0,716.0,0.0,0.0,0.0,0.0
1630047244228835619,1630047244,0,30306,2820.0,3947.0,744.0,0.0,0.0,0.0,0.0
1630047244338954587,1630047244,0,30306,2834.0,3948.0,779.0,0.0,0.0,0.0,0.0
1630047244427558526,1630047244,0,30306,2849.0,3948.0,813.0,0.0,0.0,0.0,0.0
1630047244538021245,1630047244,0,30306,2860.0,3948.0,851.0,0.0,0.0,0.0,0.0
1630047244628049791,1630047244,0,30306,2868.0,3946.0,898.0,0.0,0.0,0.0,0.0
1630047244728495560,1630047244,0,30306,2852.0,3972.0,867.0,0.0,0.0,0.0,0.0
1630047244827601464,1630047244,0,30306,2839.0,3990.0,847.0,0.0,0.0,0.0,0.0
1630047244928714917,1630047244,0,30306,2831.0,4004.0,841.0,0.0,0.0,0.0,0.0
1630047245038929102,1630047245,0,30306,2823.0,4023.0,835.0,0.0,0.0,0.0,0.0
1630047245127785643,1630047245,0,30306,2816.0,4043.0,846.0,0.0,0.0,0.0,0.0
1630047245238044969,1630047245,0,30306,2811.0,4054.0,852.0,0.0,0.0,0.0,0.0
1630047245326801685,1630047245,0,30306,2815.0,4064.0,856.0,0.0,0.0,0.0,0.0
1630047245429196411,1630047245,0,30306,2818.0,4080.0,858.0,0.0,0.0,0.0,0.0
1630047245528963578,1630047245,0,30306,2820.0,4091.0,862.0,0.0,0.0,0.0,0.0
1630047245629184181,1630047245,0,30306,2822.0,4099.0,869.0,0.0,0.0,0.0,0.0
1630047245738161012,1630047245,0,30306,2799.0,4078.0,821.0,0.0,0.0,0.0,0.0
1630047245827350720,1630047245,0,30306,2782.0,4058.0,783.0,0.0,0.0,0.0,0.0
1630047245938866686,1630047245,0,30306,2773.0,4044.0,742.0,0.0,0.0,0.0,0.0
1630047246028117495,1630047246,0,30306,2760.0,4032.0,706.0,0.0,0.0,0.0,0.0
1630047246138014276,1630047246,0,30306,2751.0,4026.0,682.0,0.0,0.0,0.0,0.0
1630047246226926487,1630047246,0,30306,2748.0,4021.0,668.0,0.0,0.0,0.0,0.0
1630047246337729107,1630047246,0,30306,2743.0,4019.0,652.0,0.0,0.0,0.0,0.0
1630047246427059563,1630047246,0,30306,2743.0,4018.0,637.0,0.0,0.0,0.0,0.0
1630047246527518777,1630047246,0,30306,2744.0,4024.0,625.0,0.0,0.0,0.0,0.0
1630047246637875093,1630047246,0,30306,2748.0,4027.0,630.0,0.0,0.0,0.0,0.0
1630047246726311784,1630047246,0,30306,2736.0,4010.0,615.0,0.0,0.0,0.0,0.0
1630047246836705826,1630047246,0,30306,2730.0,4003.0,604.0,0.0,0.0,0.0,0.0
1630047246927741331,1630047246,0,30306,2728.0,4009.0,613.0,0.0,0.0,0.0,0.0
1630047247028054182,1630047247,0,30306,2727.0,4017.0,621.0,0.0,0.0,0.0,0.0
1630047247127699927,1630047247,0,30306,2724.0,4021.0,631.0,0.0,0.0,0.0,0.0
1630047247228507317,1630047247,0,30306,2718.0,4031.0,656.0,0.0,0.0,0.0,0.0
1630047247335764311,1630047247,0,30306,2739.0,4071.0,736.0,0.0,0.0,0.0,0.0
1630047247425233152,1630047247,0,30306,2728.0,4067.0,754.0,0.0,0.0,0.0,0.0
1630047247537780522,1630047247,0,30306,2725.0,4068.0,787.0,0.0,0.0,0.0,0.0
1630047247626501547,1630047247,0,30306,2723.0,4066.0,821.0,0.0,0.0,0.0,0.0
1630047247726088027,1630047247,0,30306,2737.0,4054.0,813.0,0.0,0.0,0.0,0.0
1630047247836684411,1630047247,0,30306,2748.0,4046.0,801.0,0.0,0.0,0.0,0.0
1630047247927324303,1630047247,0,30306,2756.0,4032.0,788.0,0.0,0.0,0.0,0.0
1630047248037404846,1630047248,0,30306,2765.0,4015.0,785.0,0.0,0.0,0.0,0.0
1630047248137038354,1630047248,0,30306,2776.0,4008.0,788.0,0.0,0.0,0.0,0.0
1630047248226575285,1630047248,0,30306,2785.0,4010.0,784.0,0.0,0.0,0.0,0.0
1630047248337113700,1630047248,0,30306,2795.0,4017.0,782.0,0.0,0.0,0.0,0.0
1630047248423537857,1630047248,0,30306,2801.0,4019.0,781.0,0.0,0.0,0.0,0.0
1630047248536066937,1630047248,0,30306,2802.0,4025.0,776.0,0.0,0.0,0.0,0.0
1630047248625748683,1630047248,0,30306,2802.0,4036.0,765.0,0.0,0.0,0.0,0.0
1630047248736017519,1630047248,0,30306,2787.0,4021.0,726.0,0.0,0.0,0.0,0.0
