%time,field.data0.header.seq,field.data0.header.stamp,field.data0.header.frame_id,field.data0.pose.position.x,field.data0.pose.position.y,field.data0.pose.position.z,field.data0.pose.orientation.x,field.data0.pose.orientation.y,field.data0.pose.orientation.z,field.data0.pose.orientation.w
1630046733536113799,1630046733,0,30306,2772.0,3985.0,1236.0,0.0,0.0,0.0,0.0
1630046733625096942,1630046733,0,30306,2771.0,3988.0,1241.0,0.0,0.0,0.0,0.0
1630046733733515433,1630046733,0,30306,2767.0,3980.0,1249.0,0.0,0.0,0.0,0.0
1630046733826080643,1630046733,0,30306,2760.0,3980.0,1250.0,0.0,0.0,0.0,0.0
1630046733936349945,1630046733,0,30306,2754.0,3977.0,1259.0,0.0,0.0,0.0,0.0
1630046734025775721,1630046734,0,30306,2747.0,3985.0,1256.0,0.0,0.0,0.0,0.0
1630046734136611874,1630046734,0,30306,2739.0,3990.0,1261.0,0.0,0.0,0.0,0.0
1630046734226446819,1630046734,0,30306,2729.0,3996.0,1259.0,0.0,0.0,0.0,0.0
1630046734336073618,1630046734,0,30306,2720.0,4005.0,1265.0,0.0,0.0,0.0,0.0
1630046734425207593,1630046734,0,30306,2706.0,4014.0,1262.0,0.0,0.0,0.0,0.0
1630046734524881669,1630046734,0,30306,2692.0,4019.0,1247.0,0.0,0.0,0.0,0.0
1630046734636080113,1630046734,0,30306,2677.0,4027.0,1222.0,0.0,0.0,0.0,0.0
1630046734725224225,1630046734,0,30306,2690.0,4004.0,1235.0,0.0,0.0,0.0,0.0
1630046734837279563,1630046734,0,30306,2700.0,3988.0,1248.0,0.0,0.0,0.0,0.0
1630046734926902568,1630046734,0,30306,2704.0,3980.0,1249.0,0.0,0.0,0.0,0.0
1630046735036038135,1630046735,0,30306,2707.0,3972.0,1249.0,0.0,0.0,0.0,0.0
1630046735126015366,1630046735,0,30306,2713.0,3970.0,1236.0,0.0,0.0,0.0,0.0
1630046735235369788,1630046735,0,30306,2715.0,3971.0,1222.0,0.0,0.0,0.0,0.0
1630046735332174397,1630046735,0,30306,2716.0,3976.0,1215.0,0.0,0.0,0.0,0.0
1630046735431432905,1630046735,0,30306,2716.0,3977.0,1207.0,0.0,0.0,0.0,0.0
1630046735530429248,1630046735,0,30306,2715.0,3980.0,1198.0,0.0,0.0,0.0,0.0
1630046735621861661,1630046735,0,30306,2714.0,3982.0,1184.0,0.0,0.0,0.0,0.0
1630046735731067080,1630046735,0,30306,2727.0,3973.0,1196.0,0.0,0.0,0.0,0.0
1630046735821470832,1630046735,0,30306,2737.0,3965.0,1212.0,0.0,0.0,0.0,0.0
1630046735930963057,1630046735,0,30306,2749.0,3954.0,1222.0,0.0,0.0,0.0,0.0
1630046736031383034,1630046736,0,30306,2757.0,3943.0,1230.0,0.0,0.0,0.0,0.0
1630046736141311974,1630046736,0,30306,2765.0,3930.0,1237.0,0.0,0.0,0.0,0.0
1630046736231901902,1630046736,0,30306,2773.0,3922.0,1238.0,0.0,0.0,0.0,0.0
1630046736320673570,1630046736,0,30306,2777.0,3918.0,1238.0,0.0,0.0,0.0,0.0
1630046736430142044,1630046736,0,30306,2781.0,3915.0,1241.0,0.0,0.0,0.0,0.0
1630046736519772602,1630046736,0,30306,2777.0,3912.0,1248.0,0.0,0.0,0.0,0.0
1630046736628838754,1630046736,0,30306,2773.0,3914.0,1244.0,0.0,0.0,0.0,0.0
1630046736730084930,1630046736,0,30306,2763.0,3925.0,1269.0,0.0,0.0,0.0,0.0
1630046736830948489,1630046736,0,30306,2755.0,3936.0,1285.0,0.0,0.0,0.0,0.0
1630046736930945481,1630046736,0,30306,2749.0,3943.0,1304.0,0.0,0.0,0.0,0.0
1630046737042292640,1630046737,0,30306,2743.0,3946.0,1324.0,0.0,0.0,0.0,0.0
1630046737130924224,1630046737,0,30306,2739.0,3948.0,1350.0,0.0,0.0,0.0,0.0
1630046737221658854,1630046737,0,30306,2738.0,3950.0,1380.0,0.0,0.0,0.0,0.0
1630046737332059643,1630046737,0,30306,2737.0,3954.0,1402.0,0.0,0.0,0.0,0.0
1630046737422007762,1630046737,0,30306,2733.0,3952.0,1426.0,0.0,0.0,0.0,0.0
1630046737533003735,1630046737,0,30306,2727.0,3954.0,1441.0,0.0,0.0,0.0,0.0
1630046737631038548,1630046737,0,30306,2722.0,3953.0,1460.0,0.0,0.0,0.0,0.0
1630046737731524520,1630046737,0,30306,2718.0,3960.0,1447.0,0.0,0.0,0.0,0.0
1630046737832440121,1630046737,0,30306,2711.0,3970.0,1436.0,0.0,0.0,0.0,0.0
1630046737933023527,1630046737,0,30306,2707.0,3979.0,1424.0,0.0,0.0,0.0,0.0
1630046738022981172,1630046738,0,30306,2699.0,3980.0,1422.0,0.0,0.0,0.0,0.0
1630046738133061053,1630046738,0,30306,2691.0,3983.0,1424.0,0.0,0.0,0.0,0.0
1630046738233461492,1630046738,0,30306,2686.0,3987.0,1437.0,0.0,0.0,0.0,0.0
1630046738324048896,1630046738,0,30306,2682.0,3989.0,1454.0,0.0,0.0,0.0,0.0
1630046738432913340,1630046738,0,30306,2675.0,3992.0,1468.0,0.0,0.0,0.0,0.0
1630046738521755766,1630046738,0,30306,2669.0,3995.0,1480.0,0.0,0.0,0.0,0.0
1630046738633129930,1630046738,0,30306,2667.0,3995.0,1488.0,0.0,0.0,0.0,0.0
1630046738723167885,1630046738,0,30306,2682.0,3985.0,1453.0,0.0,0.0,0.0,0.0
1630046738834551590,1630046738,0,30306,2687.0,3982.0,1426.0,0.0,0.0,0.0,0.0
1630046738924902288,1630046738,0,30306,2690.0,3977.0,1405.0,0.0,0.0,0.0,0.0
1630046739035631459,1630046739,0,30306,2695.0,3980.0,1385.0,0.0,0.0,0.0,0.0
1630046739124703813,1630046739,0,30306,2700.0,3979.0,1374.0,0.0,0.0,0.0,0.0
1630046739236987613,1630046739,0,30306,2702.0,3982.0,1365.0,0.0,0.0,0.0,0.0
1630046739333364151,1630046739,0,30306,2701.0,3984.0,1360.0,0.0,0.0,0.0,0.0
1630046739433857708,1630046739,0,30306,2699.0,3985.0,1364.0,0.0,0.0,0.0,0.0
1630046739532800688,1630046739,0,30306,2694.0,3989.0,1364.0,0.0,0.0,0.0,0.0
1630046739624063485,1630046739,0,30306,2686.0,3991.0,1368.0,0.0,0.0,0.0,0.0
1630046739731477929,1630046739,0,30306,2705.0,3986.0,1336.0,0.0,0.0,0.0,0.0
1630046739823874056,1630046739,0,30306,2723.0,3983.0,1309.0,0.0,0.0,0.0,0.0
1630046739933372845,1630046739,0,30306,2739.0,3985.0,1285.0,0.0,0.0,0.0,0.0
1630046740024586306,1630046740,0,30306,2750.0,3984.0,1261.0,0.0,0.0,0.0,0.0
1630046740133514609,1630046740,0,30306,2758.0,3986.0,1226.0,0.0,0.0,0.0,0.0
1630046740233792492,1630046740,0,30306,2762.0,3990.0,1188.0,0.0,0.0,0.0,0.0
1630046740333789193,1630046740,0,30306,2768.0,3992.0,1152.0,0.0,0.0,0.0,0.0
1630046740431317471,1630046740,0,30306,2772.0,3993.0,1113.0,0.0,0.0,0.0,0.0
1630046740520904520,1630046740,0,30306,2776.0,3997.0,1091.0,0.0,0.0,0.0,0.0
1630046740631532015,1630046740,0,30306,2779.0,4001.0,1071.0,0.0,0.0,0.0,0.0
1630046740741414256,1630046740,0,30306,2784.0,3990.0,1098.0,0.0,0.0,0.0,0.0
1630046740830983234,1630046740,0,30306,2787.0,3976.0,1111.0,0.0,0.0,0.0,0.0
1630046740932352122,1630046740,0,30306,2792.0,3962.0,1124.0,0.0,0.0,0.0,0.0
1630046741021561581,1630046741,0,30306,2801.0,3950.0,1139.0,0.0,0.0,0.0,0.0
1630046741131793059,1630046741,0,30306,2806.0,3940.0,1157.0,0.0,0.0,0.0,0.0
1630046741221236068,1630046741,0,30306,2814.0,3930.0,1172.0,0.0,0.0,0.0,0.0
1630046741331365195,1630046741,0,30306,2822.0,3924.0,1186.0,0.0,0.0,0.0,0.0
1630046741431441958,1630046741,0,30306,2832.0,3918.0,1201.0,0.0,0.0,0.0,0.0
1630046741531584424,1630046741,0,30306,2844.0,3910.0,1215.0,0.0,0.0,0.0,0.0
1630046741631515936,1630046741,0,30306,2856.0,3902.0,1222.0,0.0,0.0,0.0,0.0
1630046741720124467,1630046741,0,30306,2832.0,3916.0,1237.0,0.0,0.0,0.0,0.0
1630046741832410564,1630046741,0,30306,2822.0,3925.0,1247.0,0.0,0.0,0.0,0.0
1630046741931492277,1630046741,0,30306,2816.0,3928.0,1263.0,0.0,0.0,0.0,0.0
1630046742031671339,1630046742,0,30306,2810.0,3927.0,1272.0,0.0,0.0,0.0,0.0
1630046742131483446,1630046742,0,30306,2806.0,3928.0,1276.0,0.0,0.0,0.0,0.0
1630046742222438125,1630046742,0,30306,2808.0,3926.0,1286.0,0.0,0.0,0.0,0.0
1630046742331558949,1630046742,0,30306,2812.0,3919.0,1289.0,0.0,0.0,0.0,0.0
1630046742431807649,1630046742,0,30306,2816.0,3911.0,1289.0,0.0,0.0,0.0,0.0
1630046742532110369,1630046742,0,30306,2811.0,3896.0,1271.0,0.0,0.0,0.0,0.0
1630046742620174213,1630046742,0,30306,2810.0,3884.0,1250.0,0.0,0.0,0.0,0.0
1630046742730642889,1630046742,0,30306,2791.0,3909.0,1266.0,0.0,0.0,0.0,0.0
1630046742832697052,1630046742,0,30306,2775.0,3929.0,1291.0,0.0,0.0,0.0,0.0
1630046742933680366,1630046742,0,30306,2769.0,3952.0,1314.0,0.0,0.0,0.0,0.0
1630046743033131895,1630046743,0,30306,2754.0,3954.0,1301.0,0.0,0.0,0.0,0.0
1630046743133711163,1630046743,0,30306,2763.0,3973.0,1336.0,0.0,0.0,0.0,0.0
1630046743234173456,1630046743,0,30306,2741.0,3961.0,1309.0,0.0,0.0,0.0,0.0
1630046743324484023,1630046743,0,30306,2727.0,3947.0,1296.0,0.0,0.0,0.0,0.0
1630046743434611099,1630046743,0,30306,2718.0,3941.0,1290.0,0.0,0.0,0.0,0.0
1630046743523292735,1630046743,0,30306,2705.0,3925.0,1267.0,0.0,0.0,0.0,0.0
1630046743635020213,1630046743,0,30306,2704.0,3925.0,1252.0,0.0,0.0,0.0,0.0
1630046743721269127,1630046743,0,30306,2712.0,3929.0,1253.0,0.0,0.0,0.0,0.0
1630046743834376207,1630046743,0,30306,2715.0,3941.0,1258.0,0.0,0.0,0.0,0.0
1630046743923770184,1630046743,0,30306,2728.0,3960.0,1254.0,0.0,0.0,0.0,0.0
1630046744024930512,1630046744,0,30306,2736.0,3958.0,1241.0,0.0,0.0,0.0,0.0
1630046744133970233,1630046744,0,30306,2737.0,3955.0,1230.0,0.0,0.0,0.0,0.0
1630046744224054250,1630046744,0,30306,2740.0,3962.0,1242.0,0.0,0.0,0.0,0.0
1630046744335074982,1630046744,0,30306,2738.0,3962.0,1239.0,0.0,0.0,0.0,0.0
1630046744424359866,1630046744,0,30306,2734.0,3961.0,1246.0,0.0,0.0,0.0,0.0
1630046744535090821,1630046744,0,30306,2732.0,3962.0,1255.0,0.0,0.0,0.0,0.0
1630046744624334732,1630046744,0,30306,2720.0,3964.0,1249.0,0.0,0.0,0.0,0.0
1630046744733862357,1630046744,0,30306,2712.0,3966.0,1257.0,0.0,0.0,0.0,0.0
1630046744835346715,1630046744,0,30306,2711.0,3972.0,1277.0,0.0,0.0,0.0,0.0
1630046744924855716,1630046744,0,30306,2710.0,3978.0,1299.0,0.0,0.0,0.0,0.0
1630046745035493912,1630046745,0,30306,2709.0,3984.0,1320.0,0.0,0.0,0.0,0.0
1630046745124767074,1630046745,0,30306,2705.0,3988.0,1352.0,0.0,0.0,0.0,0.0
1630046745235772676,1630046745,0,30306,2698.0,3996.0,1390.0,0.0,0.0,0.0,0.0
1630046745326012757,1630046745,0,30306,2691.0,4003.0,1421.0,0.0,0.0,0.0,0.0
1630046745437414143,1630046745,0,30306,2675.0,4013.0,1441.0,0.0,0.0,0.0,0.0
1630046745526086751,1630046745,0,30306,2658.0,4024.0,1467.0,0.0,0.0,0.0,0.0
1630046745637009971,1630046745,0,30306,2642.0,4047.0,1469.0,0.0,0.0,0.0,0.0
1630046745725364621,1630046745,0,30306,2651.0,4037.0,1441.0,0.0,0.0,0.0,0.0
1630046745837295857,1630046745,0,30306,2674.0,4020.0,1431.0,0.0,0.0,0.0,0.0
1630046745927414900,1630046745,0,30306,2687.0,4002.0,1441.0,0.0,0.0,0.0,0.0
1630046746036023349,1630046746,0,30306,2687.0,3990.0,1440.0,0.0,0.0,0.0,0.0
1630046746125526742,1630046746,0,30306,2691.0,3981.0,1449.0,0.0,0.0,0.0,0.0
1630046746236594218,1630046746,0,30306,2690.0,3977.0,1461.0,0.0,0.0,0.0,0.0
1630046746323911195,1630046746,0,30306,2695.0,3977.0,1470.0,0.0,0.0,0.0,0.0
1630046746425758399,1630046746,0,30306,2690.0,3973.0,1489.0,0.0,0.0,0.0,0.0
1630046746524618794,1630046746,0,30306,2687.0,3973.0,1497.0,0.0,0.0,0.0,0.0
1630046746636130628,1630046746,0,30306,2684.0,3974.0,1499.0,0.0,0.0,0.0,0.0
1630046746724897673,1630046746,0,30306,2700.0,3971.0,1459.0,0.0,0.0,0.0,0.0
1630046746836379159,1630046746,0,30306,2713.0,3965.0,1433.0,0.0,0.0,0.0,0.0
1630046746925179781,1630046746,0,30306,2706.0,3958.0,1434.0,0.0,0.0,0.0,0.0
1630046747033441681,1630046747,0,30306,2708.0,3955.0,1417.0,0.0,0.0,0.0,0.0
1630046747123102492,1630046747,0,30306,2712.0,3948.0,1426.0,0.0,0.0,0.0,0.0
1630046747234899764,1630046747,0,30306,2717.0,3934.0,1415.0,0.0,0.0,0.0,0.0
1630046747333897896,1630046747,0,30306,2713.0,3924.0,1414.0,0.0,0.0,0.0,0.0
1630046747434254123,1630046747,0,30306,2713.0,3919.0,1415.0,0.0,0.0,0.0,0.0
1630046747534783622,1630046747,0,30306,2709.0,3911.0,1421.0,0.0,0.0,0.0,0.0
1630046747634251503,1630046747,0,30306,2710.0,3902.0,1422.0,0.0,0.0,0.0,0.0
1630046747733189937,1630046747,0,30306,2721.0,3919.0,1379.0,0.0,0.0,0.0,0.0
1630046747834050420,1630046747,0,30306,2730.0,3924.0,1341.0,0.0,0.0,0.0,0.0
1630046747934337073,1630046747,0,30306,2740.0,3930.0,1300.0,0.0,0.0,0.0,0.0
1630046748043156127,1630046748,0,30306,2745.0,3936.0,1266.0,0.0,0.0,0.0,0.0
1630046748132181335,1630046748,0,30306,2754.0,3941.0,1236.0,0.0,0.0,0.0,0.0
1630046748241834928,1630046748,0,30306,2753.0,3944.0,1214.0,0.0,0.0,0.0,0.0
1630046748331419057,1630046748,0,30306,2752.0,3942.0,1195.0,0.0,0.0,0.0,0.0
1630046748442039980,1630046748,0,30306,2758.0,3941.0,1186.0,0.0,0.0,0.0,0.0
1630046748531112284,1630046748,0,30306,2763.0,3940.0,1176.0,0.0,0.0,0.0,0.0
1630046748622296604,1630046748,0,30306,2770.0,3942.0,1163.0,0.0,0.0,0.0,0.0
1630046748730595624,1630046748,0,30306,2773.0,3947.0,1181.0,0.0,0.0,0.0,0.0
1630046748820910168,1630046748,0,30306,2780.0,3949.0,1199.0,0.0,0.0,0.0,0.0
1630046748932286808,1630046748,0,30306,2785.0,3954.0,1213.0,0.0,0.0,0.0,0.0
1630046749030800685,1630046749,0,30306,2789.0,3954.0,1230.0,0.0,0.0,0.0,0.0
1630046749131397505,1630046749,0,30306,2798.0,3954.0,1243.0,0.0,0.0,0.0,0.0
1630046749231498301,1630046749,0,30306,2807.0,3961.0,1254.0,0.0,0.0,0.0,0.0
1630046749320055537,1630046749,0,30306,2810.0,3955.0,1266.0,0.0,0.0,0.0,0.0
1630046749431100587,1630046749,0,30306,2811.0,3956.0,1266.0,0.0,0.0,0.0,0.0
1630046749518650059,1630046749,0,30306,2817.0,3955.0,1276.0,0.0,0.0,0.0,0.0
1630046749631324002,1630046749,0,30306,2820.0,3954.0,1277.0,0.0,0.0,0.0,0.0
1630046749730428136,1630046749,0,30306,2796.0,3955.0,1289.0,0.0,0.0,0.0,0.0
1630046749832282774,1630046749,0,30306,2779.0,3957.0,1294.0,0.0,0.0,0.0,0.0
1630046749932085492,1630046749,0,30306,2774.0,3964.0,1295.0,0.0,0.0,0.0,0.0
1630046750041313577,1630046750,0,30306,2770.0,3966.0,1298.0,0.0,0.0,0.0,0.0
1630046750132555329,1630046750,0,30306,2767.0,3968.0,1293.0,0.0,0.0,0.0,0.0
1630046750241268221,1630046750,0,30306,2770.0,3971.0,1307.0,0.0,0.0,0.0,0.0
1630046750332786274,1630046750,0,30306,2775.0,3978.0,1322.0,0.0,0.0,0.0,0.0
1630046750432083257,1630046750,0,30306,2784.0,3976.0,1339.0,0.0,0.0,0.0,0.0
1630046750531189751,1630046750,0,30306,2790.0,3974.0,1356.0,0.0,0.0,0.0,0.0
1630046750622272805,1630046750,0,30306,2786.0,3974.0,1393.0,0.0,0.0,0.0,0.0
1630046750732439381,1630046750,0,30306,2762.0,3967.0,1399.0,0.0,0.0,0.0,0.0
1630046750822591945,1630046750,0,30306,2704.0,3959.0,1473.0,0.0,0.0,0.0,0.0
1630046750932990646,1630046750,0,30306,2710.0,3954.0,1441.0,0.0,0.0,0.0,0.0
1630046751032549013,1630046751,0,30306,2716.0,3952.0,1414.0,0.0,0.0,0.0,0.0
1630046751121552525,1630046751,0,30306,2717.0,3949.0,1397.0,0.0,0.0,0.0,0.0
1630046751231375460,1630046751,0,30306,2717.0,3946.0,1379.0,0.0,0.0,0.0,0.0
1630046751322702560,1630046751,0,30306,2720.0,3942.0,1358.0,0.0,0.0,0.0,0.0
1630046751431555578,1630046751,0,30306,2723.0,3935.0,1333.0,0.0,0.0,0.0,0.0
1630046751532610914,1630046751,0,30306,2723.0,3935.0,1309.0,0.0,0.0,0.0,0.0
1630046751631794837,1630046751,0,30306,2719.0,3937.0,1291.0,0.0,0.0,0.0,0.0
1630046751732734544,1630046751,0,30306,2723.0,3945.0,1290.0,0.0,0.0,0.0,0.0
1630046751831858426,1630046751,0,30306,2729.0,3950.0,1277.0,0.0,0.0,0.0,0.0
1630046751931315482,1630046751,0,30306,2722.0,3964.0,1272.0,0.0,0.0,0.0,0.0
1630046752021304974,1630046752,0,30306,2718.0,3968.0,1274.0,0.0,0.0,0.0,0.0
1630046752131988491,1630046752,0,30306,2717.0,3971.0,1276.0,0.0,0.0,0.0,0.0
1630046752232217831,1630046752,0,30306,2713.0,3973.0,1285.0,0.0,0.0,0.0,0.0
1630046752331964115,1630046752,0,30306,2712.0,3975.0,1297.0,0.0,0.0,0.0,0.0
1630046752432759972,1630046752,0,30306,2708.0,3975.0,1308.0,0.0,0.0,0.0,0.0
1630046752522064788,1630046752,0,30306,2706.0,3981.0,1322.0,0.0,0.0,0.0,0.0
1630046752632572577,1630046752,0,30306,2702.0,3984.0,1330.0,0.0,0.0,0.0,0.0
1630046752724599674,1630046752,0,30306,2712.0,3977.0,1333.0,0.0,0.0,0.0,0.0
1630046752835297275,1630046752,0,30306,2724.0,3968.0,1307.0,0.0,0.0,0.0,0.0
1630046752926433455,1630046752,0,30306,2738.0,3960.0,1288.0,0.0,0.0,0.0,0.0
1630046753026650327,1630046753,0,30306,2742.0,3957.0,1276.0,0.0,0.0,0.0,0.0
1630046753136458307,1630046753,0,30306,2738.0,3959.0,1276.0,0.0,0.0,0.0,0.0
1630046753225130348,1630046753,0,30306,2732.0,3958.0,1278.0,0.0,0.0,0.0,0.0
1630046753335839800,1630046753,0,30306,2734.0,3966.0,1263.0,0.0,0.0,0.0,0.0
1630046753424953690,1630046753,0,30306,2723.0,3968.0,1256.0,0.0,0.0,0.0,0.0
1630046753536660039,1630046753,0,30306,2710.0,3976.0,1271.0,0.0,0.0,0.0,0.0
1630046753625122309,1630046753,0,30306,2702.0,3985.0,1277.0,0.0,0.0,0.0,0.0
1630046753725524691,1630046753,0,30306,2713.0,3981.0,1279.0,0.0,0.0,0.0,0.0
1630046753837979529,1630046753,0,30306,2721.0,3977.0,1285.0,0.0,0.0,0.0,0.0
1630046753927171138,1630046753,0,30306,2721.0,3974.0,1279.0,0.0,0.0,0.0,0.0
1630046754038010071,1630046754,0,30306,2721.0,3968.0,1273.0,0.0,0.0,0.0,0.0
1630046754127460653,1630046754,0,30306,2716.0,3965.0,1264.0,0.0,0.0,0.0,0.0
1630046754227520548,1630046754,0,30306,2703.0,3954.0,1255.0,0.0,0.0,0.0,0.0
1630046754327525599,1630046754,0,30306,2698.0,3954.0,1244.0,0.0,0.0,0.0,0.0
1630046754427606267,1630046754,0,30306,2687.0,3949.0,1254.0,0.0,0.0,0.0,0.0
1630046754537340170,1630046754,0,30306,2670.0,3946.0,1263.0,0.0,0.0,0.0,0.0
1630046754627188637,1630046754,0,30306,2659.0,3942.0,1272.0,0.0,0.0,0.0,0.0
1630046754736027316,1630046754,0,30306,2682.0,3941.0,1282.0,0.0,0.0,0.0,0.0
1630046754827877781,1630046754,0,30306,2696.0,3937.0,1299.0,0.0,0.0,0.0,0.0
1630046754926895922,1630046754,0,30306,2706.0,3931.0,1314.0,0.0,0.0,0.0,0.0
1630046755027562008,1630046755,0,30306,2713.0,3930.0,1331.0,0.0,0.0,0.0,0.0
1630046755127457336,1630046755,0,30306,2715.0,3929.0,1348.0,0.0,0.0,0.0,0.0
1630046755236183330,1630046755,0,30306,2713.0,3925.0,1367.0,0.0,0.0,0.0,0.0
1630046755327511545,1630046755,0,30306,2710.0,3917.0,1387.0,0.0,0.0,0.0,0.0
1630046755436886234,1630046755,0,30306,2715.0,3917.0,1397.0,0.0,0.0,0.0,0.0
1630046755536141024,1630046755,0,30306,2711.0,3916.0,1421.0,0.0,0.0,0.0,0.0
1630046755636770728,1630046755,0,30306,2704.0,3915.0,1428.0,0.0,0.0,0.0,0.0
1630046755725049295,1630046755,0,30306,2715.0,3928.0,1427.0,0.0,0.0,0.0,0.0
1630046755835041736,1630046755,0,30306,2722.0,3940.0,1416.0,0.0,0.0,0.0,0.0
1630046755928004654,1630046755,0,30306,2726.0,3953.0,1401.0,0.0,0.0,0.0,0.0
1630046756036259329,1630046756,0,30306,2727.0,3959.0,1388.0,0.0,0.0,0.0,0.0
1630046756127707792,1630046756,0,30306,2721.0,3968.0,1378.0,0.0,0.0,0.0,0.0
1630046756237169890,1630046756,0,30306,2719.0,3969.0,1372.0,0.0,0.0,0.0,0.0
1630046756327767072,1630046756,0,30306,2720.0,3970.0,1369.0,0.0,0.0,0.0,0.0
1630046756436576471,1630046756,0,30306,2717.0,3972.0,1362.0,0.0,0.0,0.0,0.0
1630046756527690477,1630046756,0,30306,2714.0,3973.0,1361.0,0.0,0.0,0.0,0.0
1630046756636547781,1630046756,0,30306,2713.0,3973.0,1355.0,0.0,0.0,0.0,0.0
1630046756728075119,1630046756,0,30306,2723.0,3967.0,1348.0,0.0,0.0,0.0,0.0
1630046756818979482,1630046756,0,30306,2729.0,3964.0,1345.0,0.0,0.0,0.0,0.0
1630046756929631944,1630046756,0,30306,2728.0,3960.0,1338.0,0.0,0.0,0.0,0.0
1630046757026248478,1630046757,0,30306,2731.0,3955.0,1336.0,0.0,0.0,0.0,0.0
1630046757128105834,1630046757,0,30306,2731.0,3952.0,1330.0,0.0,0.0,0.0,0.0
1630046757230890028,1630046757,0,30306,2735.0,3951.0,1335.0,0.0,0.0,0.0,0.0
1630046757329892694,1630046757,0,30306,2738.0,3951.0,1342.0,0.0,0.0,0.0,0.0
1630046757431525274,1630046757,0,30306,2740.0,3950.0,1340.0,0.0,0.0,0.0,0.0
1630046757520903464,1630046757,0,30306,2742.0,3951.0,1333.0,0.0,0.0,0.0,0.0
1630046757632270742,1630046757,0,30306,2746.0,3951.0,1337.0,0.0,0.0,0.0,0.0
1630046757719290735,1630046757,0,30306,2747.0,3957.0,1326.0,0.0,0.0,0.0,0.0
1630046757831437637,1630046757,0,30306,2749.0,3958.0,1327.0,0.0,0.0,0.0,0.0
1630046757929591060,1630046757,0,30306,2753.0,3955.0,1328.0,0.0,0.0,0.0,0.0
1630046758031167906,1630046758,0,30306,2755.0,3954.0,1337.0,0.0,0.0,0.0,0.0
1630046758131022792,1630046758,0,30306,2758.0,3953.0,1349.0,0.0,0.0,0.0,0.0
1630046758221149583,1630046758,0,30306,2761.0,3954.0,1354.0,0.0,0.0,0.0,0.0
1630046758330424461,1630046758,0,30306,2772.0,3951.0,1365.0,0.0,0.0,0.0,0.0
1630046758419801503,1630046758,0,30306,2777.0,3950.0,1367.0,0.0,0.0,0.0,0.0
1630046758531738943,1630046758,0,30306,2783.0,3950.0,1374.0,0.0,0.0,0.0,0.0
1630046758631099919,1630046758,0,30306,2790.0,3946.0,1372.0,0.0,0.0,0.0,0.0
1630046758731682904,1630046758,0,30306,2785.0,3946.0,1360.0,0.0,0.0,0.0,0.0
1630046758832000333,1630046758,0,30306,2776.0,3951.0,1352.0,0.0,0.0,0.0,0.0
1630046758920720395,1630046758,0,30306,2770.0,3947.0,1348.0,0.0,0.0,0.0,0.0
1630046759030983168,1630046759,0,30306,2765.0,3945.0,1334.0,0.0,0.0,0.0,0.0
1630046759121153455,1630046759,0,30306,2762.0,3944.0,1330.0,0.0,0.0,0.0,0.0
1630046759230965124,1630046759,0,30306,2762.0,3946.0,1325.0,0.0,0.0,0.0,0.0
1630046759330378120,1630046759,0,30306,2770.0,3947.0,1320.0,0.0,0.0,0.0,0.0
1630046759430561976,1630046759,0,30306,2782.0,3945.0,1307.0,0.0,0.0,0.0,0.0
1630046759529734261,1630046759,0,30306,2789.0,3951.0,1311.0,0.0,0.0,0.0,0.0
1630046759630911284,1630046759,0,30306,2793.0,3946.0,1299.0,0.0,0.0,0.0,0.0
1630046759730000805,1630046759,0,30306,2786.0,3942.0,1295.0,0.0,0.0,0.0,0.0
1630046759831530901,1630046759,0,30306,2782.0,3943.0,1288.0,0.0,0.0,0.0,0.0
1630046759930460686,1630046759,0,30306,2778.0,3942.0,1284.0,0.0,0.0,0.0,0.0
1630046760020675659,1630046760,0,30306,2779.0,3943.0,1281.0,0.0,0.0,0.0,0.0
1630046760130202997,1630046760,0,30306,2775.0,3948.0,1286.0,0.0,0.0,0.0,0.0
1630046760231925386,1630046760,0,30306,2786.0,3952.0,1288.0,0.0,0.0,0.0,0.0
1630046760331363431,1630046760,0,30306,2790.0,3950.0,1287.0,0.0,0.0,0.0,0.0
1630046760431355687,1630046760,0,30306,2798.0,3956.0,1272.0,0.0,0.0,0.0,0.0
1630046760541142984,1630046760,0,30306,2799.0,3950.0,1268.0,0.0,0.0,0.0,0.0
1630046760631777170,1630046760,0,30306,2792.0,3951.0,1257.0,0.0,0.0,0.0,0.0
1630046760718944724,1630046760,0,30306,2776.0,3948.0,1250.0,0.0,0.0,0.0,0.0
1630046760829549002,1630046760,0,30306,2773.0,3940.0,1235.0,0.0,0.0,0.0,0.0
1630046760929730101,1630046760,0,30306,2735.0,3938.0,1266.0,0.0,0.0,0.0,0.0
1630046761030447401,1630046761,0,30306,2731.0,3939.0,1266.0,0.0,0.0,0.0,0.0
1630046761128293846,1630046761,0,30306,2730.0,3940.0,1246.0,0.0,0.0,0.0,0.0
1630046761238567547,1630046761,0,30306,2737.0,3947.0,1223.0,0.0,0.0,0.0,0.0
1630046761329974758,1630046761,0,30306,2742.0,3953.0,1197.0,0.0,0.0,0.0,0.0
1630046761419319101,1630046761,0,30306,2743.0,3957.0,1188.0,0.0,0.0,0.0,0.0
1630046761531067693,1630046761,0,30306,2740.0,3954.0,1178.0,0.0,0.0,0.0,0.0
1630046761629833927,1630046761,0,30306,2741.0,3957.0,1156.0,0.0,0.0,0.0,0.0
1630046761738815582,1630046761,0,30306,2736.0,3960.0,1181.0,0.0,0.0,0.0,0.0
1630046761829383030,1630046761,0,30306,2741.0,3957.0,1206.0,0.0,0.0,0.0,0.0
1630046761929524518,1630046761,0,30306,2749.0,3956.0,1223.0,0.0,0.0,0.0,0.0
1630046762029654454,1630046762,0,30306,2749.0,3959.0,1239.0,0.0,0.0,0.0,0.0
1630046762130507420,1630046762,0,30306,2751.0,3957.0,1250.0,0.0,0.0,0.0,0.0
1630046762239497649,1630046762,0,30306,2755.0,3953.0,1256.0,0.0,0.0,0.0,0.0
1630046762328388422,1630046762,0,30306,2764.0,3953.0,1256.0,0.0,0.0,0.0,0.0
1630046762437728153,1630046762,0,30306,2777.0,3952.0,1263.0,0.0,0.0,0.0,0.0
1630046762528957351,1630046762,0,30306,2786.0,3967.0,1252.0,0.0,0.0,0.0,0.0
1630046762639597210,1630046762,0,30306,2789.0,3979.0,1221.0,0.0,0.0,0.0,0.0
1630046762729399189,1630046762,0,30306,2782.0,3984.0,1198.0,0.0,0.0,0.0,0.0
1630046762829631118,1630046762,0,30306,2774.0,3998.0,1156.0,0.0,0.0,0.0,0.0
1630046762929308086,1630046762,0,30306,2754.0,4034.0,1079.0,0.0,0.0,0.0,0.0
1630046763029463538,1630046763,0,30306,2744.0,4055.0,1031.0,0.0,0.0,0.0,0.0
1630046763141199646,1630046763,0,30306,2743.0,4063.0,1022.0,0.0,0.0,0.0,0.0
1630046763229607148,1630046763,0,30306,2749.0,4058.0,1027.0,0.0,0.0,0.0,0.0
1630046763340707405,1630046763,0,30306,2763.0,4045.0,1041.0,0.0,0.0,0.0,0.0
1630046763429670734,1630046763,0,30306,2777.0,4027.0,1072.0,0.0,0.0,0.0,0.0
1630046763540828012,1630046763,0,30306,2791.0,4013.0,1102.0,0.0,0.0,0.0,0.0
1630046763630156916,1630046763,0,30306,2798.0,4005.0,1111.0,0.0,0.0,0.0,0.0
1630046763717860258,1630046763,0,30306,2786.0,3984.0,1144.0,0.0,0.0,0.0,0.0
1630046763829891464,1630046763,0,30306,2779.0,3968.0,1178.0,0.0,0.0,0.0,0.0
1630046763927262979,1630046763,0,30306,2772.0,3961.0,1197.0,0.0,0.0,0.0,0.0
1630046764028996001,1630046764,0,30306,2766.0,3949.0,1216.0,0.0,0.0,0.0,0.0
1630046764128029213,1630046764,0,30306,2767.0,3948.0,1233.0,0.0,0.0,0.0,0.0
1630046764239760023,1630046764,0,30306,2769.0,3943.0,1255.0,0.0,0.0,0.0,0.0
1630046764329674174,1630046764,0,30306,2764.0,3945.0,1270.0,0.0,0.0,0.0,0.0
1630046764437231742,1630046764,0,30306,2763.0,3947.0,1283.0,0.0,0.0,0.0,0.0
1630046764530072796,1630046764,0,30306,2760.0,3951.0,1288.0,0.0,0.0,0.0,0.0
1630046764619448123,1630046764,0,30306,2761.0,3950.0,1293.0,0.0,0.0,0.0,0.0
1630046764730282290,1630046764,0,30306,2752.0,3949.0,1314.0,0.0,0.0,0.0,0.0
1630046764828401721,1630046764,0,30306,2749.0,3947.0,1328.0,0.0,0.0,0.0,0.0
1630046764938135395,1630046764,0,30306,2744.0,3946.0,1341.0,0.0,0.0,0.0,0.0
1630046765028526414,1630046765,0,30306,2744.0,3944.0,1355.0,0.0,0.0,0.0,0.0
1630046765128696977,1630046765,0,30306,2743.0,3941.0,1373.0,0.0,0.0,0.0,0.0
1630046765228727616,1630046765,0,30306,2738.0,3941.0,1391.0,0.0,0.0,0.0,0.0
1630046765329016584,1630046765,0,30306,2735.0,3943.0,1419.0,0.0,0.0,0.0,0.0
1630046765438804845,1630046765,0,30306,2729.0,3948.0,1460.0,0.0,0.0,0.0,0.0
1630046765529329639,1630046765,0,30306,2731.0,3948.0,1500.0,0.0,0.0,0.0,0.0
1630046765617780349,1630046765,0,30306,2732.0,3953.0,1546.0,0.0,0.0,0.0,0.0
1630046765729350999,1630046765,0,30306,2734.0,3960.0,1524.0,0.0,0.0,0.0,0.0
1630046765829231876,1630046765,0,30306,2734.0,3966.0,1504.0,0.0,0.0,0.0,0.0
1630046765937547409,1630046765,0,30306,2736.0,3974.0,1502.0,0.0,0.0,0.0,0.0
1630046766029079894,1630046766,0,30306,2742.0,3984.0,1497.0,0.0,0.0,0.0,0.0
1630046766126940442,1630046766,0,30306,2738.0,3993.0,1507.0,0.0,0.0,0.0,0.0
1630046766226837022,1630046766,0,30306,2734.0,3999.0,1530.0,0.0,0.0,0.0,0.0
1630046766327816197,1630046766,0,30306,2735.0,4007.0,1554.0,0.0,0.0,0.0,0.0
1630046766437505977,1630046766,0,30306,2739.0,4015.0,1571.0,0.0,0.0,0.0,0.0
1630046766526169777,1630046766,0,30306,2744.0,4018.0,1593.0,0.0,0.0,0.0,0.0
1630046766636678751,1630046766,0,30306,2750.0,4026.0,1622.0,0.0,0.0,0.0,0.0
1630046766727252095,1630046766,0,30306,2749.0,4010.0,1567.0,0.0,0.0,0.0,0.0
1630046766839960565,1630046766,0,30306,2754.0,4000.0,1538.0,0.0,0.0,0.0,0.0
1630046766928748761,1630046766,0,30306,2759.0,3993.0,1522.0,0.0,0.0,0.0,0.0
1630046767018927496,1630046767,0,30306,2767.0,3988.0,1521.0,0.0,0.0,0.0,0.0
1630046767128586428,1630046767,0,30306,2770.0,3981.0,1519.0,0.0,0.0,0.0,0.0
1630046767227264529,1630046767,0,30306,2773.0,3974.0,1527.0,0.0,0.0,0.0,0.0
1630046767328124619,1630046767,0,30306,2777.0,3967.0,1540.0,0.0,0.0,0.0,0.0
1630046767428218546,1630046767,0,30306,2783.0,3959.0,1548.0,0.0,0.0,0.0,0.0
1630046767538440624,1630046767,0,30306,2790.0,3955.0,1564.0,0.0,0.0,0.0,0.0
1630046767627125403,1630046767,0,30306,2801.0,3949.0,1569.0,0.0,0.0,0.0,0.0
1630046767738422175,1630046767,0,30306,2795.0,3953.0,1505.0,0.0,0.0,0.0,0.0
1630046767827866054,1630046767,0,30306,2790.0,3951.0,1445.0,0.0,0.0,0.0,0.0
1630046767928052471,1630046767,0,30306,2791.0,3948.0,1393.0,0.0,0.0,0.0,0.0
1630046768037456907,1630046768,0,30306,2793.0,3945.0,1353.0,0.0,0.0,0.0,0.0
1630046768126071406,1630046768,0,30306,2793.0,3945.0,1320.0,0.0,0.0,0.0,0.0
1630046768226682911,1630046768,0,30306,2797.0,3951.0,1286.0,0.0,0.0,0.0,0.0
1630046768335820430,1630046768,0,30306,2801.0,3949.0,1262.0,0.0,0.0,0.0,0.0
1630046768426304172,1630046768,0,30306,2810.0,3950.0,1242.0,0.0,0.0,0.0,0.0
1630046768537210086,1630046768,0,30306,2812.0,3955.0,1233.0,0.0,0.0,0.0,0.0
1630046768625439354,1630046768,0,30306,2814.0,3958.0,1223.0,0.0,0.0,0.0,0.0
1630046768736611223,1630046768,0,30306,2802.0,3960.0,1215.0,0.0,0.0,0.0,0.0
1630046768826030417,1630046768,0,30306,2790.0,3963.0,1213.0,0.0,0.0,0.0,0.0
1630046768924709462,1630046768,0,30306,2778.0,3967.0,1207.0,0.0,0.0,0.0,0.0
1630046769035977141,1630046769,0,30306,2770.0,3967.0,1197.0,0.0,0.0,0.0,0.0
1630046769126213633,1630046769,0,30306,2764.0,3965.0,1184.0,0.0,0.0,0.0,0.0
1630046769233779192,1630046769,0,30306,2767.0,3968.0,1177.0,0.0,0.0,0.0,0.0
1630046769324223453,1630046769,0,30306,2769.0,3971.0,1163.0,0.0,0.0,0.0,0.0
1630046769435159092,1630046769,0,30306,2772.0,3975.0,1150.0,0.0,0.0,0.0,0.0
1630046769535146239,1630046769,0,30306,2780.0,3984.0,1116.0,0.0,0.0,0.0,0.0
1630046769624636969,1630046769,0,30306,2789.0,3990.0,1095.0,0.0,0.0,0.0,0.0
1630046769733772495,1630046769,0,30306,2782.0,3981.0,1118.0,0.0,0.0,0.0,0.0
1630046769824315167,1630046769,0,30306,2773.0,3973.0,1139.0,0.0,0.0,0.0,0.0
1630046769934749974,1630046769,0,30306,2768.0,3970.0,1151.0,0.0,0.0,0.0,0.0
1630046770023739232,1630046770,0,30306,2762.0,3969.0,1154.0,0.0,0.0,0.0,0.0
1630046770134587848,1630046770,0,30306,2760.0,3969.0,1157.0,0.0,0.0,0.0,0.0
1630046770222495167,1630046770,0,30306,2760.0,3970.0,1152.0,0.0,0.0,0.0,0.0
1630046770335104780,1630046770,0,30306,2754.0,3975.0,1136.0,0.0,0.0,0.0,0.0
1630046770421944645,1630046770,0,30306,2752.0,3982.0,1127.0,0.0,0.0,0.0,0.0
1630046770533415972,1630046770,0,30306,2747.0,3985.0,1114.0,0.0,0.0,0.0,0.0
1630046770635240870,1630046770,0,30306,2739.0,3988.0,1106.0,0.0,0.0,0.0,0.0
1630046770722950264,1630046770,0,30306,2738.0,3981.0,1144.0,0.0,0.0,0.0,0.0
1630046770834027246,1630046770,0,30306,2743.0,3975.0,1169.0,0.0,0.0,0.0,0.0
1630046770924790278,1630046770,0,30306,2745.0,3969.0,1191.0,0.0,0.0,0.0,0.0
1630046771031285476,1630046771,0,30306,2743.0,3962.0,1198.0,0.0,0.0,0.0,0.0
1630046771121379474,1630046771,0,30306,2736.0,3961.0,1204.0,0.0,0.0,0.0,0.0
1630046771232295330,1630046771,0,30306,2725.0,3963.0,1198.0,0.0,0.0,0.0,0.0
1630046771332703516,1630046771,0,30306,2722.0,3962.0,1185.0,0.0,0.0,0.0,0.0
1630046771432302410,1630046771,0,30306,2716.0,3965.0,1165.0,0.0,0.0,0.0,0.0
1630046771531031541,1630046771,0,30306,2708.0,3967.0,1145.0,0.0,0.0,0.0,0.0
1630046771631839223,1630046771,0,30306,2703.0,3966.0,1133.0,0.0,0.0,0.0,0.0
1630046771732665493,1630046771,0,30306,2708.0,3961.0,1172.0,0.0,0.0,0.0,0.0
1630046771821318815,1630046771,0,30306,2710.0,3955.0,1202.0,0.0,0.0,0.0,0.0
1630046771932251858,1630046771,0,30306,2717.0,3951.0,1214.0,0.0,0.0,0.0,0.0
1630046772021780974,1630046772,0,30306,2721.0,3946.0,1224.0,0.0,0.0,0.0,0.0
1630046772133147305,1630046772,0,30306,2721.0,3945.0,1219.0,0.0,0.0,0.0,0.0
1630046772233280368,1630046772,0,30306,2728.0,3942.0,1210.0,0.0,0.0,0.0,0.0
1630046772322902857,1630046772,0,30306,2727.0,3938.0,1199.0,0.0,0.0,0.0,0.0
1630046772431412281,1630046772,0,30306,2724.0,3930.0,1183.0,0.0,0.0,0.0,0.0
1630046772522543492,1630046772,0,30306,2724.0,3925.0,1179.0,0.0,0.0,0.0,0.0
1630046772632641308,1630046772,0,30306,2719.0,3922.0,1172.0,0.0,0.0,0.0,0.0
1630046772721231965,1630046772,0,30306,2727.0,3939.0,1201.0,0.0,0.0,0.0,0.0
1630046772833576385,1630046772,0,30306,2732.0,3954.0,1217.0,0.0,0.0,0.0,0.0
1630046772933416340,1630046772,0,30306,2736.0,3969.0,1237.0,0.0,0.0,0.0,0.0
1630046773033954032,1630046773,0,30306,2737.0,3978.0,1252.0,0.0,0.0,0.0,0.0
1630046773134395870,1630046773,0,30306,2735.0,3986.0,1264.0,0.0,0.0,0.0,0.0
1630046773224587656,1630046773,0,30306,2729.0,3989.0,1280.0,0.0,0.0,0.0,0.0
1630046773335280184,1630046773,0,30306,2722.0,3988.0,1293.0,0.0,0.0,0.0,0.0
1630046773424700185,1630046773,0,30306,2716.0,3987.0,1300.0,0.0,0.0,0.0,0.0
1630046773535471555,1630046773,0,30306,2709.0,3986.0,1311.0,0.0,0.0,0.0,0.0
1630046773634821993,1630046773,0,30306,2705.0,3986.0,1308.0,0.0,0.0,0.0,0.0
1630046773724927440,1630046773,0,30306,2713.0,3977.0,1316.0,0.0,0.0,0.0,0.0
1630046773833840993,1630046773,0,30306,2719.0,3970.0,1325.0,0.0,0.0,0.0,0.0
1630046773924018403,1630046773,0,30306,2727.0,3964.0,1346.0,0.0,0.0,0.0,0.0
1630046774034901079,1630046774,0,30306,2731.0,3961.0,1364.0,0.0,0.0,0.0,0.0
1630046774123674185,1630046774,0,30306,2737.0,3962.0,1379.0,0.0,0.0,0.0,0.0
1630046774224607995,1630046774,0,30306,2737.0,3968.0,1400.0,0.0,0.0,0.0,0.0
1630046774334459908,1630046774,0,30306,2736.0,3973.0,1426.0,0.0,0.0,0.0,0.0
1630046774424000061,1630046774,0,30306,2729.0,3978.0,1448.0,0.0,0.0,0.0,0.0
1630046774535043229,1630046774,0,30306,2726.0,3980.0,1467.0,0.0,0.0,0.0,0.0
1630046774624658312,1630046774,0,30306,2720.0,3982.0,1491.0,0.0,0.0,0.0,0.0
1630046774733965639,1630046774,0,30306,2731.0,3974.0,1460.0,0.0,0.0,0.0,0.0
1630046774823654547,1630046774,0,30306,2737.0,3969.0,1436.0,0.0,0.0,0.0,0.0
1630046774933893098,1630046774,0,30306,2744.0,3966.0,1420.0,0.0,0.0,0.0,0.0
1630046775033939460,1630046775,0,30306,2748.0,3963.0,1408.0,0.0,0.0,0.0,0.0
1630046775134571936,1630046775,0,30306,2744.0,3963.0,1405.0,0.0,0.0,0.0,0.0
1630046775234875865,1630046775,0,30306,2744.0,3963.0,1400.0,0.0,0.0,0.0,0.0
1630046775323222409,1630046775,0,30306,2742.0,3960.0,1395.0,0.0,0.0,0.0,0.0
1630046775434983128,1630046775,0,30306,2738.0,3963.0,1408.0,0.0,0.0,0.0,0.0
1630046775523667784,1630046775,0,30306,2738.0,3969.0,1427.0,0.0,0.0,0.0,0.0
1630046775635260750,1630046775,0,30306,2732.0,3976.0,1450.0,0.0,0.0,0.0,0.0
1630046775722229564,1630046775,0,30306,2735.0,3971.0,1424.0,0.0,0.0,0.0,0.0
1630046775834477778,1630046775,0,30306,2738.0,3968.0,1399.0,0.0,0.0,0.0,0.0
1630046775933481019,1630046775,0,30306,2735.0,3965.0,1382.0,0.0,0.0,0.0,0.0
1630046776022136971,1630046776,0,30306,2729.0,3963.0,1370.0,0.0,0.0,0.0,0.0
1630046776133403302,1630046776,0,30306,2723.0,3961.0,1369.0,0.0,0.0,0.0,0.0
1630046776221947243,1630046776,0,30306,2714.0,3960.0,1362.0,0.0,0.0,0.0,0.0
1630046776331723486,1630046776,0,30306,2703.0,3954.0,1373.0,0.0,0.0,0.0,0.0
1630046776431256215,1630046776,0,30306,2694.0,3948.0,1376.0,0.0,0.0,0.0,0.0
1630046776521899768,1630046776,0,30306,2678.0,3943.0,1375.0,0.0,0.0,0.0,0.0
1630046776631733078,1630046776,0,30306,2662.0,3941.0,1391.0,0.0,0.0,0.0,0.0
1630046776719665275,1630046776,0,30306,2676.0,3941.0,1378.0,0.0,0.0,0.0,0.0
1630046776830569955,1630046776,0,30306,2687.0,3942.0,1376.0,0.0,0.0,0.0,0.0
1630046776930804434,1630046776,0,30306,2695.0,3937.0,1365.0,0.0,0.0,0.0,0.0
1630046777042014079,1630046777,0,30306,2697.0,3935.0,1356.0,0.0,0.0,0.0,0.0
1630046777130780395,1630046777,0,30306,2696.0,3933.0,1346.0,0.0,0.0,0.0,0.0
1630046777240621292,1630046777,0,30306,2692.0,3931.0,1326.0,0.0,0.0,0.0,0.0
1630046777331702220,1630046777,0,30306,2688.0,3927.0,1311.0,0.0,0.0,0.0,0.0
1630046777420735917,1630046777,0,30306,2684.0,3927.0,1294.0,0.0,0.0,0.0,0.0
1630046777531878455,1630046777,0,30306,2682.0,3926.0,1277.0,0.0,0.0,0.0,0.0
1630046777642613104,1630046777,0,30306,2678.0,3929.0,1268.0,0.0,0.0,0.0,0.0
1630046777733520165,1630046777,0,30306,2693.0,3945.0,1267.0,0.0,0.0,0.0,0.0
1630046777822142018,1630046777,0,30306,2704.0,3957.0,1264.0,0.0,0.0,0.0,0.0
1630046777933282742,1630046777,0,30306,2712.0,3967.0,1266.0,0.0,0.0,0.0,0.0
1630046778022905321,1630046778,0,30306,2718.0,3983.0,1269.0,0.0,0.0,0.0,0.0
1630046778132457851,1630046778,0,30306,2718.0,3991.0,1265.0,0.0,0.0,0.0,0.0
1630046778222516598,1630046778,0,30306,2718.0,3998.0,1271.0,0.0,0.0,0.0,0.0
1630046778334111461,1630046778,0,30306,2714.0,4005.0,1273.0,0.0,0.0,0.0,0.0
1630046778433097186,1630046778,0,30306,2704.0,4006.0,1262.0,0.0,0.0,0.0,0.0
1630046778533639469,1630046778,0,30306,2694.0,4009.0,1262.0,0.0,0.0,0.0,0.0
1630046778633966743,1630046778,0,30306,2682.0,4009.0,1260.0,0.0,0.0,0.0,0.0
1630046778720844909,1630046778,0,30306,2705.0,3994.0,1255.0,0.0,0.0,0.0,0.0
1630046778833125905,1630046778,0,30306,2722.0,3976.0,1244.0,0.0,0.0,0.0,0.0
1630046778922249615,1630046778,0,30306,2738.0,3968.0,1244.0,0.0,0.0,0.0,0.0
1630046779032646178,1630046779,0,30306,2744.0,3960.0,1237.0,0.0,0.0,0.0,0.0
1630046779133888473,1630046779,0,30306,2751.0,3958.0,1232.0,0.0,0.0,0.0,0.0
1630046779233875156,1630046779,0,30306,2754.0,3958.0,1218.0,0.0,0.0,0.0,0.0
1630046779333873811,1630046779,0,30306,2757.0,3957.0,1211.0,0.0,0.0,0.0,0.0
1630046779422891265,1630046779,0,30306,2757.0,3954.0,1200.0,0.0,0.0,0.0,0.0
1630046779532407792,1630046779,0,30306,2755.0,3953.0,1196.0,0.0,0.0,0.0,0.0
1630046779623121772,1630046779,0,30306,2756.0,3947.0,1190.0,0.0,0.0,0.0,0.0
1630046779732746713,1630046779,0,30306,2761.0,3945.0,1213.0,0.0,0.0,0.0,0.0
1630046779822156173,1630046779,0,30306,2766.0,3936.0,1224.0,0.0,0.0,0.0,0.0
1630046779932595045,1630046779,0,30306,2769.0,3923.0,1223.0,0.0,0.0,0.0,0.0
1630046780022410002,1630046780,0,30306,2767.0,3909.0,1218.0,0.0,0.0,0.0,0.0
1630046780132586977,1630046780,0,30306,2765.0,3904.0,1212.0,0.0,0.0,0.0,0.0
1630046780233197220,1630046780,0,30306,2763.0,3896.0,1196.0,0.0,0.0,0.0,0.0
1630046780322431318,1630046780,0,30306,2772.0,3887.0,1181.0,0.0,0.0,0.0,0.0
1630046780432671562,1630046780,0,30306,2779.0,3883.0,1172.0,0.0,0.0,0.0,0.0
1630046780522756740,1630046780,0,30306,2786.0,3873.0,1161.0,0.0,0.0,0.0,0.0
1630046780631775972,1630046780,0,30306,2795.0,3868.0,1153.0,0.0,0.0,0.0,0.0
1630046780720770890,1630046780,0,30306,2791.0,3894.0,1181.0,0.0,0.0,0.0,0.0
1630046780832677752,1630046780,0,30306,2788.0,3913.0,1204.0,0.0,0.0,0.0,0.0
1630046780921755611,1630046780,0,30306,2786.0,3932.0,1219.0,0.0,0.0,0.0,0.0
1630046781032835057,1630046781,0,30306,2781.0,3940.0,1229.0,0.0,0.0,0.0,0.0
1630046781123987076,1630046781,0,30306,2781.0,3947.0,1247.0,0.0,0.0,0.0,0.0
1630046781235353475,1630046781,0,30306,2779.0,3949.0,1253.0,0.0,0.0,0.0,0.0
1630046781323257487,1630046781,0,30306,2783.0,3952.0,1264.0,0.0,0.0,0.0,0.0
1630046781435499933,1630046781,0,30306,2787.0,3952.0,1277.0,0.0,0.0,0.0,0.0
1630046781523997357,1630046781,0,30306,2796.0,3949.0,1280.0,0.0,0.0,0.0,0.0
1630046781626156671,1630046781,0,30306,2801.0,3947.0,1288.0,0.0,0.0,0.0,0.0
1630046781733959439,1630046781,0,30306,2782.0,3953.0,1293.0,0.0,0.0,0.0,0.0
1630046781825182392,1630046781,0,30306,2764.0,3962.0,1300.0,0.0,0.0,0.0,0.0
1630046781935163598,1630046781,0,30306,2751.0,3971.0,1304.0,0.0,0.0,0.0,0.0
1630046782023660262,1630046782,0,30306,2738.0,3983.0,1302.0,0.0,0.0,0.0,0.0
1630046782123868878,1630046782,0,30306,2727.0,3994.0,1294.0,0.0,0.0,0.0,0.0
1630046782232922133,1630046782,0,30306,2720.0,4006.0,1280.0,0.0,0.0,0.0,0.0
1630046782323527738,1630046782,0,30306,2712.0,4016.0,1274.0,0.0,0.0,0.0,0.0
1630046782432189426,1630046782,0,30306,2711.0,4023.0,1269.0,0.0,0.0,0.0,0.0
1630046782523399002,1630046782,0,30306,2710.0,4031.0,1256.0,0.0,0.0,0.0,0.0
1630046782633505439,1630046782,0,30306,2711.0,4043.0,1258.0,0.0,0.0,0.0,0.0
1630046782732597996,1630046782,0,30306,2722.0,4022.0,1262.0,0.0,0.0,0.0,0.0
1630046782821935567,1630046782,0,30306,2727.0,4011.0,1280.0,0.0,0.0,0.0,0.0
1630046782932872423,1630046782,0,30306,2733.0,4002.0,1293.0,0.0,0.0,0.0,0.0
1630046783029867464,1630046783,0,30306,2738.0,3993.0,1301.0,0.0,0.0,0.0,0.0
1630046783132024173,1630046783,0,30306,2744.0,3994.0,1304.0,0.0,0.0,0.0,0.0
1630046783231857664,1630046783,0,30306,2743.0,3996.0,1312.0,0.0,0.0,0.0,0.0
1630046783321820550,1630046783,0,30306,2740.0,4000.0,1313.0,0.0,0.0,0.0,0.0
1630046783433088237,1630046783,0,30306,2738.0,4001.0,1304.0,0.0,0.0,0.0,0.0
1630046783521120979,1630046783,0,30306,2740.0,4005.0,1300.0,0.0,0.0,0.0,0.0
1630046783631078229,1630046783,0,30306,2739.0,4013.0,1298.0,0.0,0.0,0.0,0.0
1630046783720237767,1630046783,0,30306,2743.0,3997.0,1300.0,0.0,0.0,0.0,0.0
1630046783830410612,1630046783,0,30306,2746.0,3984.0,1308.0,0.0,0.0,0.0,0.0
1630046783929967434,1630046783,0,30306,2749.0,3977.0,1313.0,0.0,0.0,0.0,0.0
1630046784019872683,1630046784,0,30306,2754.0,3972.0,1320.0,0.0,0.0,0.0,0.0
1630046784131046438,1630046784,0,30306,2753.0,3968.0,1320.0,0.0,0.0,0.0,0.0
1630046784230296032,1630046784,0,30306,2751.0,3967.0,1330.0,0.0,0.0,0.0,0.0
1630046784329646397,1630046784,0,30306,2742.0,3969.0,1332.0,0.0,0.0,0.0,0.0
1630046784428804088,1630046784,0,30306,2734.0,3976.0,1335.0,0.0,0.0,0.0,0.0
1630046784538905511,1630046784,0,30306,2725.0,3983.0,1339.0,0.0,0.0,0.0,0.0
1630046784628856269,1630046784,0,30306,2717.0,3993.0,1353.0,0.0,0.0,0.0,0.0
1630046784736267863,1630046784,0,30306,2718.0,3984.0,1355.0,0.0,0.0,0.0,0.0
1630046784827561065,1630046784,0,30306,2724.0,3977.0,1362.0,0.0,0.0,0.0,0.0
1630046784927962156,1630046784,0,30306,2729.0,3971.0,1375.0,0.0,0.0,0.0,0.0
1630046785024370261,1630046785,0,30306,2733.0,3964.0,1372.0,0.0,0.0,0.0,0.0
1630046785127071506,1630046785,0,30306,2734.0,3965.0,1362.0,0.0,0.0,0.0,0.0
1630046785236889735,1630046785,0,30306,2738.0,3965.0,1367.0,0.0,0.0,0.0,0.0
1630046785327680748,1630046785,0,30306,2739.0,3962.0,1370.0,0.0,0.0,0.0,0.0
1630046785425600255,1630046785,0,30306,2749.0,3959.0,1388.0,0.0,0.0,0.0,0.0
1630046785535673951,1630046785,0,30306,2755.0,3956.0,1395.0,0.0,0.0,0.0,0.0
1630046785626305615,1630046785,0,30306,2759.0,3956.0,1403.0,0.0,0.0,0.0,0.0
1630046785735617781,1630046785,0,30306,2764.0,3952.0,1378.0,0.0,0.0,0.0,0.0
1630046785824755620,1630046785,0,30306,2760.0,3951.0,1361.0,0.0,0.0,0.0,0.0
1630046785934895835,1630046785,0,30306,2758.0,3951.0,1343.0,0.0,0.0,0.0,0.0
1630046786025208169,1630046786,0,30306,2755.0,3950.0,1325.0,0.0,0.0,0.0,0.0
1630046786134285878,1630046786,0,30306,2756.0,3952.0,1309.0,0.0,0.0,0.0,0.0
1630046786231550962,1630046786,0,30306,2759.0,3947.0,1295.0,0.0,0.0,0.0,0.0
1630046786320036928,1630046786,0,30306,2766.0,3941.0,1281.0,0.0,0.0,0.0,0.0
1630046786431328284,1630046786,0,30306,2773.0,3933.0,1270.0,0.0,0.0,0.0,0.0
1630046786521592165,1630046786,0,30306,2782.0,3927.0,1269.0,0.0,0.0,0.0,0.0
1630046786631996763,1630046786,0,30306,2794.0,3926.0,1271.0,0.0,0.0,0.0,0.0
1630046786720228887,1630046786,0,30306,2792.0,3933.0,1261.0,0.0,0.0,0.0,0.0
1630046786830754516,1630046786,0,30306,2793.0,3935.0,1260.0,0.0,0.0,0.0,0.0
1630046786930934412,1630046786,0,30306,2800.0,3942.0,1259.0,0.0,0.0,0.0,0.0
1630046787041455263,1630046787,0,30306,2808.0,3948.0,1259.0,0.0,0.0,0.0,0.0
1630046787127887659,1630046787,0,30306,2823.0,3947.0,1254.0,0.0,0.0,0.0,0.0
1630046787219917817,1630046787,0,30306,2839.0,3954.0,1251.0,0.0,0.0,0.0,0.0
1630046787330053351,1630046787,0,30306,2859.0,3955.0,1250.0,0.0,0.0,0.0,0.0
1630046787418957110,1630046787,0,30306,2873.0,3959.0,1248.0,0.0,0.0,0.0,0.0
1630046787530394169,1630046787,0,30306,2891.0,3958.0,1246.0,0.0,0.0,0.0,0.0
1630046787628125666,1630046787,0,30306,2908.0,3961.0,1254.0,0.0,0.0,0.0,0.0
1630046787739659171,1630046787,0,30306,2878.0,3965.0,1249.0,0.0,0.0,0.0,0.0
1630046787829045244,1630046787,0,30306,2863.0,3967.0,1243.0,0.0,0.0,0.0,0.0
1630046787917837564,1630046787,0,30306,2854.0,3967.0,1232.0,0.0,0.0,0.0,0.0
1630046788029540886,1630046788,0,30306,2853.0,3965.0,1224.0,0.0,0.0,0.0,0.0
1630046788129794130,1630046788,0,30306,2855.0,3958.0,1216.0,0.0,0.0,0.0,0.0
1630046788238057814,1630046788,0,30306,2864.0,3949.0,1210.0,0.0,0.0,0.0,0.0
1630046788329500767,1630046788,0,30306,2868.0,3946.0,1198.0,0.0,0.0,0.0,0.0
1630046788438073106,1630046788,0,30306,2878.0,3945.0,1196.0,0.0,0.0,0.0,0.0
1630046788527905451,1630046788,0,30306,2885.0,3946.0,1188.0,0.0,0.0,0.0,0.0
1630046788617418732,1630046788,0,30306,2893.0,3949.0,1184.0,0.0,0.0,0.0,0.0
1630046788727487452,1630046788,0,30306,2852.0,3947.0,1207.0,0.0,0.0,0.0,0.0
1630046788828852057,1630046788,0,30306,2823.0,3944.0,1227.0,0.0,0.0,0.0,0.0
1630046788936662126,1630046788,0,30306,2797.0,3944.0,1232.0,0.0,0.0,0.0,0.0
1630046789027721769,1630046789,0,30306,2782.0,3943.0,1229.0,0.0,0.0,0.0,0.0
1630046789126800991,1630046789,0,30306,2771.0,3943.0,1211.0,0.0,0.0,0.0,0.0
1630046789228295120,1630046789,0,30306,2765.0,3936.0,1201.0,0.0,0.0,0.0,0.0
1630046789328478366,1630046789,0,30306,2765.0,3926.0,1189.0,0.0,0.0,0.0,0.0
1630046789427215312,1630046789,0,30306,2767.0,3918.0,1166.0,0.0,0.0,0.0,0.0
1630046789527396281,1630046789,0,30306,2763.0,3905.0,1133.0,0.0,0.0,0.0,0.0
1630046789638921671,1630046789,0,30306,2768.0,3897.0,1114.0,0.0,0.0,0.0,0.0
1630046789728409235,1630046789,0,30306,2759.0,3913.0,1160.0,0.0,0.0,0.0,0.0
1630046789838787648,1630046789,0,30306,2755.0,3923.0,1190.0,0.0,0.0,0.0,0.0
1630046789928987925,1630046789,0,30306,2755.0,3928.0,1226.0,0.0,0.0,0.0,0.0
1630046790040093567,1630046790,0,30306,2754.0,3932.0,1255.0,0.0,0.0,0.0,0.0
1630046790128470882,1630046790,0,30306,2757.0,3931.0,1290.0,0.0,0.0,0.0,0.0
1630046790238638965,1630046790,0,30306,2758.0,3930.0,1314.0,0.0,0.0,0.0,0.0
1630046790327444851,1630046790,0,30306,2756.0,3929.0,1334.0,0.0,0.0,0.0,0.0
1630046790439194821,1630046790,0,30306,2755.0,3923.0,1344.0,0.0,0.0,0.0,0.0
1630046790528951268,1630046790,0,30306,2749.0,3923.0,1350.0,0.0,0.0,0.0,0.0
1630046790617621526,1630046790,0,30306,2747.0,3921.0,1361.0,0.0,0.0,0.0,0.0
1630046790725882783,1630046790,0,30306,2743.0,3928.0,1365.0,0.0,0.0,0.0,0.0
1630046790827753684,1630046790,0,30306,2743.0,3936.0,1371.0,0.0,0.0,0.0,0.0
1630046790928958019,1630046790,0,30306,2739.0,3935.0,1382.0,0.0,0.0,0.0,0.0
1630046791026666071,1630046791,0,30306,2733.0,3934.0,1385.0,0.0,0.0,0.0,0.0
1630046791128249020,1630046791,0,30306,2728.0,3933.0,1391.0,0.0,0.0,0.0,0.0
1630046791228416262,1630046791,0,30306,2723.0,3929.0,1398.0,0.0,0.0,0.0,0.0
1630046791336669999,1630046791,0,30306,2715.0,3926.0,1406.0,0.0,0.0,0.0,0.0
1630046791428235014,1630046791,0,30306,2707.0,3920.0,1417.0,0.0,0.0,0.0,0.0
1630046791538557361,1630046791,0,30306,2705.0,3911.0,1424.0,0.0,0.0,0.0,0.0
1630046791628962866,1630046791,0,30306,2695.0,3901.0,1431.0,0.0,0.0,0.0,0.0
1630046791718290026,1630046791,0,30306,2706.0,3915.0,1405.0,0.0,0.0,0.0,0.0
1630046791828844162,1630046791,0,30306,2718.0,3926.0,1384.0,0.0,0.0,0.0,0.0
1630046791927759248,1630046791,0,30306,2726.0,3934.0,1372.0,0.0,0.0,0.0,0.0
1630046792039109192,1630046792,0,30306,2732.0,3943.0,1361.0,0.0,0.0,0.0,0.0
1630046792127745994,1630046792,0,30306,2732.0,3948.0,1354.0,0.0,0.0,0.0,0.0
1630046792218948082,1630046792,0,30306,2730.0,3953.0,1352.0,0.0,0.0,0.0,0.0
1630046792328396283,1630046792,0,30306,2722.0,3954.0,1355.0,0.0,0.0,0.0,0.0
1630046792425660752,1630046792,0,30306,2715.0,3952.0,1354.0,0.0,0.0,0.0,0.0
1630046792528215888,1630046792,0,30306,2706.0,3943.0,1358.0,0.0,0.0,0.0,0.0
1630046792628066218,1630046792,0,30306,2700.0,3936.0,1356.0,0.0,0.0,0.0,0.0
1630046792738331159,1630046792,0,30306,2710.0,3943.0,1353.0,0.0,0.0,0.0,0.0
1630046792828983820,1630046792,0,30306,2719.0,3946.0,1343.0,0.0,0.0,0.0,0.0
1630046792939700054,1630046792,0,30306,2726.0,3950.0,1332.0,0.0,0.0,0.0,0.0
1630046793028255921,1630046793,0,30306,2731.0,3950.0,1330.0,0.0,0.0,0.0,0.0
1630046793138148803,1630046793,0,30306,2736.0,3951.0,1331.0,0.0,0.0,0.0,0.0
1630046793229712610,1630046793,0,30306,2737.0,3950.0,1333.0,0.0,0.0,0.0,0.0
1630046793318393626,1630046793,0,30306,2733.0,3948.0,1334.0,0.0,0.0,0.0,0.0
1630046793427838101,1630046793,0,30306,2728.0,3943.0,1341.0,0.0,0.0,0.0,0.0
1630046793528267144,1630046793,0,30306,2725.0,3943.0,1345.0,0.0,0.0,0.0,0.0
1630046793629608678,1630046793,0,30306,2718.0,3943.0,1347.0,0.0,0.0,0.0,0.0
1630046793729977446,1630046793,0,30306,2726.0,3947.0,1342.0,0.0,0.0,0.0,0.0
1630046793830347644,1630046793,0,30306,2727.0,3951.0,1334.0,0.0,0.0,0.0,0.0
1630046793928738334,1630046793,0,30306,2730.0,3952.0,1343.0,0.0,0.0,0.0,0.0
1630046794029916461,1630046794,0,30306,2734.0,3950.0,1349.0,0.0,0.0,0.0,0.0
1630046794130200547,1630046794,0,30306,2742.0,3950.0,1360.0,0.0,0.0,0.0,0.0
1630046794240499284,1630046794,0,30306,2750.0,3954.0,1376.0,0.0,0.0,0.0,0.0
1630046794328397894,1630046794,0,30306,2760.0,3959.0,1390.0,0.0,0.0,0.0,0.0
1630046794419415373,1630046794,0,30306,2765.0,3960.0,1401.0,0.0,0.0,0.0,0.0
1630046794528476638,1630046794,0,30306,2771.0,3960.0,1414.0,0.0,0.0,0.0,0.0
1630046794629379967,1630046794,0,30306,2771.0,3962.0,1430.0,0.0,0.0,0.0,0.0
1630046794738714314,1630046794,0,30306,2768.0,3961.0,1409.0,0.0,0.0,0.0,0.0
1630046794828546609,1630046794,0,30306,2762.0,3964.0,1379.0,0.0,0.0,0.0,0.0
1630046794917850321,1630046794,0,30306,2754.0,3965.0,1357.0,0.0,0.0,0.0,0.0
1630046795028565171,1630046795,0,30306,2741.0,3968.0,1329.0,0.0,0.0,0.0,0.0
1630046795130288821,1630046795,0,30306,2731.0,3973.0,1302.0,0.0,0.0,0.0,0.0
1630046795229032679,1630046795,0,30306,2718.0,3975.0,1277.0,0.0,0.0,0.0,0.0
1630046795329111238,1630046795,0,30306,2704.0,3973.0,1250.0,0.0,0.0,0.0,0.0
1630046795429231633,1630046795,0,30306,2693.0,3973.0,1222.0,0.0,0.0,0.0,0.0
1630046795528703925,1630046795,0,30306,2683.0,3977.0,1182.0,0.0,0.0,0.0,0.0
1630046795640008947,1630046795,0,30306,2674.0,3980.0,1142.0,0.0,0.0,0.0,0.0
1630046795727203852,1630046795,0,30306,2691.0,3971.0,1169.0,0.0,0.0,0.0,0.0
1630046795845810080,1630046795,0,30306,2702.0,3969.0,1191.0,0.0,0.0,0.0,0.0
1630046795928006238,1630046795,0,30306,2711.0,3960.0,1208.0,0.0,0.0,0.0,0.0
1630046796038666679,1630046796,0,30306,2721.0,3959.0,1224.0,0.0,0.0,0.0,0.0
1630046796128577825,1630046796,0,30306,2729.0,3959.0,1241.0,0.0,0.0,0.0,0.0
1630046796238525514,1630046796,0,30306,2730.0,3957.0,1257.0,0.0,0.0,0.0,0.0
1630046796330473332,1630046796,0,30306,2731.0,3954.0,1270.0,0.0,0.0,0.0,0.0
1630046796418852781,1630046796,0,30306,2729.0,3949.0,1288.0,0.0,0.0,0.0,0.0
1630046796530381052,1630046796,0,30306,2721.0,3948.0,1300.0,0.0,0.0,0.0,0.0
1630046796630457088,1630046796,0,30306,2715.0,3945.0,1321.0,0.0,0.0,0.0,0.0
1630046796738578837,1630046796,0,30306,2722.0,3946.0,1337.0,0.0,0.0,0.0,0.0
1630046796830041195,1630046796,0,30306,2723.0,3946.0,1354.0,0.0,0.0,0.0,0.0
1630046796919667562,1630046796,0,30306,2727.0,3944.0,1367.0,0.0,0.0,0.0,0.0
1630046797028788764,1630046797,0,30306,2731.0,3936.0,1373.0,0.0,0.0,0.0,0.0
1630046797127678680,1630046797,0,30306,2735.0,3926.0,1373.0,0.0,0.0,0.0,0.0
1630046797230525479,1630046797,0,30306,2733.0,3923.0,1360.0,0.0,0.0,0.0,0.0
1630046797328901358,1630046797,0,30306,2734.0,3913.0,1349.0,0.0,0.0,0.0,0.0
1630046797439654745,1630046797,0,30306,2735.0,3902.0,1338.0,0.0,0.0,0.0,0.0
1630046797530802306,1630046797,0,30306,2728.0,3891.0,1315.0,0.0,0.0,0.0,0.0
1630046797618979132,1630046797,0,30306,2720.0,3881.0,1300.0,0.0,0.0,0.0,0.0
1630046797729691040,1630046797,0,30306,2723.0,3897.0,1301.0,0.0,0.0,0.0,0.0
1630046797819394675,1630046797,0,30306,2729.0,3911.0,1302.0,0.0,0.0,0.0,0.0
1630046797928376478,1630046797,0,30306,2730.0,3917.0,1307.0,0.0,0.0,0.0,0.0
1630046798029237832,1630046798,0,30306,2735.0,3920.0,1314.0,0.0,0.0,0.0,0.0
1630046798139998601,1630046798,0,30306,2731.0,3923.0,1319.0,0.0,0.0,0.0,0.0
1630046798232137191,1630046798,0,30306,2725.0,3925.0,1317.0,0.0,0.0,0.0,0.0
1630046798339063740,1630046798,0,30306,2726.0,3921.0,1317.0,0.0,0.0,0.0,0.0
1630046798428833458,1630046798,0,30306,2723.0,3921.0,1318.0,0.0,0.0,0.0,0.0
1630046798518126678,1630046798,0,30306,2719.0,3921.0,1322.0,0.0,0.0,0.0,0.0
1630046798628518700,1630046798,0,30306,2717.0,3920.0,1316.0,0.0,0.0,0.0,0.0
1630046798717503481,1630046798,0,30306,2720.0,3933.0,1315.0,0.0,0.0,0.0,0.0
1630046798829153305,1630046798,0,30306,2728.0,3941.0,1308.0,0.0,0.0,0.0,0.0
1630046798929135034,1630046798,0,30306,2732.0,3941.0,1299.0,0.0,0.0,0.0,0.0
1630046799029097322,1630046799,0,30306,2729.0,3939.0,1281.0,0.0,0.0,0.0,0.0
1630046799129209024,1630046799,0,30306,2722.0,3937.0,1265.0,0.0,0.0,0.0,0.0
1630046799239128280,1630046799,0,30306,2715.0,3935.0,1261.0,0.0,0.0,0.0,0.0
1630046799327447878,1630046799,0,30306,2710.0,3935.0,1266.0,0.0,0.0,0.0,0.0
1630046799439318081,1630046799,0,30306,2707.0,3934.0,1265.0,0.0,0.0,0.0,0.0
1630046799527575995,1630046799,0,30306,2708.0,3932.0,1271.0,0.0,0.0,0.0,0.0
1630046799638294357,1630046799,0,30306,2703.0,3926.0,1278.0,0.0,0.0,0.0,0.0
1630046799726213109,1630046799,0,30306,2712.0,3931.0,1278.0,0.0,0.0,0.0,0.0
1630046799829008625,1630046799,0,30306,2722.0,3941.0,1277.0,0.0,0.0,0.0,0.0
1630046799938896007,1630046799,0,30306,2726.0,3950.0,1282.0,0.0,0.0,0.0,0.0
1630046800029578297,1630046800,0,30306,2727.0,3956.0,1292.0,0.0,0.0,0.0,0.0
1630046800139658205,1630046800,0,30306,2728.0,3960.0,1307.0,0.0,0.0,0.0,0.0
1630046800228476753,1630046800,0,30306,2735.0,3965.0,1332.0,0.0,0.0,0.0,0.0
1630046800317417203,1630046800,0,30306,2736.0,3968.0,1353.0,0.0,0.0,0.0,0.0
1630046800426683472,1630046800,0,30306,2742.0,3975.0,1378.0,0.0,0.0,0.0,0.0
1630046800527173936,1630046800,0,30306,2740.0,3980.0,1405.0,0.0,0.0,0.0,0.0
1630046800638991806,1630046800,0,30306,2742.0,3983.0,1436.0,0.0,0.0,0.0,0.0
1630046800727746310,1630046800,0,30306,2745.0,3974.0,1424.0,0.0,0.0,0.0,0.0
1630046800838220658,1630046800,0,30306,2748.0,3968.0,1418.0,0.0,0.0,0.0,0.0
1630046800928025702,1630046800,0,30306,2748.0,3959.0,1417.0,0.0,0.0,0.0,0.0
1630046801039181489,1630046801,0,30306,2746.0,3956.0,1414.0,0.0,0.0,0.0,0.0
1630046801127450625,1630046801,0,30306,2746.0,3954.0,1409.0,0.0,0.0,0.0,0.0
1630046801228646065,1630046801,0,30306,2751.0,3954.0,1403.0,0.0,0.0,0.0,0.0
1630046801338398582,1630046801,0,30306,2754.0,3949.0,1402.0,0.0,0.0,0.0,0.0
1630046801428628669,1630046801,0,30306,2754.0,3948.0,1402.0,0.0,0.0,0.0,0.0
1630046801516719044,1630046801,0,30306,2752.0,3944.0,1407.0,0.0,0.0,0.0,0.0
1630046801629430969,1630046801,0,30306,2747.0,3941.0,1408.0,0.0,0.0,0.0,0.0
1630046801728498714,1630046801,0,30306,2750.0,3941.0,1369.0,0.0,0.0,0.0,0.0
1630046801836060934,1630046801,0,30306,2757.0,3940.0,1338.0,0.0,0.0,0.0,0.0
1630046801928656353,1630046801,0,30306,2762.0,3938.0,1321.0,0.0,0.0,0.0,0.0
1630046802028487348,1630046802,0,30306,2765.0,3930.0,1297.0,0.0,0.0,0.0,0.0
1630046802126255844,1630046802,0,30306,2769.0,3922.0,1274.0,0.0,0.0,0.0,0.0
1630046802228252174,1630046802,0,30306,2772.0,3916.0,1249.0,0.0,0.0,0.0,0.0
1630046802336118114,1630046802,0,30306,2772.0,3906.0,1227.0,0.0,0.0,0.0,0.0
1630046802425082188,1630046802,0,30306,2769.0,3897.0,1212.0,0.0,0.0,0.0,0.0
1630046802526311399,1630046802,0,30306,2766.0,3890.0,1193.0,0.0,0.0,0.0,0.0
1630046802626539402,1630046802,0,30306,2768.0,3890.0,1168.0,0.0,0.0,0.0,0.0
1630046802726627310,1630046802,0,30306,2764.0,3907.0,1173.0,0.0,0.0,0.0,0.0
1630046802836870245,1630046802,0,30306,2762.0,3913.0,1177.0,0.0,0.0,0.0,0.0
1630046802925909588,1630046802,0,30306,2763.0,3915.0,1177.0,0.0,0.0,0.0,0.0
1630046803036949129,1630046803,0,30306,2769.0,3911.0,1181.0,0.0,0.0,0.0,0.0
1630046803125509063,1630046803,0,30306,2772.0,3905.0,1184.0,0.0,0.0,0.0,0.0
1630046803224847228,1630046803,0,30306,2771.0,3900.0,1195.0,0.0,0.0,0.0,0.0
1630046803334659537,1630046803,0,30306,2771.0,3893.0,1204.0,0.0,0.0,0.0,0.0
1630046803423462847,1630046803,0,30306,2772.0,3886.0,1218.0,0.0,0.0,0.0,0.0
1630046803534745782,1630046803,0,30306,2773.0,3877.0,1225.0,0.0,0.0,0.0,0.0
1630046803634917786,1630046803,0,30306,2773.0,3864.0,1245.0,0.0,0.0,0.0,0.0
1630046803723954587,1630046803,0,30306,2764.0,3893.0,1257.0,0.0,0.0,0.0,0.0
1630046803834924993,1630046803,0,30306,2754.0,3911.0,1260.0,0.0,0.0,0.0,0.0
1630046803924896784,1630046803,0,30306,2748.0,3922.0,1263.0,0.0,0.0,0.0,0.0
1630046804033487704,1630046804,0,30306,2742.0,3930.0,1258.0,0.0,0.0,0.0,0.0
1630046804122504027,1630046804,0,30306,2737.0,3927.0,1252.0,0.0,0.0,0.0,0.0
1630046804234158133,1630046804,0,30306,2733.0,3926.0,1246.0,0.0,0.0,0.0,0.0
1630046804334753754,1630046804,0,30306,2731.0,3926.0,1239.0,0.0,0.0,0.0,0.0
1630046804428383969,1630046804,0,30306,2729.0,3925.0,1232.0,0.0,0.0,0.0,0.0
1630046804534084347,1630046804,0,30306,2733.0,3920.0,1234.0,0.0,0.0,0.0,0.0
1630046804623581444,1630046804,0,30306,2733.0,3914.0,1235.0,0.0,0.0,0.0,0.0
1630046804733784102,1630046804,0,30306,2738.0,3932.0,1250.0,0.0,0.0,0.0,0.0
1630046804834111204,1630046804,0,30306,2742.0,3944.0,1257.0,0.0,0.0,0.0,0.0
1630046804935539132,1630046804,0,30306,2748.0,3955.0,1259.0,0.0,0.0,0.0,0.0
1630046805035716000,1630046805,0,30306,2751.0,3965.0,1266.0,0.0,0.0,0.0,0.0
1630046805135372060,1630046805,0,30306,2753.0,3976.0,1270.0,0.0,0.0,0.0,0.0
1630046805235838319,1630046805,0,30306,2750.0,3979.0,1275.0,0.0,0.0,0.0,0.0
1630046805323979460,1630046805,0,30306,2746.0,3982.0,1282.0,0.0,0.0,0.0,0.0
1630046805435249189,1630046805,0,30306,2749.0,3984.0,1275.0,0.0,0.0,0.0,0.0
1630046805523088505,1630046805,0,30306,2750.0,3986.0,1270.0,0.0,0.0,0.0,0.0
1630046805635020043,1630046805,0,30306,2744.0,3987.0,1256.0,0.0,0.0,0.0,0.0
1630046805722028803,1630046805,0,30306,2744.0,3981.0,1255.0,0.0,0.0,0.0,0.0
1630046805833560467,1630046805,0,30306,2745.0,3976.0,1255.0,0.0,0.0,0.0,0.0
1630046805924269780,1630046805,0,30306,2743.0,3974.0,1256.0,0.0,0.0,0.0,0.0
1630046806034941789,1630046806,0,30306,2740.0,3975.0,1255.0,0.0,0.0,0.0,0.0
1630046806124075842,1630046806,0,30306,2740.0,3980.0,1254.0,0.0,0.0,0.0,0.0
1630046806234868744,1630046806,0,30306,2737.0,3982.0,1251.0,0.0,0.0,0.0,0.0
1630046806334537327,1630046806,0,30306,2732.0,3982.0,1244.0,0.0,0.0,0.0,0.0
1630046806435121536,1630046806,0,30306,2727.0,3986.0,1232.0,0.0,0.0,0.0,0.0
1630046806534240994,1630046806,0,30306,2728.0,3990.0,1226.0,0.0,0.0,0.0,0.0
1630046806622990999,1630046806,0,30306,2725.0,3994.0,1224.0,0.0,0.0,0.0,0.0
1630046806731246357,1630046806,0,30306,2729.0,3984.0,1241.0,0.0,0.0,0.0,0.0
1630046806843619637,1630046806,0,30306,2739.0,3980.0,1255.0,0.0,0.0,0.0,0.0
1630046806933877175,1630046806,0,30306,2749.0,3980.0,1263.0,0.0,0.0,0.0,0.0
1630046807023353368,1630046807,0,30306,2757.0,3984.0,1257.0,0.0,0.0,0.0,0.0
1630046807132941522,1630046807,0,30306,2766.0,3985.0,1262.0,0.0,0.0,0.0,0.0
1630046807223375109,1630046807,0,30306,2770.0,3987.0,1251.0,0.0,0.0,0.0,0.0
1630046807333607850,1630046807,0,30306,2779.0,3989.0,1244.0,0.0,0.0,0.0,0.0
1630046807423313104,1630046807,0,30306,2785.0,3998.0,1223.0,0.0,0.0,0.0,0.0
1630046807533173818,1630046807,0,30306,2791.0,4006.0,1210.0,0.0,0.0,0.0,0.0
1630046807624586942,1630046807,0,30306,2798.0,4011.0,1203.0,0.0,0.0,0.0,0.0
1630046807735260088,1630046807,0,30306,2792.0,3998.0,1221.0,0.0,0.0,0.0,0.0
1630046807824111045,1630046807,0,30306,2787.0,3989.0,1231.0,0.0,0.0,0.0,0.0
1630046807924124511,1630046807,0,30306,2785.0,3979.0,1245.0,0.0,0.0,0.0,0.0
1630046808034254691,1630046808,0,30306,2785.0,3972.0,1253.0,0.0,0.0,0.0,0.0
1630046808124283158,1630046808,0,30306,2797.0,3968.0,1259.0,0.0,0.0,0.0,0.0
1630046808234681490,1630046808,0,30306,2806.0,3965.0,1267.0,0.0,0.0,0.0,0.0
1630046808324160384,1630046808,0,30306,2814.0,3962.0,1284.0,0.0,0.0,0.0,0.0
1630046808433031912,1630046808,0,30306,2824.0,3957.0,1305.0,0.0,0.0,0.0,0.0
1630046808523872379,1630046808,0,30306,2835.0,3959.0,1322.0,0.0,0.0,0.0,0.0
1630046808633812202,1630046808,0,30306,2850.0,3960.0,1341.0,0.0,0.0,0.0,0.0
1630046808733997473,1630046808,0,30306,2824.0,3960.0,1338.0,0.0,0.0,0.0,0.0
1630046808823039352,1630046808,0,30306,2807.0,3962.0,1345.0,0.0,0.0,0.0,0.0
1630046808933461797,1630046808,0,30306,2795.0,3971.0,1353.0,0.0,0.0,0.0,0.0
1630046809021229993,1630046809,0,30306,2791.0,3975.0,1359.0,0.0,0.0,0.0,0.0
1630046809132908709,1630046809,0,30306,2788.0,3980.0,1368.0,0.0,0.0,0.0,0.0
1630046809223337645,1630046809,0,30306,2788.0,3986.0,1372.0,0.0,0.0,0.0,0.0
1630046809332617251,1630046809,0,30306,2798.0,3995.0,1370.0,0.0,0.0,0.0,0.0
1630046809422772910,1630046809,0,30306,2808.0,3999.0,1368.0,0.0,0.0,0.0,0.0
1630046809533486920,1630046809,0,30306,2820.0,4007.0,1371.0,0.0,0.0,0.0,0.0
1630046809620723532,1630046809,0,30306,2828.0,4015.0,1376.0,0.0,0.0,0.0,0.0
1630046809732179898,1630046809,0,30306,2807.0,3997.0,1360.0,0.0,0.0,0.0,0.0
1630046809831169023,1630046809,0,30306,2789.0,3985.0,1339.0,0.0,0.0,0.0,0.0
1630046809931353384,1630046809,0,30306,2775.0,3977.0,1323.0,0.0,0.0,0.0,0.0
1630046810031598429,1630046810,0,30306,2759.0,3969.0,1316.0,0.0,0.0,0.0,0.0
1630046810131556187,1630046810,0,30306,2741.0,3961.0,1315.0,0.0,0.0,0.0,0.0
1630046810230403016,1630046810,0,30306,2730.0,3951.0,1320.0,0.0,0.0,0.0,0.0
1630046810330953507,1630046810,0,30306,2722.0,3944.0,1333.0,0.0,0.0,0.0,0.0
1630046810434707788,1630046810,0,30306,2721.0,3938.0,1347.0,0.0,0.0,0.0,0.0
1630046810541195909,1630046810,0,30306,2721.0,3941.0,1351.0,0.0,0.0,0.0,0.0
1630046810629211540,1630046810,0,30306,2722.0,3939.0,1362.0,0.0,0.0,0.0,0.0
1630046810720209332,1630046810,0,30306,2725.0,3941.0,1347.0,0.0,0.0,0.0,0.0
1630046810829179946,1630046810,0,30306,2729.0,3944.0,1337.0,0.0,0.0,0.0,0.0
1630046810939548732,1630046810,0,30306,2740.0,3950.0,1322.0,0.0,0.0,0.0,0.0
1630046811029785612,1630046811,0,30306,2742.0,3948.0,1312.0,0.0,0.0,0.0,0.0
1630046811137601790,1630046811,0,30306,2748.0,3944.0,1290.0,0.0,0.0,0.0,0.0
1630046811228708533,1630046811,0,30306,2750.0,3943.0,1280.0,0.0,0.0,0.0,0.0
1630046811337992521,1630046811,0,30306,2753.0,3939.0,1266.0,0.0,0.0,0.0,0.0
1630046811429056962,1630046811,0,30306,2756.0,3933.0,1263.0,0.0,0.0,0.0,0.0
1630046811539282884,1630046811,0,30306,2752.0,3930.0,1255.0,0.0,0.0,0.0,0.0
1630046811628032026,1630046811,0,30306,2749.0,3927.0,1250.0,0.0,0.0,0.0,0.0
1630046811726767582,1630046811,0,30306,2750.0,3936.0,1250.0,0.0,0.0,0.0,0.0
1630046811827496464,1630046811,0,30306,2750.0,3940.0,1242.0,0.0,0.0,0.0,0.0
1630046811927457679,1630046811,0,30306,2750.0,3939.0,1242.0,0.0,0.0,0.0,0.0
