%time,field.data0.header.seq,field.data0.header.stamp,field.data0.header.frame_id,field.data0.pose.position.x,field.data0.pose.position.y,field.data0.pose.position.z,field.data0.pose.orientation.x,field.data0.pose.orientation.y,field.data0.pose.orientation.z,field.data0.pose.orientation.w
1630052241721299412,1630052241,0,30306,674.0,402.0,1159.0,0.0,0.0,0.0,0.0
1630052241721690851,1630052241,0,30306,672.0,403.0,1158.0,0.0,0.0,0.0,0.0
1630052241724112208,1630052241,0,30306,672.0,403.0,1159.0,0.0,0.0,0.0,0.0
1630052241726363588,1630052241,0,30306,669.0,402.0,1157.0,0.0,0.0,0.0,0.0
1630052241739007132,1630052241,0,30306,670.0,400.0,1158.0,0.0,0.0,0.0,0.0
1630052241752404493,1630052241,0,30306,671.0,402.0,1156.0,0.0,0.0,0.0,0.0
1630052241755377450,1630052241,0,30306,671.0,401.0,1155.0,0.0,0.0,0.0,0.0
1630052241787211965,1630052241,0,30306,671.0,400.0,1153.0,0.0,0.0,0.0,0.0
1630052241788829764,1630052241,0,30306,670.0,400.0,1150.0,0.0,0.0,0.0,0.0
1630052241799876955,1630052241,0,30306,670.0,399.0,1148.0,0.0,0.0,0.0,0.0
1630052241804300837,1630052241,0,30306,669.0,397.0,1147.0,0.0,0.0,0.0,0.0
1630052241817995320,1630052241,0,30306,672.0,397.0,1145.0,0.0,0.0,0.0,0.0
1630052241832164979,1630052241,0,30306,671.0,393.0,1141.0,0.0,0.0,0.0,0.0
1630052241835322218,1630052241,0,30306,673.0,391.0,1139.0,0.0,0.0,0.0,0.0
1630052241850048011,1630052241,0,30306,676.0,389.0,1135.0,0.0,0.0,0.0,0.0
1630052241881988643,1630052241,0,30306,682.0,388.0,1126.0,0.0,0.0,0.0,0.0
1630052241883218430,1630052241,0,30306,680.0,386.0,1125.0,0.0,0.0,0.0,0.0
1630052241885424865,1630052241,0,30306,683.0,387.0,1122.0,0.0,0.0,0.0,0.0
1630052241897606062,1630052241,0,30306,684.0,384.0,1121.0,0.0,0.0,0.0,0.0
1630052241901846344,1630052241,0,30306,687.0,385.0,1119.0,0.0,0.0,0.0,0.0
1630052241914995133,1630052241,0,30306,686.0,382.0,1120.0,0.0,0.0,0.0,0.0
1630052241928898637,1630052241,0,30306,687.0,376.0,1119.0,0.0,0.0,0.0,0.0
1630052241942220508,1630052241,0,30306,687.0,376.0,1119.0,0.0,0.0,0.0,0.0
1630052241973203029,1630052241,0,30306,692.0,372.0,1116.0,0.0,0.0,0.0,0.0
1630052241973576509,1630052241,0,30306,695.0,371.0,1110.0,0.0,0.0,0.0,0.0
1630052241975535447,1630052241,0,30306,696.0,368.0,1112.0,0.0,0.0,0.0,0.0
1630052241977699111,1630052241,0,30306,700.0,367.0,1107.0,0.0,0.0,0.0,0.0
1630052241989919795,1630052241,0,30306,702.0,365.0,1107.0,0.0,0.0,0.0,0.0
1630052242020730911,1630052241,0,30306,705.0,365.0,1103.0,0.0,0.0,0.0,0.0
1630052242021172916,1630052241,0,30306,706.0,362.0,1105.0,0.0,0.0,0.0,0.0
1630052242022606270,1630052241,0,30306,710.0,360.0,1100.0,0.0,0.0,0.0,0.0
1630052242024767230,1630052241,0,30306,709.0,356.0,1101.0,0.0,0.0,0.0,0.0
1630052242037429121,1630052242,0,30306,713.0,355.0,1100.0,0.0,0.0,0.0,0.0
1630052242050591054,1630052242,0,30306,716.0,351.0,1099.0,0.0,0.0,0.0,0.0
1630052242093257947,1630052242,0,30306,719.0,349.0,1098.0,0.0,0.0,0.0,0.0
1630052242093626138,1630052242,0,30306,722.0,344.0,1095.0,0.0,0.0,0.0,0.0
1630052242095301858,1630052242,0,30306,719.0,345.0,1098.0,0.0,0.0,0.0,0.0
1630052242095719697,1630052242,0,30306,719.0,349.0,1100.0,0.0,0.0,0.0,0.0
1630052242097642985,1630052242,0,30306,718.0,350.0,1102.0,0.0,0.0,0.0,0.0
1630052242101862824,1630052242,0,30306,720.0,351.0,1102.0,0.0,0.0,0.0,0.0
1630052242111854239,0,0,,54321.0,54321.0,54321.0,0.0,0.0,0.0,0.0
1630052242116530800,1630052242,0,30306,719.0,351.0,1102.0,0.0,0.0,0.0,0.0
1630052242128953184,1630052242,0,30306,721.0,354.0,1101.0,0.0,0.0,0.0,0.0
1630052242132965148,1630052242,0,30306,719.0,354.0,1099.0,0.0,0.0,0.0,0.0
1630052242145459590,1630052242,0,30306,719.0,356.0,1099.0,0.0,0.0,0.0,0.0
1630052242176295228,1630052242,0,30306,717.0,363.0,1095.0,0.0,0.0,0.0,0.0
1630052242176965034,1630052242,0,30306,718.0,363.0,1095.0,0.0,0.0,0.0,0.0
1630052242179438773,1630052242,0,30306,715.0,365.0,1099.0,0.0,0.0,0.0,0.0
1630052242181672321,1630052242,0,30306,713.0,366.0,1098.0,0.0,0.0,0.0,0.0
1630052242193003946,1630052242,0,30306,714.0,371.0,1096.0,0.0,0.0,0.0,0.0
1630052242223660482,1630052242,0,30306,718.0,373.0,1090.0,0.0,0.0,0.0,0.0
1630052242225139400,1630052242,0,30306,720.0,376.0,1087.0,0.0,0.0,0.0,0.0
1630052242227780716,1630052242,0,30306,720.0,374.0,1084.0,0.0,0.0,0.0,0.0
1630052242241451261,1630052242,0,30306,721.0,375.0,1081.0,0.0,0.0,0.0,0.0
1630052242254749103,1630052242,0,30306,720.0,373.0,1076.0,0.0,0.0,0.0,0.0
1630052242274154535,1630052242,0,30306,721.0,377.0,1072.0,0.0,0.0,0.0,0.0
1630052242274533335,1630052242,0,30306,723.0,377.0,1068.0,0.0,0.0,0.0,0.0
1630052242276180275,1630052242,0,30306,724.0,379.0,1064.0,0.0,0.0,0.0,0.0
1630052242287605224,1630052242,0,30306,725.0,381.0,1061.0,0.0,0.0,0.0,0.0
1630052242305417921,1630052242,0,30306,725.0,389.0,1056.0,0.0,0.0,0.0,0.0
1630052242307470370,1630052242,0,30306,725.0,390.0,1058.0,0.0,0.0,0.0,0.0
1630052242318768411,1630052242,0,30306,722.0,392.0,1057.0,0.0,0.0,0.0,0.0
1630052242320812873,1630052242,0,30306,719.0,393.0,1059.0,0.0,0.0,0.0,0.0
1630052242335537357,1630052242,0,30306,718.0,396.0,1055.0,0.0,0.0,0.0,0.0
1630052242347885640,1630052242,0,30306,712.0,393.0,1062.0,0.0,0.0,0.0,0.0
1630052242352669575,1630052242,0,30306,712.0,395.0,1061.0,0.0,0.0,0.0,0.0
1630052242365762469,1630052242,0,30306,711.0,393.0,1059.0,0.0,0.0,0.0,0.0
1630052242367944873,1630052242,0,30306,707.0,395.0,1062.0,0.0,0.0,0.0,0.0
1630052242381296623,1630052242,0,30306,705.0,396.0,1064.0,0.0,0.0,0.0,0.0
1630052242395747436,1630052242,0,30306,706.0,396.0,1059.0,0.0,0.0,0.0,0.0
1630052242398964497,1630052242,0,30306,703.0,398.0,1059.0,0.0,0.0,0.0,0.0
1630052242412275255,1630052242,0,30306,702.0,397.0,1055.0,0.0,0.0,0.0,0.0
1630052242427276812,1630052242,0,30306,702.0,398.0,1052.0,0.0,0.0,0.0,0.0
1630052242447232360,1630052242,0,30306,700.0,397.0,1054.0,0.0,0.0,0.0,0.0
1630052242447797808,1630052242,0,30306,699.0,395.0,1050.0,0.0,0.0,0.0,0.0
1630052242449807273,1630052242,0,30306,695.0,397.0,1055.0,0.0,0.0,0.0,0.0
1630052242460573035,1630052242,0,30306,688.0,393.0,1057.0,0.0,0.0,0.0,0.0
1630052242474440419,1630052242,0,30306,687.0,393.0,1054.0,0.0,0.0,0.0,0.0
1630052242508062792,1630052242,0,30306,685.0,390.0,1055.0,0.0,0.0,0.0,0.0
1630052242509222079,1630052242,0,30306,685.0,391.0,1050.0,0.0,0.0,0.0,0.0
1630052242510471515,1630052242,0,30306,684.0,390.0,1052.0,0.0,0.0,0.0,0.0
1630052242511269287,1630052242,0,30306,682.0,392.0,1051.0,0.0,0.0,0.0,0.0
1630052242522474968,1630052242,0,30306,680.0,394.0,1053.0,0.0,0.0,0.0,0.0
1630052242528389450,1630052242,0,30306,676.0,396.0,1060.0,0.0,0.0,0.0,0.0
1630052242539937793,1630052242,0,30306,674.0,398.0,1060.0,0.0,0.0,0.0,0.0
1630052242553558916,1630052242,0,30306,675.0,399.0,1059.0,0.0,0.0,0.0,0.0
1630052242574172073,1630052242,0,30306,667.0,402.0,1072.0,0.0,0.0,0.0,0.0
1630052242575860113,1630052242,0,30306,668.0,403.0,1074.0,0.0,0.0,0.0,0.0
1630052242587854554,1630052242,0,30306,663.0,404.0,1080.0,0.0,0.0,0.0,0.0
1630052242601109272,1630052242,0,30306,662.0,404.0,1083.0,0.0,0.0,0.0,0.0
1630052242604291314,1630052242,0,30306,661.0,400.0,1090.0,0.0,0.0,0.0,0.0
1630052242619024438,1630052242,0,30306,656.0,399.0,1095.0,0.0,0.0,0.0,0.0
1630052242621168716,1630052242,0,30306,655.0,399.0,1094.0,0.0,0.0,0.0,0.0
1630052242625039271,1630052242,0,30306,652.0,398.0,1097.0,0.0,0.0,0.0,0.0
1630052242648254008,1630052242,0,30306,652.0,401.0,1097.0,0.0,0.0,0.0,0.0
1630052242652592375,1630052242,0,30306,653.0,400.0,1095.0,0.0,0.0,0.0,0.0
1630052242655882286,1630052242,0,30306,652.0,402.0,1100.0,0.0,0.0,0.0,0.0
1630052242679171227,1630052242,0,30306,644.0,400.0,1109.0,0.0,0.0,0.0,0.0
1630052242682417212,1630052242,0,30306,644.0,400.0,1108.0,0.0,0.0,0.0,0.0
1630052242685990709,1630052242,0,30306,642.0,398.0,1107.0,0.0,0.0,0.0,0.0
1630052242689339910,1630052242,0,30306,640.0,394.0,1109.0,0.0,0.0,0.0,0.0
1630052242729535749,1630052242,0,30306,633.0,392.0,1120.0,0.0,0.0,0.0,0.0
1630052242733478968,1630052242,0,30306,631.0,393.0,1121.0,0.0,0.0,0.0,0.0
1630052242735849617,1630052242,0,30306,633.0,395.0,1121.0,0.0,0.0,0.0,0.0
1630052242756935405,1630052242,0,30306,633.0,397.0,1118.0,0.0,0.0,0.0,0.0
1630052242760207482,1630052242,0,30306,635.0,398.0,1120.0,0.0,0.0,0.0,0.0
1630052242763488553,1630052242,0,30306,629.0,398.0,1123.0,0.0,0.0,0.0,0.0
1630052242767897826,1630052242,0,30306,622.0,396.0,1132.0,0.0,0.0,0.0,0.0
1630052242781153500,1630052242,0,30306,620.0,394.0,1130.0,0.0,0.0,0.0,0.0
1630052242794695453,1630052242,0,30306,621.0,396.0,1133.0,0.0,0.0,0.0,0.0
1630052242797820216,1630052242,0,30306,614.0,394.0,1137.0,0.0,0.0,0.0,0.0
1630052242828460196,1630052242,0,30306,613.0,392.0,1137.0,0.0,0.0,0.0,0.0
1630052242828863410,1630052242,0,30306,610.0,391.0,1142.0,0.0,0.0,0.0,0.0
1630052242830128948,1630052242,0,30306,610.0,389.0,1141.0,0.0,0.0,0.0,0.0
1630052242842671412,1630052242,0,30306,602.0,386.0,1151.0,0.0,0.0,0.0,0.0
1630052242844754619,1630052242,0,30306,599.0,385.0,1151.0,0.0,0.0,0.0,0.0
1630052242858262863,1630052242,0,30306,598.0,392.0,1145.0,0.0,0.0,0.0,0.0
1630052242872534303,1630052242,0,30306,590.0,390.0,1155.0,0.0,0.0,0.0,0.0
1630052242875656060,1630052242,0,30306,582.0,387.0,1164.0,0.0,0.0,0.0,0.0
1630052242888980072,1630052242,0,30306,580.0,385.0,1163.0,0.0,0.0,0.0,0.0
1630052242893455810,1630052242,0,30306,575.0,382.0,1162.0,0.0,0.0,0.0,0.0
1630052242905634960,1630052242,0,30306,566.0,379.0,1171.0,0.0,0.0,0.0,0.0
1630052242920336792,1630052242,0,30306,556.0,375.0,1180.0,0.0,0.0,0.0,0.0
1630052242923453262,1630052242,0,30306,552.0,376.0,1180.0,0.0,0.0,0.0,0.0
1630052242943080625,1630052242,0,30306,550.0,375.0,1187.0,0.0,0.0,0.0,0.0
1630052242944785273,1630052242,0,30306,541.0,371.0,1197.0,0.0,0.0,0.0,0.0
1630052242954084278,1630052242,0,30306,541.0,369.0,1205.0,0.0,0.0,0.0,0.0
1630052242968485501,1630052242,0,30306,532.0,365.0,1215.0,0.0,0.0,0.0,0.0
1630052242988641251,1630052242,0,30306,524.0,362.0,1226.0,0.0,0.0,0.0,0.0
1630052242989126837,1630052242,0,30306,523.0,360.0,1229.0,0.0,0.0,0.0,0.0
1630052242991616097,1630052242,0,30306,523.0,357.0,1230.0,0.0,0.0,0.0,0.0
1630052243001786941,1630052242,0,30306,513.0,353.0,1241.0,0.0,0.0,0.0,0.0
1630052243015222458,1630052242,0,30306,506.0,349.0,1251.0,0.0,0.0,0.0,0.0
1630052243017424782,1630052242,0,30306,507.0,352.0,1250.0,0.0,0.0,0.0,0.0
1630052243052496414,1630052243,0,30306,489.0,345.0,1271.0,0.0,0.0,0.0,0.0
1630052243055635511,1630052243,0,30306,490.0,343.0,1272.0,0.0,0.0,0.0,0.0
1630052243069059060,1630052243,0,30306,494.0,343.0,1274.0,0.0,0.0,0.0,0.0
1630052243072227678,1630052243,0,30306,492.0,341.0,1277.0,0.0,0.0,0.0,0.0
1630052243103960924,1630052243,0,30306,483.0,338.0,1289.0,0.0,0.0,0.0,0.0
1630052243104304299,1630052243,0,30306,484.0,337.0,1291.0,0.0,0.0,0.0,0.0
1630052243106246645,1630052243,0,30306,484.0,335.0,1298.0,0.0,0.0,0.0,0.0
1630052243108482218,1630052243,0,30306,490.0,335.0,1295.0,0.0,0.0,0.0,0.0
1630052243130962722,1630052243,0,30306,493.0,332.0,1294.0,0.0,0.0,0.0,0.0
1630052243166671045,1630052243,0,30306,493.0,331.0,1296.0,0.0,0.0,0.0,0.0
1630052243167076946,1630052243,0,30306,490.0,327.0,1300.0,0.0,0.0,0.0,0.0
1630052243167465738,1630052243,0,30306,495.0,327.0,1298.0,0.0,0.0,0.0,0.0
1630052243167869904,1630052243,0,30306,497.0,325.0,1303.0,0.0,0.0,0.0,0.0
1630052243169668595,1630052243,0,30306,489.0,321.0,1315.0,0.0,0.0,0.0,0.0
1630052243187359419,1630052243,0,30306,482.0,316.0,1327.0,0.0,0.0,0.0,0.0
1630052243190359519,1630052243,0,30306,487.0,314.0,1330.0,0.0,0.0,0.0,0.0
1630052243222177179,1630052243,0,30306,492.0,317.0,1332.0,0.0,0.0,0.0,0.0
1630052243223742405,1630052243,0,30306,488.0,315.0,1336.0,0.0,0.0,0.0,0.0
1630052243234890115,1630052243,0,30306,487.0,313.0,1344.0,0.0,0.0,0.0,0.0
1630052243238092285,1630052243,0,30306,479.0,309.0,1356.0,0.0,0.0,0.0,0.0
1630052243252865004,1630052243,0,30306,482.0,307.0,1354.0,0.0,0.0,0.0,0.0
1630052243266195293,1630052243,0,30306,486.0,308.0,1357.0,0.0,0.0,0.0,0.0
1630052243268998836,1630052243,0,30306,477.0,302.0,1368.0,0.0,0.0,0.0,0.0
1630052243282489244,1630052243,0,30306,474.0,298.0,1375.0,0.0,0.0,0.0,0.0
1630052243285922632,1630052243,0,30306,474.0,297.0,1376.0,0.0,0.0,0.0,0.0
1630052243300139206,1630052243,0,30306,476.0,298.0,1376.0,0.0,0.0,0.0,0.0
1630052243313565867,1630052243,0,30306,473.0,296.0,1382.0,0.0,0.0,0.0,0.0
1630052243316684521,1630052243,0,30306,471.0,290.0,1386.0,0.0,0.0,0.0,0.0
1630052243348176399,1630052243,0,30306,472.0,294.0,1383.0,0.0,0.0,0.0,0.0
1630052243348515890,1630052243,0,30306,476.0,296.0,1375.0,0.0,0.0,0.0,0.0
1630052243350177697,1630052243,0,30306,475.0,299.0,1376.0,0.0,0.0,0.0,0.0
1630052243367409646,1630052243,0,30306,476.0,300.0,1375.0,0.0,0.0,0.0,0.0
1630052243369104538,1630052243,0,30306,478.0,303.0,1371.0,0.0,0.0,0.0,0.0
1630052243374733547,0,0,,54321.0,54321.0,54321.0,0.0,0.0,0.0,0.0
1630052243379215484,1630052243,0,30306,477.0,303.0,1372.0,0.0,0.0,0.0,0.0
1630052243392905653,1630052243,0,30306,481.0,306.0,1366.0,0.0,0.0,0.0,0.0
1630052243395069183,1630052243,0,30306,483.0,310.0,1364.0,0.0,0.0,0.0,0.0
1630052243409430742,1630052243,0,30306,484.0,312.0,1361.0,0.0,0.0,0.0,0.0
1630052243412964398,1630052243,0,30306,486.0,313.0,1363.0,0.0,0.0,0.0,0.0
1630052243426320816,1630052243,0,30306,486.0,317.0,1358.0,0.0,0.0,0.0,0.0
1630052243440858454,1630052243,0,30306,486.0,317.0,1359.0,0.0,0.0,0.0,0.0
1630052243442872866,1630052243,0,30306,484.0,318.0,1355.0,0.0,0.0,0.0,0.0
1630052243474214586,1630052243,0,30306,485.0,318.0,1352.0,0.0,0.0,0.0,0.0
1630052243474628528,1630052243,0,30306,486.0,320.0,1353.0,0.0,0.0,0.0,0.0
1630052243476139585,1630052243,0,30306,485.0,322.0,1352.0,0.0,0.0,0.0,0.0
1630052243488791309,1630052243,0,30306,487.0,324.0,1351.0,0.0,0.0,0.0,0.0
1630052243491747984,1630052243,0,30306,487.0,324.0,1352.0,0.0,0.0,0.0,0.0
1630052243506469779,1630052243,0,30306,485.0,321.0,1355.0,0.0,0.0,0.0,0.0
1630052243519936723,1630052243,0,30306,484.0,321.0,1358.0,0.0,0.0,0.0,0.0
1630052243530022104,1630052243,0,30306,482.0,320.0,1356.0,0.0,0.0,0.0,0.0
1630052243530430981,1630052243,0,30306,485.0,322.0,1354.0,0.0,0.0,0.0,0.0
1630052243532971475,1630052243,0,30306,486.0,321.0,1351.0,0.0,0.0,0.0,0.0
1630052243543082212,1630052243,0,30306,486.0,321.0,1353.0,0.0,0.0,0.0,0.0
1630052243557692850,1630052243,0,30306,485.0,319.0,1352.0,0.0,0.0,0.0,0.0
1630052243582373428,1630052243,0,30306,487.0,318.0,1354.0,0.0,0.0,0.0,0.0
1630052243596289819,1630052243,0,30306,482.0,314.0,1358.0,0.0,0.0,0.0,0.0
1630052243616329141,1630052243,0,30306,487.0,319.0,1353.0,0.0,0.0,0.0,0.0
1630052243616776065,1630052243,0,30306,487.0,317.0,1353.0,0.0,0.0,0.0,0.0
1630052243618171631,1630052243,0,30306,486.0,320.0,1355.0,0.0,0.0,0.0,0.0
1630052243620690272,1630052243,0,30306,483.0,315.0,1360.0,0.0,0.0,0.0,0.0
1630052243643893770,1630052243,0,30306,479.0,311.0,1366.0,0.0,0.0,0.0,0.0
1630052243645945128,1630052243,0,30306,472.0,308.0,1378.0,0.0,0.0,0.0,0.0
1630052243668318897,1630052243,0,30306,469.0,304.0,1382.0,0.0,0.0,0.0,0.0
1630052243668734578,1630052243,0,30306,471.0,306.0,1379.0,0.0,0.0,0.0,0.0
1630052243671298910,1630052243,0,30306,462.0,302.0,1388.0,0.0,0.0,0.0,0.0
1630052243691812693,1630052243,0,30306,463.0,298.0,1390.0,0.0,0.0,0.0,0.0
1630052243694617494,1630052243,0,30306,456.0,295.0,1397.0,0.0,0.0,0.0,0.0
1630052243724981717,1630052243,0,30306,448.0,292.0,1407.0,0.0,0.0,0.0,0.0
1630052243725370937,1630052243,0,30306,441.0,290.0,1415.0,0.0,0.0,0.0,0.0
1630052243726956396,1630052243,0,30306,447.0,293.0,1408.0,0.0,0.0,0.0,0.0
1630052243729150649,1630052243,0,30306,437.0,293.0,1416.0,0.0,0.0,0.0,0.0
1630052243731397228,1630052243,0,30306,438.0,293.0,1418.0,0.0,0.0,0.0,0.0
1630052243745029859,1630052243,0,30306,436.0,290.0,1424.0,0.0,0.0,0.0,0.0
1630052243769440547,1630052243,0,30306,426.0,285.0,1433.0,0.0,0.0,0.0,0.0
1630052243772476120,1630052243,0,30306,431.0,287.0,1428.0,0.0,0.0,0.0,0.0
1630052243800893812,1630052243,0,30306,431.0,287.0,1432.0,0.0,0.0,0.0,0.0
1630052243801521149,1630052243,0,30306,428.0,286.0,1434.0,0.0,0.0,0.0,0.0
1630052243803706729,1630052243,0,30306,434.0,291.0,1430.0,0.0,0.0,0.0,0.0
1630052243806038494,1630052243,0,30306,438.0,293.0,1424.0,0.0,0.0,0.0,0.0
1630052243809342601,1630052243,0,30306,439.0,295.0,1428.0,0.0,0.0,0.0,0.0
1630052243824162710,1630052243,0,30306,434.0,293.0,1430.0,0.0,0.0,0.0,0.0
1630052243826165788,1630052243,0,30306,437.0,298.0,1422.0,0.0,0.0,0.0,0.0
1630052243857566658,1630052243,0,30306,442.0,301.0,1419.0,0.0,0.0,0.0,0.0
1630052243858249138,1630052243,0,30306,444.0,304.0,1415.0,0.0,0.0,0.0,0.0
1630052243859887521,1630052243,0,30306,450.0,308.0,1412.0,0.0,0.0,0.0,0.0
1630052243871870148,1630052243,0,30306,450.0,312.0,1410.0,0.0,0.0,0.0,0.0
1630052243873747066,1630052243,0,30306,454.0,316.0,1408.0,0.0,0.0,0.0,0.0
1630052243888795840,1630052243,0,30306,452.0,318.0,1409.0,0.0,0.0,0.0,0.0
1630052243901120483,1630052243,0,30306,454.0,320.0,1406.0,0.0,0.0,0.0,0.0
1630052243932056943,1630052243,0,30306,458.0,323.0,1403.0,0.0,0.0,0.0,0.0
1630052243932673647,1630052243,0,30306,458.0,328.0,1401.0,0.0,0.0,0.0,0.0
1630052243934055651,1630052243,0,30306,462.0,333.0,1397.0,0.0,0.0,0.0,0.0
1630052243936277617,1630052243,0,30306,459.0,336.0,1398.0,0.0,0.0,0.0,0.0
1630052243949793228,1630052243,0,30306,461.0,341.0,1396.0,0.0,0.0,0.0,0.0
1630052243952247444,1630052243,0,30306,464.0,345.0,1390.0,0.0,0.0,0.0,0.0
1630052243966357105,1630052243,0,30306,471.0,348.0,1384.0,0.0,0.0,0.0,0.0
1630052243980805506,1630052243,0,30306,473.0,351.0,1382.0,0.0,0.0,0.0,0.0
1630052243984008319,1630052243,0,30306,473.0,353.0,1379.0,0.0,0.0,0.0,0.0
1630052243998797218,1630052243,0,30306,480.0,357.0,1376.0,0.0,0.0,0.0,0.0
1630052244014928066,1630052243,0,30306,486.0,362.0,1367.0,0.0,0.0,0.0,0.0
1630052244031823679,1630052243,0,30306,494.0,367.0,1363.0,0.0,0.0,0.0,0.0
1630052244032443827,1630052243,0,30306,502.0,371.0,1355.0,0.0,0.0,0.0,0.0
1630052244034832586,1630052244,0,30306,508.0,376.0,1348.0,0.0,0.0,0.0,0.0
1630052244046492737,1630052244,0,30306,514.0,383.0,1339.0,0.0,0.0,0.0,0.0
1630052244059843627,1630052244,0,30306,521.0,388.0,1331.0,0.0,0.0,0.0,0.0
1630052244080441512,1630052244,0,30306,530.0,397.0,1321.0,0.0,0.0,0.0,0.0
1630052244081857385,1630052244,0,30306,533.0,401.0,1316.0,0.0,0.0,0.0,0.0
1630052244094668318,1630052244,0,30306,536.0,406.0,1310.0,0.0,0.0,0.0,0.0
1630052244107655026,1630052244,0,30306,542.0,413.0,1305.0,0.0,0.0,0.0,0.0
1630052244138700449,1630052244,0,30306,543.0,412.0,1302.0,0.0,0.0,0.0,0.0
1630052244139325139,1630052244,0,30306,546.0,416.0,1299.0,0.0,0.0,0.0,0.0
1630052244141007179,1630052244,0,30306,548.0,416.0,1295.0,0.0,0.0,0.0,0.0
1630052244141739733,1630052244,0,30306,550.0,419.0,1292.0,0.0,0.0,0.0,0.0
1630052244155649490,1630052244,0,30306,553.0,420.0,1285.0,0.0,0.0,0.0,0.0
1630052244158679937,1630052244,0,30306,551.0,419.0,1283.0,0.0,0.0,0.0,0.0
1630052244190251387,1630052244,0,30306,556.0,422.0,1280.0,0.0,0.0,0.0,0.0
1630052244191053253,1630052244,0,30306,557.0,421.0,1277.0,0.0,0.0,0.0,0.0
1630052244192421647,1630052244,0,30306,556.0,422.0,1282.0,0.0,0.0,0.0,0.0
1630052244202348570,1630052244,0,30306,556.0,425.0,1277.0,0.0,0.0,0.0,0.0
1630052244206656356,1630052244,0,30306,561.0,427.0,1272.0,0.0,0.0,0.0,0.0
1630052244220306861,1630052244,0,30306,556.0,428.0,1278.0,0.0,0.0,0.0,0.0
1630052244250597742,1630052244,0,30306,562.0,431.0,1269.0,0.0,0.0,0.0,0.0
1630052244251217655,1630052244,0,30306,570.0,433.0,1263.0,0.0,0.0,0.0,0.0
1630052244252465084,1630052244,0,30306,572.0,437.0,1259.0,0.0,0.0,0.0,0.0
1630052244254795716,1630052244,0,30306,574.0,438.0,1255.0,0.0,0.0,0.0,0.0
1630052244267766733,1630052244,0,30306,578.0,440.0,1250.0,0.0,0.0,0.0,0.0
1630052244281796463,1630052244,0,30306,579.0,442.0,1247.0,0.0,0.0,0.0,0.0
1630052244311980185,1630052244,0,30306,584.0,445.0,1242.0,0.0,0.0,0.0,0.0
1630052244312584440,1630052244,0,30306,592.0,449.0,1235.0,0.0,0.0,0.0,0.0
1630052244314835752,1630052244,0,30306,593.0,450.0,1231.0,0.0,0.0,0.0,0.0
1630052244316528411,1630052244,0,30306,594.0,452.0,1228.0,0.0,0.0,0.0,0.0
1630052244329011888,1630052244,0,30306,600.0,454.0,1219.0,0.0,0.0,0.0,0.0
1630052244332333051,1630052244,0,30306,603.0,455.0,1212.0,0.0,0.0,0.0,0.0
1630052244335866815,1630052244,0,30306,605.0,458.0,1207.0,0.0,0.0,0.0,0.0
1630052244359572080,1630052244,0,30306,607.0,460.0,1201.0,0.0,0.0,0.0,0.0
1630052244361628696,1630052244,0,30306,609.0,462.0,1196.0,0.0,0.0,0.0,0.0
1630052244366337724,1630052244,0,30306,607.0,460.0,1193.0,0.0,0.0,0.0,0.0
1630052244369378869,1630052244,0,30306,608.0,460.0,1190.0,0.0,0.0,0.0,0.0
1630052244383001168,1630052244,0,30306,610.0,461.0,1186.0,0.0,0.0,0.0,0.0
1630052244407749045,1630052244,0,30306,612.0,462.0,1183.0,0.0,0.0,0.0,0.0
1630052244409466737,1630052244,0,30306,610.0,462.0,1184.0,0.0,0.0,0.0,0.0
1630052244440789539,1630052244,0,30306,610.0,463.0,1183.0,0.0,0.0,0.0,0.0
1630052244441395183,1630052244,0,30306,614.0,464.0,1178.0,0.0,0.0,0.0,0.0
1630052244442872625,1630052244,0,30306,613.0,463.0,1176.0,0.0,0.0,0.0,0.0
1630052244445192002,1630052244,0,30306,611.0,465.0,1175.0,0.0,0.0,0.0,0.0
1630052244447517932,1630052244,0,30306,614.0,465.0,1168.0,0.0,0.0,0.0,0.0
1630052244460797362,1630052244,0,30306,614.0,465.0,1165.0,0.0,0.0,0.0,0.0
1630052244475338138,1630052244,0,30306,616.0,463.0,1159.0,0.0,0.0,0.0,0.0
1630052244477504187,1630052244,0,30306,620.0,464.0,1149.0,0.0,0.0,0.0,0.0
1630052244492314963,1630052244,0,30306,620.0,463.0,1145.0,0.0,0.0,0.0,0.0
1630052244495594763,1630052244,0,30306,623.0,462.0,1139.0,0.0,0.0,0.0,0.0
1630052244509474496,1630052244,0,30306,625.0,461.0,1136.0,0.0,0.0,0.0,0.0
1630052244523745098,1630052244,0,30306,623.0,457.0,1136.0,0.0,0.0,0.0,0.0
1630052244526880266,1630052244,0,30306,627.0,459.0,1128.0,0.0,0.0,0.0,0.0
1630052244540278122,1630052244,0,30306,629.0,458.0,1124.0,0.0,0.0,0.0,0.0
1630052244554695100,1630052244,0,30306,631.0,460.0,1121.0,0.0,0.0,0.0,0.0
1630052244557791776,1630052244,0,30306,636.0,460.0,1114.0,0.0,0.0,0.0,0.0
1630052244571403805,1630052244,0,30306,638.0,463.0,1106.0,0.0,0.0,0.0,0.0
1630052244573442448,1630052244,0,30306,642.0,464.0,1104.0,0.0,0.0,0.0,0.0
1630052244604832334,1630052244,0,30306,649.0,470.0,1095.0,0.0,0.0,0.0,0.0
1630052244605353174,1630052244,0,30306,650.0,470.0,1092.0,0.0,0.0,0.0,0.0
1630052244608341671,1630052244,0,30306,655.0,473.0,1089.0,0.0,0.0,0.0,0.0
1630052244618367939,1630052244,0,30306,656.0,471.0,1089.0,0.0,0.0,0.0,0.0
1630052244621652739,1630052244,0,30306,665.0,472.0,1082.0,0.0,0.0,0.0,0.0
1630052244635505746,1630052244,0,30306,670.0,470.0,1075.0,0.0,0.0,0.0,0.0
1630052244653405959,1630052244,0,30306,671.0,468.0,1073.0,0.0,0.0,0.0,0.0
1630052244681565412,1630052244,0,30306,676.0,462.0,1076.0,0.0,0.0,0.0,0.0
1630052244682799424,1630052244,0,30306,679.0,459.0,1074.0,0.0,0.0,0.0,0.0
1630052244683423337,1630052244,0,30306,683.0,459.0,1074.0,0.0,0.0,0.0,0.0
1630052244697374340,1630052244,0,30306,683.0,454.0,1074.0,0.0,0.0,0.0,0.0
1630052244699347312,1630052244,0,30306,676.0,454.0,1076.0,0.0,0.0,0.0,0.0
1630052244714148323,1630052244,0,30306,677.0,448.0,1073.0,0.0,0.0,0.0,0.0
1630052244728071233,1630052244,0,30306,675.0,442.0,1068.0,0.0,0.0,0.0,0.0
1630052244730197333,1630052244,0,30306,674.0,438.0,1068.0,0.0,0.0,0.0,0.0
1630052244762820696,1630052244,0,30306,673.0,430.0,1064.0,0.0,0.0,0.0,0.0
1630052244763892356,1630052244,0,30306,673.0,427.0,1066.0,0.0,0.0,0.0,0.0
1630052244776072843,1630052244,0,30306,672.0,420.0,1068.0,0.0,0.0,0.0,0.0
1630052244778771233,1630052244,0,30306,672.0,416.0,1065.0,0.0,0.0,0.0,0.0
1630052244792313397,1630052244,0,30306,668.0,411.0,1069.0,0.0,0.0,0.0,0.0
1630052244796537862,1630052244,0,30306,666.0,405.0,1064.0,0.0,0.0,0.0,0.0
1630052244809877193,1630052244,0,30306,666.0,399.0,1061.0,0.0,0.0,0.0,0.0
1630052244850905725,1630052244,0,30306,666.0,392.0,1058.0,0.0,0.0,0.0,0.0
1630052244851614750,1630052244,0,30306,662.0,387.0,1056.0,0.0,0.0,0.0,0.0
1630052244852813687,1630052244,0,30306,660.0,380.0,1050.0,0.0,0.0,0.0,0.0
1630052244855122740,1630052244,0,30306,654.0,375.0,1051.0,0.0,0.0,0.0,0.0
1630052244875715150,1630052244,0,30306,648.0,368.0,1056.0,0.0,0.0,0.0,0.0
1630052244910489084,1630052244,0,30306,644.0,362.0,1062.0,0.0,0.0,0.0,0.0
1630052244910886516,1630052244,0,30306,643.0,356.0,1060.0,0.0,0.0,0.0,0.0
1630052244913460043,1630052244,0,30306,639.0,355.0,1060.0,0.0,0.0,0.0,0.0
1630052244914117317,1630052244,0,30306,637.0,351.0,1063.0,0.0,0.0,0.0,0.0
1630052244917783396,1630052244,0,30306,636.0,346.0,1065.0,0.0,0.0,0.0,0.0
1630052244921190709,1630052244,0,30306,632.0,340.0,1074.0,0.0,0.0,0.0,0.0
1630052244935500220,1630052244,0,30306,629.0,338.0,1073.0,0.0,0.0,0.0,0.0
1630052244948961392,1630052244,0,30306,628.0,335.0,1077.0,0.0,0.0,0.0,0.0
1630052244952043574,1630052244,0,30306,626.0,330.0,1077.0,0.0,0.0,0.0,0.0
1630052244983597085,1630052244,0,30306,620.0,326.0,1084.0,0.0,0.0,0.0,0.0
1630052244984424880,1630052244,0,30306,614.0,321.0,1093.0,0.0,0.0,0.0,0.0
1630052244986464453,1630052244,0,30306,610.0,317.0,1097.0,0.0,0.0,0.0,0.0
1630052244997939710,1630052244,0,30306,607.0,315.0,1105.0,0.0,0.0,0.0,0.0
1630052245001128336,1630052244,0,30306,600.0,310.0,1112.0,0.0,0.0,0.0,0.0
1630052245002978507,0,0,,54321.0,54321.0,54321.0,0.0,0.0,0.0,0.0
1630052245005746400,1630052244,0,30306,597.0,307.0,1117.0,0.0,0.0,0.0,0.0
1630052245029650996,1630052244,0,30306,594.0,302.0,1122.0,0.0,0.0,0.0,0.0
1630052245033569937,1630052244,0,30306,589.0,298.0,1131.0,0.0,0.0,0.0,0.0
1630052245046000907,1630052245,0,30306,589.0,294.0,1132.0,0.0,0.0,0.0,0.0
1630052245077254993,1630052245,0,30306,590.0,293.0,1129.0,0.0,0.0,0.0,0.0
1630052245077934633,1630052245,0,30306,589.0,291.0,1133.0,0.0,0.0,0.0,0.0
1630052245079854558,1630052245,0,30306,581.0,284.0,1138.0,0.0,0.0,0.0,0.0
1630052245079867619,0,0,,54321.0,54321.0,54321.0,0.0,0.0,0.0,0.0
1630052245091926758,1630052245,0,30306,578.0,277.0,1136.0,0.0,0.0,0.0,0.0
1630052245095307735,1630052245,0,30306,577.0,275.0,1138.0,0.0,0.0,0.0,0.0
1630052245108265697,1630052245,0,30306,578.0,270.0,1135.0,0.0,0.0,0.0,0.0
1630052245127551969,1630052245,0,30306,581.0,270.0,1134.0,0.0,0.0,0.0,0.0
1630052245129180221,1630052245,0,30306,585.0,267.0,1133.0,0.0,0.0,0.0,0.0
1630052245139104428,1630052245,0,30306,589.0,266.0,1129.0,0.0,0.0,0.0,0.0
1630052245141175303,1630052245,0,30306,593.0,263.0,1128.0,0.0,0.0,0.0,0.0
1630052245156237190,1630052245,0,30306,598.0,264.0,1125.0,0.0,0.0,0.0,0.0
1630052245170792504,1630052245,0,30306,597.0,259.0,1129.0,0.0,0.0,0.0,0.0
1630052245172620938,1630052245,0,30306,600.0,258.0,1124.0,0.0,0.0,0.0,0.0
1630052245204441980,1630052245,0,30306,609.0,257.0,1118.0,0.0,0.0,0.0,0.0
1630052245205735233,1630052245,0,30306,607.0,255.0,1121.0,0.0,0.0,0.0,0.0
1630052245218101429,1630052245,0,30306,609.0,255.0,1122.0,0.0,0.0,0.0,0.0
1630052245231718478,1630052245,0,30306,614.0,251.0,1117.0,0.0,0.0,0.0,0.0
1630052245245879543,1630052245,0,30306,617.0,248.0,1117.0,0.0,0.0,0.0,0.0
1630052245247872602,1630052245,0,30306,619.0,250.0,1112.0,0.0,0.0,0.0,0.0
1630052245262696081,1630052245,0,30306,617.0,246.0,1115.0,0.0,0.0,0.0,0.0
1630052245265775662,1630052245,0,30306,621.0,247.0,1114.0,0.0,0.0,0.0,0.0
1630052245295628481,1630052245,0,30306,619.0,242.0,1119.0,0.0,0.0,0.0,0.0
1630052245296299834,1630052245,0,30306,618.0,245.0,1116.0,0.0,0.0,0.0,0.0
1630052245297672939,1630052245,0,30306,620.0,248.0,1117.0,0.0,0.0,0.0,0.0
1630052245309780815,1630052245,0,30306,624.0,249.0,1115.0,0.0,0.0,0.0,0.0
1630052245323271330,1630052245,0,30306,623.0,249.0,1116.0,0.0,0.0,0.0,0.0
1630052245343041671,1630052245,0,30306,621.0,248.0,1117.0,0.0,0.0,0.0,0.0
1630052245343767956,1630052245,0,30306,623.0,251.0,1118.0,0.0,0.0,0.0,0.0
1630052245344873544,1630052245,0,30306,625.0,254.0,1116.0,0.0,0.0,0.0,0.0
1630052245357414362,1630052245,0,30306,628.0,256.0,1115.0,0.0,0.0,0.0,0.0
1630052245370658253,1630052245,0,30306,628.0,269.0,1110.0,0.0,0.0,0.0,0.0
1630052245385173718,1630052245,0,30306,631.0,267.0,1111.0,0.0,0.0,0.0,0.0
1630052245387308754,1630052245,0,30306,628.0,273.0,1111.0,0.0,0.0,0.0,0.0
1630052245401525782,1630052245,0,30306,627.0,280.0,1110.0,0.0,0.0,0.0,0.0
1630052245411382232,0,0,,54321.0,54321.0,54321.0,0.0,0.0,0.0,0.0
1630052245416144572,1630052245,0,30306,634.0,279.0,1109.0,0.0,0.0,0.0,0.0
1630052245419542633,1630052245,0,30306,632.0,285.0,1108.0,0.0,0.0,0.0,0.0
1630052245432788212,1630052245,0,30306,629.0,292.0,1109.0,0.0,0.0,0.0,0.0
1630052245436208545,1630052245,0,30306,628.0,299.0,1105.0,0.0,0.0,0.0,0.0
1630052245467335301,1630052245,0,30306,624.0,314.0,1100.0,0.0,0.0,0.0,0.0
1630052245469595095,1630052245,0,30306,624.0,323.0,1096.0,0.0,0.0,0.0,0.0
1630052245479720796,1630052245,0,30306,624.0,332.0,1093.0,0.0,0.0,0.0,0.0
1630052245493475083,1630052245,0,30306,624.0,341.0,1090.0,0.0,0.0,0.0,0.0
1630052245514398097,1630052245,0,30306,622.0,349.0,1091.0,0.0,0.0,0.0,0.0
1630052245514971537,1630052245,0,30306,620.0,358.0,1092.0,0.0,0.0,0.0,0.0
1630052245516339405,1630052245,0,30306,619.0,367.0,1089.0,0.0,0.0,0.0,0.0
1630052245531239806,1630052245,0,30306,618.0,375.0,1086.0,0.0,0.0,0.0,0.0
1630052245542085305,1630052245,0,30306,615.0,385.0,1086.0,0.0,0.0,0.0,0.0
1630052245545080217,1630052245,0,30306,616.0,394.0,1081.0,0.0,0.0,0.0,0.0
1630052245558768605,1630052245,0,30306,617.0,404.0,1074.0,0.0,0.0,0.0,0.0
1630052245562366299,1630052245,0,30306,614.0,412.0,1071.0,0.0,0.0,0.0,0.0
1630052245575525315,1630052245,0,30306,617.0,422.0,1063.0,0.0,0.0,0.0,0.0
1630052245597416554,1630052245,0,30306,617.0,437.0,1058.0,0.0,0.0,0.0,0.0
1630052245598603390,1630052245,0,30306,617.0,445.0,1054.0,0.0,0.0,0.0,0.0
1630052245620822336,1630052245,0,30306,616.0,453.0,1052.0,0.0,0.0,0.0,0.0
1630052245624014123,1630052245,0,30306,616.0,463.0,1049.0,0.0,0.0,0.0,0.0
1630052245627947119,1630052245,0,30306,615.0,470.0,1044.0,0.0,0.0,0.0,0.0
1630052245632248760,1630052245,0,30306,614.0,476.0,1041.0,0.0,0.0,0.0,0.0
1630052245671838757,1630052245,0,30306,620.0,484.0,1034.0,0.0,0.0,0.0,0.0
1630052245672367721,1630052245,0,30306,619.0,493.0,1029.0,0.0,0.0,0.0,0.0
1630052245674526001,1630052245,0,30306,618.0,500.0,1027.0,0.0,0.0,0.0,0.0
1630052245676790792,1630052245,0,30306,618.0,502.0,1022.0,0.0,0.0,0.0,0.0
1630052245699114140,1630052245,0,30306,620.0,509.0,1018.0,0.0,0.0,0.0,0.0
1630052245702244485,1630052245,0,30306,626.0,519.0,1009.0,0.0,0.0,0.0,0.0
1630052245705839226,1630052245,0,30306,629.0,523.0,1001.0,0.0,0.0,0.0,0.0
1630052245708889292,1630052245,0,30306,629.0,530.0,996.0,0.0,0.0,0.0,0.0
1630052245723486783,1630052245,0,30306,632.0,535.0,988.0,0.0,0.0,0.0,0.0
1630052245744446457,1630052245,0,30306,628.0,537.0,990.0,0.0,0.0,0.0,0.0
1630052245746383159,1630052245,0,30306,625.0,539.0,992.0,0.0,0.0,0.0,0.0
1630052245753055320,1630052245,0,30306,622.0,543.0,991.0,0.0,0.0,0.0,0.0
1630052245756146682,1630052245,0,30306,617.0,542.0,991.0,0.0,0.0,0.0,0.0
1630052245770768081,1630052245,0,30306,614.0,545.0,990.0,0.0,0.0,0.0,0.0
1630052245783582145,1630052245,0,30306,617.0,545.0,987.0,0.0,0.0,0.0,0.0
1630052245815550514,1630052245,0,30306,612.0,546.0,983.0,0.0,0.0,0.0,0.0
1630052245817198251,1630052245,0,30306,613.0,548.0,985.0,0.0,0.0,0.0,0.0
1630052245819213484,1630052245,0,30306,617.0,547.0,981.0,0.0,0.0,0.0,0.0
1630052245831595941,1630052245,0,30306,617.0,548.0,980.0,0.0,0.0,0.0,0.0
1630052245834761679,1630052245,0,30306,623.0,548.0,975.0,0.0,0.0,0.0,0.0
1630052245849489788,1630052245,0,30306,623.0,548.0,971.0,0.0,0.0,0.0,0.0
1630052245862806060,1630052245,0,30306,623.0,548.0,969.0,0.0,0.0,0.0,0.0
1630052245882756900,1630052245,0,30306,622.0,549.0,969.0,0.0,0.0,0.0,0.0
1630052245883335369,1630052245,0,30306,621.0,550.0,968.0,0.0,0.0,0.0,0.0
1630052245884469632,1630052245,0,30306,623.0,552.0,966.0,0.0,0.0,0.0,0.0
1630052245896156891,1630052245,0,30306,622.0,551.0,966.0,0.0,0.0,0.0,0.0
1630052245910485084,1630052245,0,30306,623.0,551.0,964.0,0.0,0.0,0.0,0.0
1630052245913697587,1630052245,0,30306,625.0,552.0,964.0,0.0,0.0,0.0,0.0
1630052245945854791,1630052245,0,30306,625.0,553.0,961.0,0.0,0.0,0.0,0.0
1630052245946322941,1630052245,0,30306,625.0,552.0,959.0,0.0,0.0,0.0,0.0
1630052245947797622,1630052245,0,30306,623.0,553.0,960.0,0.0,0.0,0.0,0.0
1630052245957701825,1630052245,0,30306,621.0,554.0,963.0,0.0,0.0,0.0,0.0
1630052245961000355,1630052245,0,30306,620.0,553.0,963.0,0.0,0.0,0.0,0.0
1630052245974558717,1630052245,0,30306,617.0,556.0,969.0,0.0,0.0,0.0,0.0
1630052245988304913,1630052245,0,30306,615.0,555.0,969.0,0.0,0.0,0.0,0.0
1630052245991141918,1630052245,0,30306,618.0,556.0,969.0,0.0,0.0,0.0,0.0
1630052246005499637,1630052245,0,30306,619.0,557.0,969.0,0.0,0.0,0.0,0.0
1630052246008904623,1630052245,0,30306,615.0,556.0,970.0,0.0,0.0,0.0,0.0
1630052246023378190,1630052245,0,30306,611.0,555.0,975.0,0.0,0.0,0.0,0.0
1630052246037900028,1630052245,0,30306,611.0,556.0,976.0,0.0,0.0,0.0,0.0
1630052246057783901,1630052246,0,30306,613.0,554.0,976.0,0.0,0.0,0.0,0.0
1630052246058261380,1630052246,0,30306,614.0,554.0,983.0,0.0,0.0,0.0,0.0
1630052246059793743,1630052246,0,30306,613.0,558.0,985.0,0.0,0.0,0.0,0.0
1630052246070903618,1630052246,0,30306,611.0,557.0,988.0,0.0,0.0,0.0,0.0
1630052246085654529,1630052246,0,30306,608.0,555.0,993.0,0.0,0.0,0.0,0.0
1630052246087432586,1630052246,0,30306,606.0,555.0,996.0,0.0,0.0,0.0,0.0
1630052246102016983,1630052246,0,30306,607.0,559.0,995.0,0.0,0.0,0.0,0.0
1630052246131863546,1630052246,0,30306,605.0,556.0,997.0,0.0,0.0,0.0,0.0
1630052246132328613,1630052246,0,30306,599.0,554.0,1005.0,0.0,0.0,0.0,0.0
1630052246133954010,1630052246,0,30306,597.0,552.0,1009.0,0.0,0.0,0.0,0.0
1630052246136029989,1630052246,0,30306,595.0,553.0,1011.0,0.0,0.0,0.0,0.0
1630052246149662100,1630052246,0,30306,593.0,554.0,1014.0,0.0,0.0,0.0,0.0
1630052246181553768,1630052246,0,30306,591.0,558.0,1016.0,0.0,0.0,0.0,0.0
1630052246183051169,1630052246,0,30306,589.0,560.0,1018.0,0.0,0.0,0.0,0.0
1630052246183469964,1630052246,0,30306,585.0,564.0,1027.0,0.0,0.0,0.0,0.0
1630052246197904098,1630052246,0,30306,582.0,566.0,1030.0,0.0,0.0,0.0,0.0
1630052246210780799,1630052246,0,30306,579.0,569.0,1036.0,0.0,0.0,0.0,0.0
1630052246241697017,1630052246,0,30306,576.0,573.0,1042.0,0.0,0.0,0.0,0.0
1630052246243126159,1630052246,0,30306,575.0,576.0,1040.0,0.0,0.0,0.0,0.0
1630052246246452664,1630052246,0,30306,576.0,579.0,1041.0,0.0,0.0,0.0,0.0
1630052246257526286,1630052246,0,30306,569.0,578.0,1051.0,0.0,0.0,0.0,0.0
1630052246261860755,1630052246,0,30306,566.0,581.0,1055.0,0.0,0.0,0.0,0.0
1630052246292611712,1630052246,0,30306,566.0,583.0,1060.0,0.0,0.0,0.0,0.0
1630052246293116932,1630052246,0,30306,567.0,584.0,1059.0,0.0,0.0,0.0,0.0
1630052246294608446,1630052246,0,30306,567.0,590.0,1059.0,0.0,0.0,0.0,0.0
1630052246297311895,1630052246,0,30306,564.0,593.0,1063.0,0.0,0.0,0.0,0.0
1630052246299449531,1630052246,0,30306,567.0,596.0,1062.0,0.0,0.0,0.0,0.0
1630052246312561620,1630052246,0,30306,569.0,599.0,1064.0,0.0,0.0,0.0,0.0
1630052246355929854,1630052246,0,30306,571.0,604.0,1059.0,0.0,0.0,0.0,0.0
1630052246356327694,1630052246,0,30306,569.0,606.0,1058.0,0.0,0.0,0.0,0.0
1630052246381222261,1630052246,0,30306,570.0,612.0,1061.0,0.0,0.0,0.0,0.0
1630052246381603178,1630052246,0,30306,571.0,613.0,1057.0,0.0,0.0,0.0,0.0
1630052246383493966,1630052246,0,30306,568.0,611.0,1059.0,0.0,0.0,0.0,0.0
1630052246385582978,1630052246,0,30306,566.0,608.0,1056.0,0.0,0.0,0.0,0.0
1630052246398100931,1630052246,0,30306,564.0,606.0,1055.0,0.0,0.0,0.0,0.0
1630052246429427753,1630052246,0,30306,563.0,603.0,1052.0,0.0,0.0,0.0,0.0
1630052246430186994,1630052246,0,30306,562.0,603.0,1046.0,0.0,0.0,0.0,0.0
1630052246431254482,1630052246,0,30306,561.0,598.0,1047.0,0.0,0.0,0.0,0.0
1630052246433438730,1630052246,0,30306,560.0,597.0,1047.0,0.0,0.0,0.0,0.0
1630052246444656291,1630052246,0,30306,560.0,594.0,1043.0,0.0,0.0,0.0,0.0
1630052246459068346,1630052246,0,30306,560.0,592.0,1040.0,0.0,0.0,0.0,0.0
1630052246479983255,1630052246,0,30306,558.0,588.0,1040.0,0.0,0.0,0.0,0.0
1630052246480433590,1630052246,0,30306,558.0,585.0,1033.0,0.0,0.0,0.0,0.0
1630052246481811316,1630052246,0,30306,555.0,581.0,1034.0,0.0,0.0,0.0,0.0
1630052246484006737,1630052246,0,30306,553.0,581.0,1032.0,0.0,0.0,0.0,0.0
1630052246507108337,1630052246,0,30306,551.0,579.0,1035.0,0.0,0.0,0.0,0.0
1630052246510453686,1630052246,0,30306,550.0,577.0,1033.0,0.0,0.0,0.0,0.0
1630052246520131640,0,0,,54321.0,54321.0,54321.0,0.0,0.0,0.0,0.0
1630052246523534509,1630052246,0,30306,548.0,574.0,1034.0,0.0,0.0,0.0,0.0
1630052246538250438,1630052246,0,30306,545.0,574.0,1032.0,0.0,0.0,0.0,0.0
1630052246541596866,1630052246,0,30306,542.0,570.0,1032.0,0.0,0.0,0.0,0.0
1630052246554890086,1630052246,0,30306,541.0,570.0,1036.0,0.0,0.0,0.0,0.0
1630052246558079252,1630052246,0,30306,539.0,567.0,1041.0,0.0,0.0,0.0,0.0
1630052246560184971,1630052246,0,30306,534.0,566.0,1043.0,0.0,0.0,0.0,0.0
1630052246603907997,1630052246,0,30306,533.0,563.0,1041.0,0.0,0.0,0.0,0.0
1630052246604574313,1630052246,0,30306,531.0,563.0,1039.0,0.0,0.0,0.0,0.0
1630052246605097903,1630052246,0,30306,528.0,560.0,1040.0,0.0,0.0,0.0,0.0
1630052246606738176,1630052246,0,30306,528.0,555.0,1038.0,0.0,0.0,0.0,0.0
1630052246607033851,0,0,,54321.0,54321.0,54321.0,0.0,0.0,0.0,0.0
1630052246630008362,1630052246,0,30306,524.0,551.0,1036.0,0.0,0.0,0.0,0.0
1630052246633783882,1630052246,0,30306,526.0,550.0,1036.0,0.0,0.0,0.0,0.0
1630052246665141530,1630052246,0,30306,529.0,547.0,1033.0,0.0,0.0,0.0,0.0
1630052246665902050,1630052246,0,30306,529.0,544.0,1032.0,0.0,0.0,0.0,0.0
1630052246667024220,1630052246,0,30306,532.0,545.0,1027.0,0.0,0.0,0.0,0.0
1630052246678286540,1630052246,0,30306,536.0,545.0,1021.0,0.0,0.0,0.0,0.0
1630052246681497535,1630052246,0,30306,537.0,543.0,1023.0,0.0,0.0,0.0,0.0
1630052246696010907,1630052246,0,30306,538.0,544.0,1024.0,0.0,0.0,0.0,0.0
1630052246726173029,1630052246,0,30306,538.0,544.0,1020.0,0.0,0.0,0.0,0.0
1630052246726574485,1630052246,0,30306,537.0,544.0,1019.0,0.0,0.0,0.0,0.0
1630052246728219498,1630052246,0,30306,534.0,544.0,1020.0,0.0,0.0,0.0,0.0
1630052246732223239,1630052246,0,30306,538.0,541.0,1016.0,0.0,0.0,0.0,0.0
1630052246735396967,1630052246,0,30306,542.0,540.0,1011.0,0.0,0.0,0.0,0.0
1630052246762841170,1630052246,0,30306,542.0,537.0,1011.0,0.0,0.0,0.0,0.0
1630052246763362182,1630052246,0,30306,542.0,535.0,1007.0,0.0,0.0,0.0,0.0
1630052246766236341,1630052246,0,30306,544.0,535.0,1006.0,0.0,0.0,0.0,0.0
1630052246768285122,1630052246,0,30306,545.0,534.0,1005.0,0.0,0.0,0.0,0.0
1630052246780262255,1630052246,0,30306,546.0,532.0,1003.0,0.0,0.0,0.0,0.0
1630052246805086311,1630052246,0,30306,549.0,530.0,999.0,0.0,0.0,0.0,0.0
1630052246836256927,1630052246,0,30306,553.0,533.0,997.0,0.0,0.0,0.0,0.0
1630052246836674112,1630052246,0,30306,557.0,531.0,993.0,0.0,0.0,0.0,0.0
1630052246838034469,1630052246,0,30306,559.0,533.0,994.0,0.0,0.0,0.0,0.0
1630052246840551626,1630052246,0,30306,561.0,534.0,992.0,0.0,0.0,0.0,0.0
1630052246842863194,1630052246,0,30306,556.0,532.0,995.0,0.0,0.0,0.0,0.0
1630052246845240255,1630052246,0,30306,552.0,529.0,1002.0,0.0,0.0,0.0,0.0
1630052246859637967,1630052246,0,30306,555.0,530.0,1000.0,0.0,0.0,0.0,0.0
1630052246874155407,1630052246,0,30306,557.0,532.0,1002.0,0.0,0.0,0.0,0.0
1630052246876216675,1630052246,0,30306,553.0,531.0,1007.0,0.0,0.0,0.0,0.0
1630052246908592444,1630052246,0,30306,553.0,531.0,1010.0,0.0,0.0,0.0,0.0
1630052246909063660,1630052246,0,30306,556.0,530.0,1010.0,0.0,0.0,0.0,0.0
1630052246910529905,1630052246,0,30306,557.0,529.0,1009.0,0.0,0.0,0.0,0.0
1630052246922847269,1630052246,0,30306,555.0,530.0,1010.0,0.0,0.0,0.0,0.0
1630052246926389101,1630052246,0,30306,556.0,532.0,1008.0,0.0,0.0,0.0,0.0
1630052246941797416,1630052246,0,30306,556.0,533.0,1011.0,0.0,0.0,0.0,0.0
1630052246944576956,1630052246,0,30306,561.0,531.0,1010.0,0.0,0.0,0.0,0.0
1630052246959207241,1630052246,0,30306,566.0,531.0,1008.0,0.0,0.0,0.0,0.0
1630052246972600306,1630052246,0,30306,568.0,531.0,1006.0,0.0,0.0,0.0,0.0
1630052246975630034,1630052246,0,30306,569.0,531.0,1009.0,0.0,0.0,0.0,0.0
1630052247007179791,1630052246,0,30306,566.0,532.0,1014.0,0.0,0.0,0.0,0.0
1630052247007665741,1630052246,0,30306,567.0,528.0,1014.0,0.0,0.0,0.0,0.0
1630052247008760788,1630052246,0,30306,571.0,530.0,1009.0,0.0,0.0,0.0,0.0
1630052247023579247,1630052246,0,30306,574.0,527.0,1008.0,0.0,0.0,0.0,0.0
1630052247025709928,1630052246,0,30306,571.0,527.0,1009.0,0.0,0.0,0.0,0.0
1630052247039257892,1630052246,0,30306,571.0,526.0,1008.0,0.0,0.0,0.0,0.0
1630052247053714539,1630052247,0,30306,573.0,525.0,1007.0,0.0,0.0,0.0,0.0
1630052247056500862,1630052247,0,30306,574.0,526.0,1006.0,0.0,0.0,0.0,0.0
1630052247071201167,1630052247,0,30306,573.0,523.0,1009.0,0.0,0.0,0.0,0.0
1630052247074614220,1630052247,0,30306,574.0,521.0,1010.0,0.0,0.0,0.0,0.0
1630052247105673096,1630052247,0,30306,577.0,520.0,1008.0,0.0,0.0,0.0,0.0
1630052247106170172,1630052247,0,30306,573.0,520.0,1016.0,0.0,0.0,0.0,0.0
1630052247107706664,1630052247,0,30306,576.0,519.0,1017.0,0.0,0.0,0.0,0.0
1630052247109693589,1630052247,0,30306,584.0,521.0,1014.0,0.0,0.0,0.0,0.0
1630052247113303014,1630052247,0,30306,582.0,519.0,1021.0,0.0,0.0,0.0,0.0
1630052247127899237,1630052247,0,30306,582.0,519.0,1019.0,0.0,0.0,0.0,0.0
1630052247141627268,1630052247,0,30306,584.0,518.0,1023.0,0.0,0.0,0.0,0.0
1630052247144608083,1630052247,0,30306,584.0,516.0,1025.0,0.0,0.0,0.0,0.0
1630052247159073184,1630052247,0,30306,590.0,517.0,1026.0,0.0,0.0,0.0,0.0
1630052247190831125,1630052247,0,30306,590.0,517.0,1029.0,0.0,0.0,0.0,0.0
1630052247192375391,1630052247,0,30306,596.0,520.0,1024.0,0.0,0.0,0.0,0.0
1630052247194627509,1630052247,0,30306,600.0,522.0,1021.0,0.0,0.0,0.0,0.0
1630052247207206160,1630052247,0,30306,602.0,522.0,1025.0,0.0,0.0,0.0,0.0
1630052247220567250,1630052247,0,30306,607.0,523.0,1023.0,0.0,0.0,0.0,0.0
1630052247243418984,1630052247,0,30306,614.0,525.0,1019.0,0.0,0.0,0.0,0.0
1630052247243977887,1630052247,0,30306,620.0,524.0,1015.0,0.0,0.0,0.0,0.0
1630052247244697812,1630052247,0,30306,626.0,526.0,1010.0,0.0,0.0,0.0,0.0
1630052247255891898,1630052247,0,30306,633.0,528.0,1001.0,0.0,0.0,0.0,0.0
1630052247269368825,1630052247,0,30306,638.0,529.0,996.0,0.0,0.0,0.0,0.0
1630052247304168063,1630052247,0,30306,640.0,532.0,996.0,0.0,0.0,0.0,0.0
1630052247304777105,1630052247,0,30306,647.0,534.0,994.0,0.0,0.0,0.0,0.0
1630052247307098658,1630052247,0,30306,654.0,538.0,991.0,0.0,0.0,0.0,0.0
1630052247307617166,1630052247,0,30306,652.0,539.0,991.0,0.0,0.0,0.0,0.0
1630052247328438489,1630052247,0,30306,653.0,541.0,989.0,0.0,0.0,0.0,0.0
1630052247331877889,1630052247,0,30306,652.0,543.0,986.0,0.0,0.0,0.0,0.0
1630052247335713509,1630052247,0,30306,651.0,543.0,983.0,0.0,0.0,0.0,0.0
1630052247339139312,1630052247,0,30306,651.0,544.0,982.0,0.0,0.0,0.0,0.0
1630052247352446378,1630052247,0,30306,654.0,543.0,977.0,0.0,0.0,0.0,0.0
1630052247373496045,1630052247,0,30306,652.0,545.0,981.0,0.0,0.0,0.0,0.0
1630052247374028166,1630052247,0,30306,650.0,545.0,983.0,0.0,0.0,0.0,0.0
1630052247376542198,1630052247,0,30306,650.0,546.0,982.0,0.0,0.0,0.0,0.0
1630052247386677302,1630052247,0,30306,649.0,546.0,982.0,0.0,0.0,0.0,0.0
1630052247402342546,1630052247,0,30306,648.0,545.0,982.0,0.0,0.0,0.0,0.0
1630052247421128597,1630052247,0,30306,649.0,547.0,984.0,0.0,0.0,0.0,0.0
1630052247421715853,1630052247,0,30306,650.0,549.0,983.0,0.0,0.0,0.0,0.0
1630052247423326174,1630052247,0,30306,650.0,548.0,984.0,0.0,0.0,0.0,0.0
1630052247435599173,1630052247,0,30306,649.0,550.0,983.0,0.0,0.0,0.0,0.0
1630052247450650586,1630052247,0,30306,651.0,548.0,984.0,0.0,0.0,0.0,0.0
1630052247453576754,1630052247,0,30306,651.0,549.0,982.0,0.0,0.0,0.0,0.0
1630052247465907465,1630052247,0,30306,649.0,552.0,985.0,0.0,0.0,0.0,0.0
1630052247470357414,1630052247,0,30306,646.0,551.0,988.0,0.0,0.0,0.0,0.0
1630052247483829905,1630052247,0,30306,647.0,552.0,986.0,0.0,0.0,0.0,0.0
1630052247522562850,1630052247,0,30306,648.0,553.0,985.0,0.0,0.0,0.0,0.0
1630052247524724142,1630052247,0,30306,641.0,551.0,991.0,0.0,0.0,0.0,0.0
1630052247532391735,1630052247,0,30306,636.0,550.0,1000.0,0.0,0.0,0.0,0.0
1630052247535825028,1630052247,0,30306,631.0,550.0,1000.0,0.0,0.0,0.0,0.0
1630052247540677921,1630052247,0,30306,628.0,551.0,1001.0,0.0,0.0,0.0,0.0
1630052247543616546,1630052247,0,30306,628.0,554.0,1000.0,0.0,0.0,0.0,0.0
1630052247557978869,1630052247,0,30306,624.0,552.0,1001.0,0.0,0.0,0.0,0.0
1630052247571997547,1630052247,0,30306,622.0,551.0,1000.0,0.0,0.0,0.0,0.0
1630052247574085689,1630052247,0,30306,621.0,550.0,998.0,0.0,0.0,0.0,0.0
1630052247587898260,1630052247,0,30306,620.0,549.0,997.0,0.0,0.0,0.0,0.0
1630052247591276773,1630052247,0,30306,616.0,546.0,1000.0,0.0,0.0,0.0,0.0
1630052247605362670,1630052247,0,30306,614.0,552.0,998.0,0.0,0.0,0.0,0.0
1630052247618904738,1630052247,0,30306,613.0,556.0,995.0,0.0,0.0,0.0,0.0
1630052247622354677,1630052247,0,30306,612.0,555.0,992.0,0.0,0.0,0.0,0.0
1630052247636978610,1630052247,0,30306,609.0,554.0,992.0,0.0,0.0,0.0,0.0
1630052247638971630,1630052247,0,30306,610.0,555.0,983.0,0.0,0.0,0.0,0.0
1630052247653610709,1630052247,0,30306,607.0,558.0,980.0,0.0,0.0,0.0,0.0
1630052247666291746,1630052247,0,30306,609.0,561.0,977.0,0.0,0.0,0.0,0.0
1630052247688543945,1630052247,0,30306,611.0,563.0,971.0,0.0,0.0,0.0,0.0
1630052247689101223,1630052247,0,30306,609.0,564.0,969.0,0.0,0.0,0.0,0.0
1630052247690910061,1630052247,0,30306,609.0,564.0,963.0,0.0,0.0,0.0,0.0
1630052247702226754,1630052247,0,30306,612.0,566.0,956.0,0.0,0.0,0.0,0.0
1630052247726373440,1630052247,0,30306,608.0,565.0,959.0,0.0,0.0,0.0,0.0
1630052247727979431,1630052247,0,30306,606.0,565.0,962.0,0.0,0.0,0.0,0.0
1630052247734270656,1630052247,0,30306,606.0,568.0,960.0,0.0,0.0,0.0,0.0
1630052247746073441,1630052247,0,30306,604.0,569.0,960.0,0.0,0.0,0.0,0.0
1630052247769508468,1630052247,0,30306,599.0,569.0,962.0,0.0,0.0,0.0,0.0
1630052247770432416,1630052247,0,30306,601.0,563.0,965.0,0.0,0.0,0.0,0.0
1630052247781584888,1630052247,0,30306,601.0,564.0,964.0,0.0,0.0,0.0,0.0
1630052247795202973,1630052247,0,30306,598.0,562.0,967.0,0.0,0.0,0.0,0.0
1630052247798283781,1630052247,0,30306,600.0,555.0,969.0,0.0,0.0,0.0,0.0
1630052247811907999,1630052247,0,30306,598.0,556.0,970.0,0.0,0.0,0.0,0.0
1630052247843182807,1630052247,0,30306,593.0,555.0,973.0,0.0,0.0,0.0,0.0
1630052247843644284,1630052247,0,30306,589.0,553.0,978.0,0.0,0.0,0.0,0.0
1630052247845306732,1630052247,0,30306,593.0,547.0,981.0,0.0,0.0,0.0,0.0
1630052247847590654,1630052247,0,30306,592.0,544.0,981.0,0.0,0.0,0.0,0.0
1630052247860438545,1630052247,0,30306,586.0,544.0,986.0,0.0,0.0,0.0,0.0
1630052247891988838,1630052247,0,30306,587.0,537.0,989.0,0.0,0.0,0.0,0.0
1630052247892484706,1630052247,0,30306,589.0,529.0,992.0,0.0,0.0,0.0,0.0
1630052247894022184,1630052247,0,30306,591.0,522.0,994.0,0.0,0.0,0.0,0.0
1630052247896520990,1630052247,0,30306,594.0,514.0,997.0,0.0,0.0,0.0,0.0
1630052247898487846,1630052247,0,30306,594.0,506.0,1001.0,0.0,0.0,0.0,0.0
1630052247940059452,1630052247,0,30306,588.0,509.0,1003.0,0.0,0.0,0.0,0.0
1630052247941007143,1630052247,0,30306,590.0,502.0,1010.0,0.0,0.0,0.0,0.0
1630052247941623688,1630052247,0,30306,593.0,495.0,1013.0,0.0,0.0,0.0,0.0
1630052247942139824,1630052247,0,30306,596.0,489.0,1020.0,0.0,0.0,0.0,0.0
1630052247946823140,1630052247,0,30306,600.0,482.0,1026.0,0.0,0.0,0.0,0.0
1630052247961388378,1630052247,0,30306,603.0,476.0,1030.0,0.0,0.0,0.0,0.0
1630052248000370331,1630052247,0,30306,604.0,469.0,1037.0,0.0,0.0,0.0,0.0
1630052248000881748,1630052247,0,30306,605.0,465.0,1042.0,0.0,0.0,0.0,0.0
1630052248002893803,1630052247,0,30306,611.0,460.0,1049.0,0.0,0.0,0.0,0.0
1630052248003490136,1630052247,0,30306,611.0,456.0,1057.0,0.0,0.0,0.0,0.0
1630052248009933569,1630052247,0,30306,610.0,447.0,1066.0,0.0,0.0,0.0,0.0
1630052248011969531,1630052247,0,30306,611.0,445.0,1068.0,0.0,0.0,0.0,0.0
1630052248025992877,1630052247,0,30306,612.0,439.0,1077.0,0.0,0.0,0.0,0.0
1630052248040439241,1630052248,0,30306,613.0,437.0,1086.0,0.0,0.0,0.0,0.0
1630052248044700868,1630052248,0,30306,612.0,431.0,1097.0,0.0,0.0,0.0,0.0
1630052248058018553,1630052248,0,30306,610.0,427.0,1104.0,0.0,0.0,0.0,0.0
1630052248061138619,1630052248,0,30306,611.0,421.0,1113.0,0.0,0.0,0.0,0.0
1630052248092507658,1630052248,0,30306,615.0,419.0,1118.0,0.0,0.0,0.0,0.0
1630052248092988997,1630052248,0,30306,616.0,417.0,1126.0,0.0,0.0,0.0,0.0
1630052248094523484,1630052248,0,30306,619.0,416.0,1134.0,0.0,0.0,0.0,0.0
1630052248106749037,1630052248,0,30306,620.0,412.0,1144.0,0.0,0.0,0.0,0.0
1630052248118909681,1630052248,0,30306,623.0,411.0,1147.0,0.0,0.0,0.0,0.0
1630052248123464639,1630052248,0,30306,625.0,409.0,1153.0,0.0,0.0,0.0,0.0
1630052248137780986,1630052248,0,30306,624.0,408.0,1160.0,0.0,0.0,0.0,0.0
1630052248210227304,1630052248,0,30306,625.0,409.0,1169.0,0.0,0.0,0.0,0.0
1630052248229000211,1630052248,0,30306,629.0,412.0,1174.0,0.0,0.0,0.0,0.0
1630052248232023780,1630052248,0,30306,633.0,414.0,1179.0,0.0,0.0,0.0,0.0
1630052248243755091,1630052248,0,30306,633.0,413.0,1187.0,0.0,0.0,0.0,0.0
1630052248244396715,1630052248,0,30306,635.0,416.0,1196.0,0.0,0.0,0.0,0.0
1630052248245427430,1630052248,0,30306,633.0,420.0,1206.0,0.0,0.0,0.0,0.0
1630052248247622589,1630052248,0,30306,631.0,421.0,1218.0,0.0,0.0,0.0,0.0
1630052248250788471,1630052248,0,30306,632.0,422.0,1230.0,0.0,0.0,0.0,0.0
1630052248254466737,1630052248,0,30306,629.0,423.0,1241.0,0.0,0.0,0.0,0.0
1630052248264728787,1630052248,0,30306,631.0,427.0,1250.0,0.0,0.0,0.0,0.0
1630052248265380213,1630052248,0,30306,633.0,428.0,1257.0,0.0,0.0,0.0,0.0
1630052248266778745,1630052248,0,30306,630.0,430.0,1266.0,0.0,0.0,0.0,0.0
1630052248269156340,1630052248,0,30306,633.0,430.0,1272.0,0.0,0.0,0.0,0.0
1630052248271742550,1630052248,0,30306,628.0,430.0,1285.0,0.0,0.0,0.0,0.0
1630052248292883202,1630052248,0,30306,626.0,433.0,1297.0,0.0,0.0,0.0,0.0
1630052248293515739,1630052248,0,30306,623.0,436.0,1306.0,0.0,0.0,0.0,0.0
1630052248294716934,1630052248,0,30306,621.0,435.0,1318.0,0.0,0.0,0.0,0.0
1630052248306173128,1630052248,0,30306,619.0,439.0,1329.0,0.0,0.0,0.0,0.0
1630052248308543773,1630052248,0,30306,615.0,441.0,1339.0,0.0,0.0,0.0,0.0
1630052248323208500,1630052248,0,30306,613.0,443.0,1346.0,0.0,0.0,0.0,0.0
1630052248337381076,1630052248,0,30306,607.0,440.0,1359.0,0.0,0.0,0.0,0.0
1630052248341504694,1630052248,0,30306,605.0,444.0,1368.0,0.0,0.0,0.0,0.0
1630052248353891557,1630052248,0,30306,602.0,444.0,1377.0,0.0,0.0,0.0,0.0
1630052248374029274,1630052248,0,30306,595.0,442.0,1391.0,0.0,0.0,0.0,0.0
1630052248375782147,1630052248,0,30306,595.0,439.0,1388.0,0.0,0.0,0.0,0.0
1630052248385878614,1630052248,0,30306,594.0,435.0,1386.0,0.0,0.0,0.0,0.0
1630052248387999106,1630052248,0,30306,586.0,432.0,1396.0,0.0,0.0,0.0,0.0
1630052248402895301,1630052248,0,30306,587.0,429.0,1392.0,0.0,0.0,0.0,0.0
1630052248406301944,1630052248,0,30306,589.0,427.0,1387.0,0.0,0.0,0.0,0.0
1630052248421691935,1630052248,0,30306,587.0,423.0,1389.0,0.0,0.0,0.0,0.0
1630052248434848397,1630052248,0,30306,588.0,421.0,1384.0,0.0,0.0,0.0,0.0
1630052248456248939,1630052248,0,30306,587.0,417.0,1381.0,0.0,0.0,0.0,0.0
1630052248456954321,1630052248,0,30306,582.0,412.0,1383.0,0.0,0.0,0.0,0.0
1630052248459842347,1630052248,0,30306,573.0,407.0,1393.0,0.0,0.0,0.0,0.0
1630052248468191670,1630052248,0,30306,573.0,402.0,1389.0,0.0,0.0,0.0,0.0
1630052248482626746,1630052248,0,30306,570.0,402.0,1391.0,0.0,0.0,0.0,0.0
1630052248486750495,1630052248,0,30306,562.0,396.0,1397.0,0.0,0.0,0.0,0.0
1630052248500431630,1630052248,0,30306,563.0,392.0,1394.0,0.0,0.0,0.0,0.0
1630052248513482297,1630052248,0,30306,564.0,392.0,1391.0,0.0,0.0,0.0,0.0
1630052248536135972,1630052248,0,30306,549.0,386.0,1402.0,0.0,0.0,0.0,0.0
1630052248537768638,1630052248,0,30306,546.0,382.0,1400.0,0.0,0.0,0.0,0.0
1630052248539863846,1630052248,0,30306,543.0,379.0,1399.0,0.0,0.0,0.0,0.0
1630052248595384488,1630052248,0,30306,533.0,373.0,1408.0,0.0,0.0,0.0,0.0
1630052248595896154,1630052248,0,30306,530.0,372.0,1407.0,0.0,0.0,0.0,0.0
1630052248596338721,1630052248,0,30306,529.0,369.0,1407.0,0.0,0.0,0.0,0.0
1630052248597348011,1630052248,0,30306,520.0,361.0,1417.0,0.0,0.0,0.0,0.0
1630052248597853858,1630052248,0,30306,521.0,362.0,1412.0,0.0,0.0,0.0,0.0
1630052248603211313,1630052248,0,30306,519.0,361.0,1406.0,0.0,0.0,0.0,0.0
1630052248609735520,1630052248,0,30306,520.0,362.0,1399.0,0.0,0.0,0.0,0.0
1630052248623879702,1630052248,0,30306,516.0,359.0,1399.0,0.0,0.0,0.0,0.0
1630052248626926613,1630052248,0,30306,519.0,356.0,1397.0,0.0,0.0,0.0,0.0
1630052248641750833,1630052248,0,30306,517.0,353.0,1396.0,0.0,0.0,0.0,0.0
1630052248654421399,1630052248,0,30306,512.0,349.0,1399.0,0.0,0.0,0.0,0.0
1630052248658562147,1630052248,0,30306,517.0,349.0,1393.0,0.0,0.0,0.0,0.0
1630052248689823137,1630052248,0,30306,518.0,347.0,1390.0,0.0,0.0,0.0,0.0
1630052248690647374,1630052248,0,30306,520.0,345.0,1383.0,0.0,0.0,0.0,0.0
1630052248691820171,1630052248,0,30306,519.0,344.0,1381.0,0.0,0.0,0.0,0.0
1630052248703975475,1630052248,0,30306,517.0,349.0,1377.0,0.0,0.0,0.0,0.0
1630052248707533001,1630052248,0,30306,519.0,348.0,1373.0,0.0,0.0,0.0,0.0
1630052248720408663,1630052248,0,30306,520.0,347.0,1368.0,0.0,0.0,0.0,0.0
1630052248724048646,1630052248,0,30306,522.0,347.0,1362.0,0.0,0.0,0.0,0.0
1630052248738580630,1630052248,0,30306,523.0,347.0,1357.0,0.0,0.0,0.0,0.0
1630052248750876469,1630052248,0,30306,527.0,350.0,1349.0,0.0,0.0,0.0,0.0
1630052248754037147,1630052248,0,30306,528.0,349.0,1346.0,0.0,0.0,0.0,0.0
1630052248768663887,1630052248,0,30306,528.0,348.0,1342.0,0.0,0.0,0.0,0.0
1630052248773551576,1630052248,0,30306,530.0,350.0,1335.0,0.0,0.0,0.0,0.0
1630052248776460111,1630052248,0,30306,533.0,347.0,1327.0,0.0,0.0,0.0,0.0
1630052248799805666,1630052248,0,30306,535.0,349.0,1325.0,0.0,0.0,0.0,0.0
1630052248804032022,1630052248,0,30306,536.0,348.0,1320.0,0.0,0.0,0.0,0.0
1630052248816480248,1630052248,0,30306,540.0,349.0,1312.0,0.0,0.0,0.0,0.0
1630052248819522146,1630052248,0,30306,540.0,350.0,1312.0,0.0,0.0,0.0,0.0
1630052248851627963,1630052248,0,30306,541.0,350.0,1303.0,0.0,0.0,0.0,0.0
1630052248852235023,1630052248,0,30306,543.0,352.0,1302.0,0.0,0.0,0.0,0.0
1630052248853494620,1630052248,0,30306,543.0,353.0,1297.0,0.0,0.0,0.0,0.0
1630052248855690177,1630052248,0,30306,546.0,353.0,1296.0,0.0,0.0,0.0,0.0
1630052248879477194,1630052248,0,30306,550.0,354.0,1290.0,0.0,0.0,0.0,0.0
1630052248881376539,1630052248,0,30306,552.0,354.0,1285.0,0.0,0.0,0.0,0.0
1630052248904608983,1630052248,0,30306,554.0,354.0,1279.0,0.0,0.0,0.0,0.0
1630052248905606265,1630052248,0,30306,559.0,356.0,1275.0,0.0,0.0,0.0,0.0
1630052248906494714,1630052248,0,30306,563.0,360.0,1271.0,0.0,0.0,0.0,0.0
1630052248917643664,1630052248,0,30306,568.0,362.0,1262.0,0.0,0.0,0.0,0.0
1630052248919551728,1630052248,0,30306,572.0,364.0,1260.0,0.0,0.0,0.0,0.0
1630052248934707777,1630052248,0,30306,574.0,366.0,1253.0,0.0,0.0,0.0,0.0
1630052248948868139,1630052248,0,30306,570.0,369.0,1252.0,0.0,0.0,0.0,0.0
1630052248969945440,1630052248,0,30306,571.0,378.0,1245.0,0.0,0.0,0.0,0.0
1630052248971546941,1630052248,0,30306,570.0,380.0,1241.0,0.0,0.0,0.0,0.0
1630052248982956798,1630052248,0,30306,570.0,382.0,1238.0,0.0,0.0,0.0,0.0
1630052248996227604,1630052248,0,30306,568.0,382.0,1238.0,0.0,0.0,0.0,0.0
1630052249021160509,1630052248,0,30306,567.0,382.0,1239.0,0.0,0.0,0.0,0.0
1630052249021754045,1630052248,0,30306,570.0,383.0,1234.0,0.0,0.0,0.0,0.0
1630052249024227525,1630052248,0,30306,567.0,378.0,1234.0,0.0,0.0,0.0,0.0
1630052249031223137,1630052248,0,30306,566.0,376.0,1233.0,0.0,0.0,0.0,0.0
1630052249045656498,1630052249,0,30306,569.0,374.0,1230.0,0.0,0.0,0.0,0.0
1630052249048620188,1630052249,0,30306,568.0,370.0,1229.0,0.0,0.0,0.0,0.0
1630052249062517153,1630052249,0,30306,572.0,369.0,1224.0,0.0,0.0,0.0,0.0
1630052249065244977,1630052249,0,30306,573.0,367.0,1215.0,0.0,0.0,0.0,0.0
1630052249079948784,1630052249,0,30306,572.0,367.0,1214.0,0.0,0.0,0.0,0.0
1630052249111486510,1630052249,0,30306,571.0,363.0,1213.0,0.0,0.0,0.0,0.0
1630052249111982102,1630052249,0,30306,573.0,363.0,1209.0,0.0,0.0,0.0,0.0
1630052249113343542,1630052249,0,30306,574.0,362.0,1203.0,0.0,0.0,0.0,0.0
1630052249124594094,1630052249,0,30306,577.0,362.0,1199.0,0.0,0.0,0.0,0.0
1630052249127892030,1630052249,0,30306,578.0,359.0,1196.0,0.0,0.0,0.0,0.0
1630052249142085719,1630052249,0,30306,579.0,360.0,1193.0,0.0,0.0,0.0,0.0
1630052249144937333,1630052249,0,30306,581.0,360.0,1190.0,0.0,0.0,0.0,0.0
1630052249158263495,1630052249,0,30306,582.0,358.0,1182.0,0.0,0.0,0.0,0.0
1630052249173185747,1630052249,0,30306,582.0,355.0,1177.0,0.0,0.0,0.0,0.0
1630052249176295328,1630052249,0,30306,585.0,353.0,1167.0,0.0,0.0,0.0,0.0
1630052249179639988,1630052249,0,30306,584.0,353.0,1167.0,0.0,0.0,0.0,0.0
1630052249182997604,1630052249,0,30306,585.0,352.0,1161.0,0.0,0.0,0.0,0.0
1630052249197368403,1630052249,0,30306,587.0,353.0,1154.0,0.0,0.0,0.0,0.0
1630052249232095375,1630052249,0,30306,587.0,355.0,1146.0,0.0,0.0,0.0,0.0
1630052249232526702,1630052249,0,30306,590.0,358.0,1141.0,0.0,0.0,0.0,0.0
1630052249235017889,1630052249,0,30306,587.0,359.0,1134.0,0.0,0.0,0.0,0.0
1630052249242464124,1630052249,0,30306,585.0,357.0,1135.0,0.0,0.0,0.0,0.0
1630052249245401577,1630052249,0,30306,585.0,358.0,1134.0,0.0,0.0,0.0,0.0
1630052249259766088,1630052249,0,30306,586.0,357.0,1133.0,0.0,0.0,0.0,0.0
1630052249262709768,1630052249,0,30306,584.0,355.0,1133.0,0.0,0.0,0.0,0.0
1630052249277583343,1630052249,0,30306,580.0,356.0,1129.0,0.0,0.0,0.0,0.0
1630052249291014392,1630052249,0,30306,579.0,358.0,1128.0,0.0,0.0,0.0,0.0
1630052249294369504,1630052249,0,30306,581.0,358.0,1123.0,0.0,0.0,0.0,0.0
1630052249307855682,1630052249,0,30306,579.0,359.0,1118.0,0.0,0.0,0.0,0.0
1630052249310882507,1630052249,0,30306,579.0,358.0,1116.0,0.0,0.0,0.0,0.0
1630052249325800160,1630052249,0,30306,578.0,359.0,1118.0,0.0,0.0,0.0,0.0
1630052249340451430,1630052249,0,30306,579.0,360.0,1114.0,0.0,0.0,0.0,0.0
1630052249343955310,1630052249,0,30306,575.0,360.0,1114.0,0.0,0.0,0.0,0.0
1630052249355848294,1630052249,0,30306,578.0,361.0,1111.0,0.0,0.0,0.0,0.0
1630052249370762533,1630052249,0,30306,577.0,359.0,1110.0,0.0,0.0,0.0,0.0
1630052249373851505,1630052249,0,30306,576.0,358.0,1106.0,0.0,0.0,0.0,0.0
1630052249405378156,1630052249,0,30306,572.0,352.0,1109.0,0.0,0.0,0.0,0.0
1630052249408359152,1630052249,0,30306,573.0,351.0,1109.0,0.0,0.0,0.0,0.0
1630052249418130474,1630052249,0,30306,569.0,349.0,1113.0,0.0,0.0,0.0,0.0
1630052249421522532,1630052249,0,30306,572.0,351.0,1107.0,0.0,0.0,0.0,0.0
1630052249435976586,1630052249,0,30306,570.0,349.0,1105.0,0.0,0.0,0.0,0.0
1630052249453898450,1630052249,0,30306,567.0,348.0,1109.0,0.0,0.0,0.0,0.0
1630052249463669183,1630052249,0,30306,566.0,346.0,1110.0,0.0,0.0,0.0,0.0
1630052249474656155,1630052249,0,30306,562.0,345.0,1116.0,0.0,0.0,0.0,0.0
1630052249475341624,1630052249,0,30306,555.0,345.0,1123.0,0.0,0.0,0.0,0.0
1630052249477007703,1630052249,0,30306,555.0,345.0,1130.0,0.0,0.0,0.0,0.0
1630052249486939222,1630052249,0,30306,558.0,345.0,1133.0,0.0,0.0,0.0,0.0
1630052249491172667,1630052249,0,30306,556.0,346.0,1134.0,0.0,0.0,0.0,0.0
1630052249522772942,1630052249,0,30306,551.0,343.0,1135.0,0.0,0.0,0.0,0.0
1630052249524435567,1630052249,0,30306,548.0,342.0,1143.0,0.0,0.0,0.0,0.0
1630052249538376216,1630052249,0,30306,550.0,340.0,1145.0,0.0,0.0,0.0,0.0
1630052249539446312,1630052249,0,30306,552.0,339.0,1145.0,0.0,0.0,0.0,0.0
1630052249553981989,1630052249,0,30306,548.0,336.0,1149.0,0.0,0.0,0.0,0.0
1630052249568365560,1630052249,0,30306,546.0,336.0,1154.0,0.0,0.0,0.0,0.0
1630052249570770373,1630052249,0,30306,546.0,337.0,1150.0,0.0,0.0,0.0,0.0
1630052249584995176,1630052249,0,30306,548.0,336.0,1148.0,0.0,0.0,0.0,0.0
1630052249599512685,1630052249,0,30306,551.0,336.0,1149.0,0.0,0.0,0.0,0.0
1630052249602648135,1630052249,0,30306,552.0,339.0,1141.0,0.0,0.0,0.0,0.0
1630052249616099244,1630052249,0,30306,548.0,337.0,1142.0,0.0,0.0,0.0,0.0
1630052249648512048,1630052249,0,30306,544.0,335.0,1148.0,0.0,0.0,0.0,0.0
1630052249648968936,1630052249,0,30306,542.0,334.0,1150.0,0.0,0.0,0.0,0.0
1630052249650723838,1630052249,0,30306,542.0,334.0,1147.0,0.0,0.0,0.0,0.0
1630052249652599072,1630052249,0,30306,539.0,334.0,1157.0,0.0,0.0,0.0,0.0
1630052249667521140,1630052249,0,30306,537.0,335.0,1158.0,0.0,0.0,0.0,0.0
