%time,field.data0.header.seq,field.data0.header.stamp,field.data0.header.frame_id,field.data0.pose.position.x,field.data0.pose.position.y,field.data0.pose.position.z,field.data0.pose.orientation.x,field.data0.pose.orientation.y,field.data0.pose.orientation.z,field.data0.pose.orientation.w
1630051658606075328,1630051658,0,30306,629.0,665.0,1025.0,0.0,0.0,0.0,0.0
1630051658696121645,1630051658,0,30306,617.0,676.0,1041.0,0.0,0.0,0.0,0.0
1630051658805855733,1630051658,0,30306,614.0,678.0,1007.0,0.0,0.0,0.0,0.0
1630051658895165990,1630051658,0,30306,615.0,687.0,1004.0,0.0,0.0,0.0,0.0
1630051659004299235,1630051658,0,30306,611.0,707.0,975.0,0.0,0.0,0.0,0.0
1630051659095426450,1630051659,0,30306,607.0,709.0,963.0,0.0,0.0,0.0,0.0
1630051659207856766,1630051659,0,30306,598.0,710.0,962.0,0.0,0.0,0.0,0.0
1630051659296553370,1630051659,0,30306,596.0,719.0,956.0,0.0,0.0,0.0,0.0
1630051659407052531,1630051659,0,30306,597.0,719.0,971.0,0.0,0.0,0.0,0.0
1630051659505174983,1630051659,0,30306,599.0,721.0,974.0,0.0,0.0,0.0,0.0
1630051659615012389,1630051659,0,30306,588.0,731.0,979.0,0.0,0.0,0.0,0.0
1630051659704798642,1630051659,0,30306,589.0,751.0,965.0,0.0,0.0,0.0,0.0
1630051659794447788,1630051659,0,30306,597.0,725.0,973.0,0.0,0.0,0.0,0.0
1630051659905864920,1630051659,0,30306,598.0,709.0,967.0,0.0,0.0,0.0,0.0
1630051660005682281,1630051659,0,30306,597.0,706.0,966.0,0.0,0.0,0.0,0.0
1630051660094643335,1630051660,0,30306,596.0,700.0,973.0,0.0,0.0,0.0,0.0
1630051660204496087,1630051660,0,30306,605.0,688.0,985.0,0.0,0.0,0.0,0.0
1630051660294721544,1630051660,0,30306,611.0,686.0,996.0,0.0,0.0,0.0,0.0
1630051660404994703,1630051660,0,30306,616.0,687.0,1004.0,0.0,0.0,0.0,0.0
1630051660504114903,1630051660,0,30306,615.0,688.0,1021.0,0.0,0.0,0.0,0.0
1630051660594613391,1630051660,0,30306,617.0,690.0,1030.0,0.0,0.0,0.0,0.0
1630051660703760849,1630051660,0,30306,619.0,704.0,1040.0,0.0,0.0,0.0,0.0
1630051660793785110,1630051660,0,30306,619.0,704.0,1017.0,0.0,0.0,0.0,0.0
1630051660904874522,1630051660,0,30306,618.0,710.0,993.0,0.0,0.0,0.0,0.0
1630051661003059118,1630051660,0,30306,614.0,717.0,979.0,0.0,0.0,0.0,0.0
1630051661104111245,1630051661,0,30306,605.0,725.0,976.0,0.0,0.0,0.0,0.0
1630051661203097162,1630051661,0,30306,598.0,731.0,974.0,0.0,0.0,0.0,0.0
1630051661304278683,1630051661,0,30306,597.0,737.0,971.0,0.0,0.0,0.0,0.0
1630051661403084792,1630051661,0,30306,598.0,747.0,963.0,0.0,0.0,0.0,0.0
1630051661511914550,1630051661,0,30306,605.0,752.0,961.0,0.0,0.0,0.0,0.0
1630051661602576089,1630051661,0,30306,610.0,762.0,960.0,0.0,0.0,0.0,0.0
1630051661712434310,1630051661,0,30306,614.0,768.0,969.0,0.0,0.0,0.0,0.0
1630051661802233929,1630051661,0,30306,621.0,750.0,970.0,0.0,0.0,0.0,0.0
1630051661912552839,1630051661,0,30306,620.0,737.0,971.0,0.0,0.0,0.0,0.0
1630051662002063135,1630051661,0,30306,620.0,720.0,969.0,0.0,0.0,0.0,0.0
1630051662111805836,1630051662,0,30306,619.0,703.0,963.0,0.0,0.0,0.0,0.0
1630051662202235663,1630051662,0,30306,621.0,690.0,950.0,0.0,0.0,0.0,0.0
1630051662292006632,1630051662,0,30306,628.0,683.0,947.0,0.0,0.0,0.0,0.0
1630051662401306100,1630051662,0,30306,634.0,674.0,943.0,0.0,0.0,0.0,0.0
1630051662511511040,1630051662,0,30306,650.0,668.0,938.0,0.0,0.0,0.0,0.0
1630051662600226902,1630051662,0,30306,667.0,656.0,927.0,0.0,0.0,0.0,0.0
1630051662711489852,1630051662,0,30306,685.0,650.0,902.0,0.0,0.0,0.0,0.0
1630051662800202119,1630051662,0,30306,673.0,659.0,909.0,0.0,0.0,0.0,0.0
1630051662909894221,1630051662,0,30306,677.0,663.0,907.0,0.0,0.0,0.0,0.0
1630051662999874258,1630051662,0,30306,678.0,665.0,898.0,0.0,0.0,0.0,0.0
1630051663109172175,1630051663,0,30306,686.0,666.0,892.0,0.0,0.0,0.0,0.0
1630051663198175202,1630051663,0,30306,700.0,668.0,877.0,0.0,0.0,0.0,0.0
1630051663308794522,1630051663,0,30306,714.0,662.0,854.0,0.0,0.0,0.0,0.0
1630051663397366525,1630051663,0,30306,732.0,660.0,822.0,0.0,0.0,0.0,0.0
1630051663507248074,1630051663,0,30306,746.0,648.0,791.0,0.0,0.0,0.0,0.0
1630051663607064457,1630051663,0,30306,747.0,648.0,763.0,0.0,0.0,0.0,0.0
1630051663697109867,1630051663,0,30306,763.0,634.0,754.0,0.0,0.0,0.0,0.0
1630051663806863539,1630051663,0,30306,724.0,655.0,807.0,0.0,0.0,0.0,0.0
1630051663896564473,1630051663,0,30306,707.0,654.0,823.0,0.0,0.0,0.0,0.0
1630051664007173317,1630051663,0,30306,685.0,645.0,860.0,0.0,0.0,0.0,0.0
1630051664095740056,1630051664,0,30306,683.0,648.0,849.0,0.0,0.0,0.0,0.0
1630051664205908947,1630051664,0,30306,677.0,634.0,870.0,0.0,0.0,0.0,0.0
1630051664296063279,1630051664,0,30306,691.0,612.0,881.0,0.0,0.0,0.0,0.0
1630051664406342278,1630051664,0,30306,715.0,584.0,885.0,0.0,0.0,0.0,0.0
1630051664495516128,1630051664,0,30306,732.0,574.0,901.0,0.0,0.0,0.0,0.0
1630051664603748380,1630051664,0,30306,765.0,583.0,921.0,0.0,0.0,0.0,0.0
1630051664704036416,1630051664,0,30306,825.0,612.0,919.0,0.0,0.0,0.0,0.0
1630051664814114468,1630051664,0,30306,868.0,650.0,985.0,0.0,0.0,0.0,0.0
1630051664926097904,1630051664,0,30306,931.0,683.0,1028.0,0.0,0.0,0.0,0.0
1630051664992977663,1630051664,0,30306,986.0,708.0,1074.0,0.0,0.0,0.0,0.0
1630051665102901737,1630051665,0,30306,1049.0,713.0,1069.0,0.0,0.0,0.0,0.0
1630051665203167359,1630051665,0,30306,1098.0,712.0,1102.0,0.0,0.0,0.0,0.0
1630051665303836898,1630051665,0,30306,1137.0,730.0,1145.0,0.0,0.0,0.0,0.0
1630051665403845529,1630051665,0,30306,1196.0,741.0,1148.0,0.0,0.0,0.0,0.0
1630051665504207197,1630051665,0,30306,1255.0,746.0,1158.0,0.0,0.0,0.0,0.0
1630051665602735108,1630051665,0,30306,1313.0,738.0,1188.0,0.0,0.0,0.0,0.0
1630051665692742908,1630051665,0,30306,1357.0,738.0,1206.0,0.0,0.0,0.0,0.0
1630051665802858218,1630051665,0,30306,1411.0,744.0,1258.0,0.0,0.0,0.0,0.0
1630051665903008663,1630051665,0,30306,1462.0,750.0,1299.0,0.0,0.0,0.0,0.0
1630051666003089272,1630051665,0,30306,1522.0,786.0,1297.0,0.0,0.0,0.0,0.0
1630051666102659243,1630051666,0,30306,1606.0,818.0,1327.0,0.0,0.0,0.0,0.0
1630051666212912714,1630051666,0,30306,1681.0,862.0,1379.0,0.0,0.0,0.0,0.0
1630051666301448013,1630051666,0,30306,1734.0,879.0,1496.0,0.0,0.0,0.0,0.0
1630051666412560268,1630051666,0,30306,1796.0,912.0,1592.0,0.0,0.0,0.0,0.0
1630051666501608183,1630051666,0,30306,1822.0,903.0,1591.0,0.0,0.0,0.0,0.0
1630051666602033209,1630051666,0,30306,1856.0,911.0,1611.0,0.0,0.0,0.0,0.0
1630051666703094511,1630051666,0,30306,1874.0,894.0,1575.0,0.0,0.0,0.0,0.0
1630051666796629554,1630051666,0,30306,1893.0,856.0,1518.0,0.0,0.0,0.0,0.0
1630051666906707734,1630051666,0,30306,1883.0,822.0,1479.0,0.0,0.0,0.0,0.0
1630051667005962566,1630051666,0,30306,1923.0,830.0,1500.0,0.0,0.0,0.0,0.0
1630051667095159624,1630051667,0,30306,1970.0,785.0,1441.0,0.0,0.0,0.0,0.0
1630051667205349214,1630051667,0,30306,2060.0,822.0,1397.0,0.0,0.0,0.0,0.0
1630051667295816848,1630051667,0,30306,2159.0,864.0,1360.0,0.0,0.0,0.0,0.0
1630051667405236713,1630051667,0,30306,2244.0,884.0,1408.0,0.0,0.0,0.0,0.0
1630051667505021100,1630051667,0,30306,2204.0,848.0,1417.0,0.0,0.0,0.0,0.0
1630051667605270330,1630051667,0,30306,2187.0,828.0,1508.0,0.0,0.0,0.0,0.0
1630051667705599100,1630051667,0,30306,2182.0,802.0,1441.0,0.0,0.0,0.0,0.0
1630051667795097029,1630051667,0,30306,2185.0,772.0,1436.0,0.0,0.0,0.0,0.0
1630051667904924974,1630051667,0,30306,2190.0,750.0,1404.0,0.0,0.0,0.0,0.0
1630051667993743964,1630051667,0,30306,2275.0,788.0,1454.0,0.0,0.0,0.0,0.0
1630051668105260281,1630051668,0,30306,2291.0,764.0,1400.0,0.0,0.0,0.0,0.0
1630051668194111639,1630051668,0,30306,2363.0,802.0,1433.0,0.0,0.0,0.0,0.0
1630051668305066635,1630051668,0,30306,2383.0,797.0,1415.0,0.0,0.0,0.0,0.0
1630051668403755371,1630051668,0,30306,2420.0,791.0,1388.0,0.0,0.0,0.0,0.0
1630051668493587008,1630051668,0,30306,2470.0,809.0,1474.0,0.0,0.0,0.0,0.0
1630051668604272982,1630051668,0,30306,2470.0,777.0,1412.0,0.0,0.0,0.0,0.0
1630051668705079212,1630051668,0,30306,2533.0,807.0,1453.0,0.0,0.0,0.0,0.0
1630051668814285043,1630051668,0,30306,2568.0,871.0,1522.0,0.0,0.0,0.0,0.0
1630051668903361930,1630051668,0,30306,2575.0,880.0,1553.0,0.0,0.0,0.0,0.0
1630051669013374727,1630051668,0,30306,2564.0,852.0,1516.0,0.0,0.0,0.0,0.0
1630051669104267033,1630051669,0,30306,2538.0,837.0,1449.0,0.0,0.0,0.0,0.0
1630051669214165120,1630051669,0,30306,2544.0,819.0,1431.0,0.0,0.0,0.0,0.0
1630051669302864079,1630051669,0,30306,2562.0,803.0,1415.0,0.0,0.0,0.0,0.0
1630051669393657272,1630051669,0,30306,2596.0,789.0,1413.0,0.0,0.0,0.0,0.0
1630051669503223761,1630051669,0,30306,2678.0,838.0,1489.0,0.0,0.0,0.0,0.0
1630051669602254643,1630051669,0,30306,2695.0,815.0,1456.0,0.0,0.0,0.0,0.0
1630051669712882825,1630051669,0,30306,2734.0,804.0,1465.0,0.0,0.0,0.0,0.0
1630051669800690052,1630051669,0,30306,2738.0,822.0,1456.0,0.0,0.0,0.0,0.0
1630051669901414059,1630051669,0,30306,2751.0,820.0,1458.0,0.0,0.0,0.0,0.0
1630051670001151659,1630051669,0,30306,2774.0,823.0,1465.0,0.0,0.0,0.0,0.0
1630051670101307263,1630051670,0,30306,2787.0,831.0,1448.0,0.0,0.0,0.0,0.0
1630051670211519537,1630051670,0,30306,2811.0,839.0,1464.0,0.0,0.0,0.0,0.0
1630051670299863365,1630051670,0,30306,2851.0,836.0,1441.0,0.0,0.0,0.0,0.0
1630051670409990349,1630051670,0,30306,2868.0,834.0,1443.0,0.0,0.0,0.0,0.0
1630051670499849140,1630051670,0,30306,2882.0,837.0,1449.0,0.0,0.0,0.0,0.0
1630051670599541347,1630051670,0,30306,2905.0,839.0,1471.0,0.0,0.0,0.0,0.0
1630051670710291871,1630051670,0,30306,2931.0,847.0,1480.0,0.0,0.0,0.0,0.0
1630051670799996177,1630051670,0,30306,2953.0,848.0,1479.0,0.0,0.0,0.0,0.0
1630051670909480407,1630051670,0,30306,2986.0,852.0,1446.0,0.0,0.0,0.0,0.0
1630051670998235309,1630051670,0,30306,3036.0,873.0,1464.0,0.0,0.0,0.0,0.0
1630051671109228849,1630051671,0,30306,3134.0,925.0,1549.0,0.0,0.0,0.0,0.0
1630051671209005584,1630051671,0,30306,3232.0,998.0,1656.0,0.0,0.0,0.0,0.0
1630051671299160451,1630051671,0,30306,3240.0,980.0,1662.0,0.0,0.0,0.0,0.0
1630051671408577916,1630051671,0,30306,3226.0,950.0,1609.0,0.0,0.0,0.0,0.0
1630051671498106355,1630051671,0,30306,3193.0,901.0,1542.0,0.0,0.0,0.0,0.0
1630051671609514776,1630051671,0,30306,3155.0,860.0,1484.0,0.0,0.0,0.0,0.0
1630051671698235177,1630051671,0,30306,3146.0,837.0,1447.0,0.0,0.0,0.0,0.0
1630051671808730204,1630051671,0,30306,3185.0,813.0,1411.0,0.0,0.0,0.0,0.0
1630051671909563711,1630051671,0,30306,3204.0,780.0,1379.0,0.0,0.0,0.0,0.0
1630051672007535281,1630051671,0,30306,3245.0,780.0,1384.0,0.0,0.0,0.0,0.0
1630051672107931621,1630051672,0,30306,3286.0,756.0,1357.0,0.0,0.0,0.0,0.0
1630051672197217996,1630051672,0,30306,3323.0,818.0,1403.0,0.0,0.0,0.0,0.0
1630051672306628672,1630051672,0,30306,3344.0,847.0,1434.0,0.0,0.0,0.0,0.0
1630051672398263765,1630051672,0,30306,3364.0,884.0,1440.0,0.0,0.0,0.0,0.0
1630051672506889495,1630051672,0,30306,3371.0,916.0,1463.0,0.0,0.0,0.0,0.0
1630051672596801094,1630051672,0,30306,3386.0,954.0,1495.0,0.0,0.0,0.0,0.0
1630051672706231161,1630051672,0,30306,3402.0,984.0,1530.0,0.0,0.0,0.0,0.0
1630051672806685727,1630051672,0,30306,3438.0,976.0,1538.0,0.0,0.0,0.0,0.0
1630051672896135236,1630051672,0,30306,3452.0,962.0,1548.0,0.0,0.0,0.0,0.0
1630051673005418831,1630051672,0,30306,3483.0,964.0,1560.0,0.0,0.0,0.0,0.0
1630051673106340328,1630051673,0,30306,3494.0,967.0,1568.0,0.0,0.0,0.0,0.0
1630051673194601163,1630051673,0,30306,3516.0,919.0,1560.0,0.0,0.0,0.0,0.0
1630051673305098112,1630051673,0,30306,3547.0,920.0,1590.0,0.0,0.0,0.0,0.0
1630051673394959662,1630051673,0,30306,3612.0,955.0,1660.0,0.0,0.0,0.0,0.0
1630051673506756438,1630051673,0,30306,3591.0,918.0,1621.0,0.0,0.0,0.0,0.0
1630051673605118476,1630051673,0,30306,3576.0,905.0,1601.0,0.0,0.0,0.0,0.0
1630051673705566336,1630051673,0,30306,3568.0,887.0,1574.0,0.0,0.0,0.0,0.0
1630051673805382312,1630051673,0,30306,3592.0,854.0,1489.0,0.0,0.0,0.0,0.0
1630051673893996378,1630051673,0,30306,3621.0,841.0,1439.0,0.0,0.0,0.0,0.0
1630051674003950135,1630051673,0,30306,3671.0,810.0,1377.0,0.0,0.0,0.0,0.0
1630051674104313268,1630051674,0,30306,3720.0,795.0,1366.0,0.0,0.0,0.0,0.0
1630051674215980763,1630051674,0,30306,3744.0,840.0,1371.0,0.0,0.0,0.0,0.0
1630051674304450412,1630051674,0,30306,3790.0,861.0,1381.0,0.0,0.0,0.0,0.0
1630051674394051484,1630051674,0,30306,3831.0,872.0,1394.0,0.0,0.0,0.0,0.0
1630051674503225371,1630051674,0,30306,3872.0,868.0,1404.0,0.0,0.0,0.0,0.0
1630051674602393295,1630051674,0,30306,3912.0,868.0,1425.0,0.0,0.0,0.0,0.0
1630051674714984594,1630051674,0,30306,3912.0,872.0,1441.0,0.0,0.0,0.0,0.0
1630051674803370385,1630051674,0,30306,3914.0,881.0,1465.0,0.0,0.0,0.0,0.0
1630051674928397305,1630051674,0,30306,3917.0,889.0,1481.0,0.0,0.0,0.0,0.0
1630051675005586031,1630051674,0,30306,3926.0,901.0,1508.0,0.0,0.0,0.0,0.0
1630051675095022021,1630051675,0,30306,3947.0,910.0,1508.0,0.0,0.0,0.0,0.0
1630051675212074970,1630051675,0,30306,3963.0,928.0,1522.0,0.0,0.0,0.0,0.0
1630051675306313756,1630051675,0,30306,4003.0,935.0,1523.0,0.0,0.0,0.0,0.0
1630051675416999187,1630051675,0,30306,4020.0,949.0,1498.0,0.0,0.0,0.0,0.0
1630051675506363740,1630051675,0,30306,4087.0,925.0,1465.0,0.0,0.0,0.0,0.0
1630051675595088064,1630051675,0,30306,4127.0,925.0,1453.0,0.0,0.0,0.0,0.0
1630051675705425027,1630051675,0,30306,4166.0,925.0,1452.0,0.0,0.0,0.0,0.0
1630051675805171576,1630051675,0,30306,4188.0,935.0,1405.0,0.0,0.0,0.0,0.0
1630051675895264698,1630051675,0,30306,4227.0,956.0,1364.0,0.0,0.0,0.0,0.0
1630051676004898984,1630051675,0,30306,4255.0,960.0,1322.0,0.0,0.0,0.0,0.0
1630051676095324205,1630051676,0,30306,4291.0,966.0,1293.0,0.0,0.0,0.0,0.0
1630051676208073863,1630051676,0,30306,4316.0,978.0,1244.0,0.0,0.0,0.0,0.0
1630051676295371821,1630051676,0,30306,4348.0,988.0,1187.0,0.0,0.0,0.0,0.0
1630051676403899061,1630051676,0,30306,4463.0,1062.0,1197.0,0.0,0.0,0.0,0.0
1630051676504665127,1630051676,0,30306,4482.0,1037.0,1145.0,0.0,0.0,0.0,0.0
1630051676614789633,1630051676,0,30306,4514.0,1011.0,1072.0,0.0,0.0,0.0,0.0
1630051676704158542,1630051676,0,30306,4552.0,985.0,1027.0,0.0,0.0,0.0,0.0
1630051676803276618,1630051676,0,30306,4564.0,973.0,1066.0,0.0,0.0,0.0,0.0
1630051676903535114,1630051676,0,30306,4566.0,988.0,1006.0,0.0,0.0,0.0,0.0
1630051677004355738,1630051676,0,30306,4576.0,980.0,997.0,0.0,0.0,0.0,0.0
1630051677104240001,1630051677,0,30306,4594.0,982.0,993.0,0.0,0.0,0.0,0.0
1630051677204009224,1630051677,0,30306,4628.0,965.0,1012.0,0.0,0.0,0.0,0.0
1630051677314369655,1630051677,0,30306,4656.0,952.0,1023.0,0.0,0.0,0.0,0.0
1630051677403316434,1630051677,0,30306,4679.0,951.0,1023.0,0.0,0.0,0.0,0.0
1630051677514292636,1630051677,0,30306,4705.0,953.0,1013.0,0.0,0.0,0.0,0.0
1630051677603057726,1630051677,0,30306,4758.0,964.0,1039.0,0.0,0.0,0.0,0.0
1630051677703588869,1630051677,0,30306,4820.0,974.0,1052.0,0.0,0.0,0.0,0.0
1630051677813932070,1630051677,0,30306,4818.0,999.0,1068.0,0.0,0.0,0.0,0.0
1630051677901152948,1630051677,0,30306,4816.0,1020.0,1077.0,0.0,0.0,0.0,0.0
1630051678010464830,1630051677,0,30306,4812.0,1041.0,1079.0,0.0,0.0,0.0,0.0
1630051678101629077,1630051678,0,30306,4812.0,1053.0,1073.0,0.0,0.0,0.0,0.0
1630051678201731637,1630051678,0,30306,4807.0,1070.0,1075.0,0.0,0.0,0.0,0.0
1630051678311128515,1630051678,0,30306,4802.0,1070.0,1090.0,0.0,0.0,0.0,0.0
1630051678401058725,1630051678,0,30306,4798.0,1068.0,1090.0,0.0,0.0,0.0,0.0
1630051678511145693,1630051678,0,30306,4808.0,1055.0,1092.0,0.0,0.0,0.0,0.0
1630051678601035227,1630051678,0,30306,4831.0,1050.0,1121.0,0.0,0.0,0.0,0.0
1630051678710642721,1630051678,0,30306,4864.0,1047.0,1166.0,0.0,0.0,0.0,0.0
1630051678800997069,1630051678,0,30306,4882.0,1073.0,1194.0,0.0,0.0,0.0,0.0
1630051678900212129,1630051678,0,30306,4921.0,1078.0,1249.0,0.0,0.0,0.0,0.0
1630051679009966250,1630051678,0,30306,4943.0,1127.0,1332.0,0.0,0.0,0.0,0.0
1630051679099407609,1630051679,0,30306,5002.0,1198.0,1479.0,0.0,0.0,0.0,0.0
1630051679210347774,1630051679,0,30306,4972.0,1199.0,1521.0,0.0,0.0,0.0,0.0
1630051679299197385,1630051679,0,30306,4913.0,1190.0,1569.0,0.0,0.0,0.0,0.0
1630051679410557323,1630051679,0,30306,4870.0,1193.0,1637.0,0.0,0.0,0.0,0.0
1630051679499833899,1630051679,0,30306,4809.0,1182.0,1696.0,0.0,0.0,0.0,0.0
1630051679598922378,1630051679,0,30306,4776.0,1194.0,1766.0,0.0,0.0,0.0,0.0
1630051679708962178,1630051679,0,30306,4750.0,1213.0,1836.0,0.0,0.0,0.0,0.0
1630051679798791105,1630051679,0,30306,4757.0,1226.0,1796.0,0.0,0.0,0.0,0.0
1630051679907778138,1630051679,0,30306,4786.0,1242.0,1722.0,0.0,0.0,0.0,0.0
1630051680008527694,1630051679,0,30306,4828.0,1255.0,1626.0,0.0,0.0,0.0,0.0
1630051680097641241,1630051680,0,30306,4866.0,1264.0,1515.0,0.0,0.0,0.0,0.0
1630051680209407505,1630051680,0,30306,4917.0,1266.0,1416.0,0.0,0.0,0.0,0.0
1630051680298495401,1630051680,0,30306,4952.0,1288.0,1336.0,0.0,0.0,0.0,0.0
1630051680408526620,1630051680,0,30306,4996.0,1305.0,1268.0,0.0,0.0,0.0,0.0
1630051680507975821,1630051680,0,30306,5027.0,1322.0,1235.0,0.0,0.0,0.0,0.0
1630051680618913018,1630051680,0,30306,5037.0,1347.0,1236.0,0.0,0.0,0.0,0.0
1630051680707824993,1630051680,0,30306,5039.0,1360.0,1223.0,0.0,0.0,0.0,0.0
1630051680798307146,1630051680,0,30306,5078.0,1353.0,1174.0,0.0,0.0,0.0,0.0
1630051680908002439,1630051680,0,30306,5133.0,1353.0,1136.0,0.0,0.0,0.0,0.0
1630051680998002798,1630051680,0,30306,5181.0,1363.0,1102.0,0.0,0.0,0.0,0.0
1630051681107844226,1630051681,0,30306,5217.0,1380.0,1077.0,0.0,0.0,0.0,0.0
1630051681207969691,1630051681,0,30306,5225.0,1428.0,1060.0,0.0,0.0,0.0,0.0
1630051681295949932,1630051681,0,30306,5208.0,1394.0,953.0,0.0,0.0,0.0,0.0
1630051681405317700,1630051681,0,30306,5297.0,1435.0,1012.0,0.0,0.0,0.0,0.0
1630051681506145273,1630051681,0,30306,5303.0,1436.0,1014.0,0.0,0.0,0.0,0.0
1630051681605717136,1630051681,0,30306,5306.0,1441.0,1038.0,0.0,0.0,0.0,0.0
1630051681705434990,1630051681,0,30306,5296.0,1462.0,1062.0,0.0,0.0,0.0,0.0
1630051681816019094,1630051681,0,30306,5306.0,1485.0,1035.0,0.0,0.0,0.0,0.0
1630051681905947970,1630051681,0,30306,5297.0,1498.0,1002.0,0.0,0.0,0.0,0.0
1630051682005836585,1630051681,0,30306,5284.0,1492.0,933.0,0.0,0.0,0.0,0.0
1630051682105676575,1630051682,0,30306,5269.0,1494.0,879.0,0.0,0.0,0.0,0.0
1630051682205146311,1630051682,0,30306,5288.0,1502.0,862.0,0.0,0.0,0.0,0.0
1630051682305026039,1630051682,0,30306,5287.0,1507.0,829.0,0.0,0.0,0.0,0.0
1630051682405259686,1630051682,0,30306,5287.0,1517.0,807.0,0.0,0.0,0.0,0.0
1630051682494019205,1630051682,0,30306,5287.0,1531.0,761.0,0.0,0.0,0.0,0.0
1630051682604232245,1630051682,0,30306,5282.0,1550.0,731.0,0.0,0.0,0.0,0.0
1630051682703727572,1630051682,0,30306,5267.0,1570.0,674.0,0.0,0.0,0.0,0.0
1630051682793973345,1630051682,0,30306,5272.0,1623.0,645.0,0.0,0.0,0.0,0.0
1630051682903106313,1630051682,0,30306,5276.0,1704.0,577.0,0.0,0.0,0.0,0.0
1630051683003281302,1630051682,0,30306,5292.0,1746.0,557.0,0.0,0.0,0.0,0.0
1630051683104737570,1630051683,0,30306,5308.0,1784.0,599.0,0.0,0.0,0.0,0.0
1630051683202871300,1630051683,0,30306,5327.0,1802.0,662.0,0.0,0.0,0.0,0.0
1630051683313720783,1630051683,0,30306,5357.0,1816.0,720.0,0.0,0.0,0.0,0.0
1630051683402359592,1630051683,0,30306,5384.0,1837.0,773.0,0.0,0.0,0.0,0.0
1630051683512551677,1630051683,0,30306,5395.0,1841.0,852.0,0.0,0.0,0.0,0.0
1630051683602825769,1630051683,0,30306,5406.0,1869.0,872.0,0.0,0.0,0.0,0.0
1630051683701908710,1630051683,0,30306,5404.0,1893.0,841.0,0.0,0.0,0.0,0.0
1630051683813206903,1630051683,0,30306,5357.0,1939.0,817.0,0.0,0.0,0.0,0.0
1630051683901663073,1630051683,0,30306,5313.0,1964.0,826.0,0.0,0.0,0.0,0.0
1630051684011090194,1630051683,0,30306,5277.0,1985.0,862.0,0.0,0.0,0.0,0.0
1630051684101121534,1630051684,0,30306,5255.0,2018.0,876.0,0.0,0.0,0.0,0.0
1630051684211515322,1630051684,0,30306,5252.0,2047.0,904.0,0.0,0.0,0.0,0.0
1630051684301617922,1630051684,0,30306,5232.0,2076.0,945.0,0.0,0.0,0.0,0.0
1630051684401367950,1630051684,0,30306,5249.0,2112.0,963.0,0.0,0.0,0.0,0.0
1630051684510490071,1630051684,0,30306,5260.0,2168.0,933.0,0.0,0.0,0.0,0.0
1630051684600840997,1630051684,0,30306,5278.0,2207.0,946.0,0.0,0.0,0.0,0.0
1630051684711421315,1630051684,0,30306,5288.0,2239.0,986.0,0.0,0.0,0.0,0.0
1630051684800142129,1630051684,0,30306,5263.0,2282.0,1028.0,0.0,0.0,0.0,0.0
1630051684928735984,1630051684,0,30306,5258.0,2326.0,1053.0,0.0,0.0,0.0,0.0
1630051685009805100,1630051684,0,30306,5247.0,2374.0,1060.0,0.0,0.0,0.0,0.0
1630051685098504818,1630051685,0,30306,5241.0,2415.0,1083.0,0.0,0.0,0.0,0.0
1630051685209017005,1630051685,0,30306,5243.0,2440.0,1100.0,0.0,0.0,0.0,0.0
1630051685308246223,1630051685,0,30306,5245.0,2471.0,1093.0,0.0,0.0,0.0,0.0
1630051685419675664,1630051685,0,30306,5250.0,2480.0,1098.0,0.0,0.0,0.0,0.0
1630051685508572492,1630051685,0,30306,5251.0,2492.0,1081.0,0.0,0.0,0.0,0.0
1630051685597472290,1630051685,0,30306,5255.0,2499.0,1056.0,0.0,0.0,0.0,0.0
1630051685707510495,1630051685,0,30306,5253.0,2508.0,1041.0,0.0,0.0,0.0,0.0
1630051685796583360,1630051685,0,30306,5223.0,2527.0,1026.0,0.0,0.0,0.0,0.0
1630051685907903636,1630051685,0,30306,5191.0,2552.0,1027.0,0.0,0.0,0.0,0.0
1630051686008397652,1630051685,0,30306,5171.0,2577.0,1048.0,0.0,0.0,0.0,0.0
1630051686117368002,1630051686,0,30306,5159.0,2591.0,1074.0,0.0,0.0,0.0,0.0
1630051686206091620,1630051686,0,30306,5147.0,2617.0,1107.0,0.0,0.0,0.0,0.0
1630051686297636540,1630051686,0,30306,5180.0,2654.0,1036.0,0.0,0.0,0.0,0.0
1630051686407321841,1630051686,0,30306,5117.0,2685.0,1149.0,0.0,0.0,0.0,0.0
1630051686497914414,1630051686,0,30306,5085.0,2745.0,1173.0,0.0,0.0,0.0,0.0
1630051686607922118,1630051686,0,30306,5072.0,2802.0,1187.0,0.0,0.0,0.0,0.0
1630051686707472131,1630051686,0,30306,5076.0,2860.0,1180.0,0.0,0.0,0.0,0.0
1630051686818107800,1630051686,0,30306,5114.0,2902.0,1172.0,0.0,0.0,0.0,0.0
1630051686907641351,1630051686,0,30306,5141.0,2926.0,1132.0,0.0,0.0,0.0,0.0
1630051687018053734,1630051686,0,30306,5158.0,2958.0,1114.0,0.0,0.0,0.0,0.0
1630051687106473037,1630051687,0,30306,5174.0,2994.0,1073.0,0.0,0.0,0.0,0.0
1630051687218375097,1630051687,0,30306,5174.0,3031.0,1028.0,0.0,0.0,0.0,0.0
1630051687307107439,1630051687,0,30306,5168.0,3060.0,974.0,0.0,0.0,0.0,0.0
1630051687417790157,1630051687,0,30306,5166.0,3083.0,914.0,0.0,0.0,0.0,0.0
1630051687505917656,1630051687,0,30306,5179.0,3087.0,882.0,0.0,0.0,0.0,0.0
1630051687595869740,1630051687,0,30306,5157.0,3107.0,827.0,0.0,0.0,0.0,0.0
1630051687705374648,1630051687,0,30306,5153.0,3125.0,769.0,0.0,0.0,0.0,0.0
1630051687806841718,1630051687,0,30306,5171.0,3139.0,762.0,0.0,0.0,0.0,0.0
1630051687915914421,1630051687,0,30306,5174.0,3190.0,707.0,0.0,0.0,0.0,0.0
1630051688004527733,1630051687,0,30306,5172.0,3256.0,632.0,0.0,0.0,0.0,0.0
1630051688114412842,1630051688,0,30306,5181.0,3297.0,591.0,0.0,0.0,0.0,0.0
1630051688204099029,1630051688,0,30306,5167.0,3401.0,438.0,0.0,0.0,0.0,0.0
1630051688304142765,1630051688,0,30306,5152.0,3446.0,381.0,0.0,0.0,0.0,0.0
1630051688405000657,1630051688,0,30306,5119.0,3543.0,200.0,0.0,0.0,0.0,0.0
1630051688504197304,1630051688,0,30306,5139.0,3533.0,240.0,0.0,0.0,0.0,0.0
1630051688614777462,1630051688,0,30306,5151.0,3524.0,312.0,0.0,0.0,0.0,0.0
1630051688703750713,1630051688,0,30306,5162.0,3497.0,393.0,0.0,0.0,0.0,0.0
1630051688813833460,1630051688,0,30306,5159.0,3501.0,468.0,0.0,0.0,0.0,0.0
1630051688903330435,1630051688,0,30306,5130.0,3571.0,495.0,0.0,0.0,0.0,0.0
1630051689002806633,1630051688,0,30306,5131.0,3590.0,480.0,0.0,0.0,0.0,0.0
1630051689113864744,1630051689,0,30306,5124.0,3640.0,491.0,0.0,0.0,0.0,0.0
1630051689203483536,1630051689,0,30306,5129.0,3700.0,516.0,0.0,0.0,0.0,0.0
1630051689314368892,1630051689,0,30306,5149.0,3726.0,546.0,0.0,0.0,0.0,0.0
1630051689403216284,1630051689,0,30306,5160.0,3753.0,566.0,0.0,0.0,0.0,0.0
1630051689514588677,1630051689,0,30306,5147.0,3775.0,591.0,0.0,0.0,0.0,0.0
1630051689603313891,1630051689,0,30306,5133.0,3773.0,547.0,0.0,0.0,0.0,0.0
1630051689714307959,1630051689,0,30306,5118.0,3740.0,583.0,0.0,0.0,0.0,0.0
1630051689802916001,1630051689,0,30306,5059.0,3770.0,597.0,0.0,0.0,0.0,0.0
1630051689912630650,1630051689,0,30306,5030.0,3774.0,622.0,0.0,0.0,0.0,0.0
1630051690003727300,1630051689,0,30306,5004.0,3790.0,663.0,0.0,0.0,0.0,0.0
1630051690103689223,1630051690,0,30306,5015.0,3818.0,663.0,0.0,0.0,0.0,0.0
1630051690202518356,1630051690,0,30306,5041.0,3845.0,629.0,0.0,0.0,0.0,0.0
1630051690303582811,1630051690,0,30306,5091.0,3892.0,641.0,0.0,0.0,0.0,0.0
1630051690412258965,1630051690,0,30306,5153.0,3938.0,663.0,0.0,0.0,0.0,0.0
1630051690503393270,1630051690,0,30306,5193.0,3978.0,688.0,0.0,0.0,0.0,0.0
1630051690612311895,1630051690,0,30306,5221.0,4006.0,690.0,0.0,0.0,0.0,0.0
1630051690702458680,1630051690,0,30306,5210.0,4071.0,607.0,0.0,0.0,0.0,0.0
1630051690811590768,1630051690,0,30306,5180.0,4121.0,540.0,0.0,0.0,0.0,0.0
1630051690902230227,1630051690,0,30306,5152.0,4175.0,495.0,0.0,0.0,0.0,0.0
1630051691012132971,1630051690,0,30306,5126.0,4218.0,483.0,0.0,0.0,0.0,0.0
1630051691112126989,1630051691,0,30306,5117.0,4261.0,483.0,0.0,0.0,0.0,0.0
1630051691202829411,1630051691,0,30306,5091.0,4307.0,490.0,0.0,0.0,0.0,0.0
1630051691313506025,1630051691,0,30306,5074.0,4339.0,469.0,0.0,0.0,0.0,0.0
1630051691401905916,1630051691,0,30306,5070.0,4350.0,500.0,0.0,0.0,0.0,0.0
1630051691502580686,1630051691,0,30306,5042.0,4380.0,474.0,0.0,0.0,0.0,0.0
1630051691612816464,1630051691,0,30306,4980.0,4404.0,490.0,0.0,0.0,0.0,0.0
1630051691701771933,1630051691,0,30306,5018.0,4367.0,550.0,0.0,0.0,0.0,0.0
1630051691811403899,1630051691,0,30306,5027.0,4354.0,562.0,0.0,0.0,0.0,0.0
1630051691902785878,1630051691,0,30306,5052.0,4367.0,559.0,0.0,0.0,0.0,0.0
1630051692011838245,1630051691,0,30306,5103.0,4397.0,566.0,0.0,0.0,0.0,0.0
1630051692111799327,1630051692,0,30306,5099.0,4429.0,573.0,0.0,0.0,0.0,0.0
1630051692202995132,1630051692,0,30306,5109.0,4470.0,630.0,0.0,0.0,0.0,0.0
1630051692311624504,1630051692,0,30306,5110.0,4512.0,673.0,0.0,0.0,0.0,0.0
1630051692401034629,1630051692,0,30306,5106.0,4559.0,712.0,0.0,0.0,0.0,0.0
1630051692513050703,1630051692,0,30306,5131.0,4605.0,738.0,0.0,0.0,0.0,0.0
1630051692602049211,1630051692,0,30306,5189.0,4655.0,761.0,0.0,0.0,0.0,0.0
1630051692711253880,1630051692,0,30306,5200.0,4691.0,771.0,0.0,0.0,0.0,0.0
1630051692800079036,1630051692,0,30306,5211.0,4713.0,779.0,0.0,0.0,0.0,0.0
1630051692911342756,1630051692,0,30306,5211.0,4749.0,783.0,0.0,0.0,0.0,0.0
1630051693010891916,1630051692,0,30306,5220.0,4796.0,807.0,0.0,0.0,0.0,0.0
1630051693100508523,1630051693,0,30306,5197.0,4870.0,720.0,0.0,0.0,0.0,0.0
1630051693209588098,1630051693,0,30306,5160.0,4930.0,632.0,0.0,0.0,0.0,0.0
1630051693299456290,1630051693,0,30306,5109.0,4961.0,525.0,0.0,0.0,0.0,0.0
1630051693410185157,1630051693,0,30306,5070.0,4991.0,413.0,0.0,0.0,0.0,0.0
1630051693510298585,1630051693,0,30306,5036.0,5013.0,332.0,0.0,0.0,0.0,0.0
1630051693610642216,1630051693,0,30306,5018.0,4991.0,331.0,0.0,0.0,0.0,0.0
1630051693709347642,1630051693,0,30306,4973.0,4962.0,348.0,0.0,0.0,0.0,0.0
1630051693798342854,1630051693,0,30306,4954.0,4957.0,365.0,0.0,0.0,0.0,0.0
1630051693909432411,1630051693,0,30306,4949.0,4972.0,386.0,0.0,0.0,0.0,0.0
1630051693998274402,1630051693,0,30306,4925.0,4999.0,360.0,0.0,0.0,0.0,0.0
1630051694109884678,1630051694,0,30306,4936.0,5048.0,358.0,0.0,0.0,0.0,0.0
1630051694210391727,1630051694,0,30306,4972.0,5101.0,371.0,0.0,0.0,0.0,0.0
1630051694320623124,1630051694,0,30306,4995.0,5142.0,372.0,0.0,0.0,0.0,0.0
1630051694410296826,1630051694,0,30306,5002.0,5174.0,382.0,0.0,0.0,0.0,0.0
1630051694523125339,1630051694,0,30306,4982.0,5208.0,362.0,0.0,0.0,0.0,0.0
1630051694609445816,1630051694,0,30306,4959.0,5229.0,357.0,0.0,0.0,0.0,0.0
1630051694710903158,1630051694,0,30306,4946.0,5237.0,367.0,0.0,0.0,0.0,0.0
1630051694800267024,1630051694,0,30306,4952.0,5233.0,420.0,0.0,0.0,0.0,0.0
1630051694930567058,1630051694,0,30306,4958.0,5241.0,426.0,0.0,0.0,0.0,0.0
1630051695001871051,1630051694,0,30306,4980.0,5275.0,409.0,0.0,0.0,0.0,0.0
1630051695110202499,1630051695,0,30306,4995.0,5263.0,467.0,0.0,0.0,0.0,0.0
1630051695210893102,1630051695,0,30306,4909.0,5312.0,527.0,0.0,0.0,0.0,0.0
1630051695320901841,1630051695,0,30306,4867.0,5358.0,646.0,0.0,0.0,0.0,0.0
1630051695409888869,1630051695,0,30306,4868.0,5391.0,773.0,0.0,0.0,0.0,0.0
1630051695499912915,1630051695,0,30306,4854.0,5409.0,898.0,0.0,0.0,0.0,0.0
1630051695609336169,1630051695,0,30306,4827.0,5435.0,989.0,0.0,0.0,0.0,0.0
1630051695699836660,1630051695,0,30306,4847.0,5460.0,1046.0,0.0,0.0,0.0,0.0
1630051695809845577,1630051695,0,30306,4875.0,5560.0,999.0,0.0,0.0,0.0,0.0
1630051695899781859,1630051695,0,30306,4864.0,5579.0,1032.0,0.0,0.0,0.0,0.0
1630051696008985262,1630051695,0,30306,4932.0,5583.0,995.0,0.0,0.0,0.0,0.0
1630051696109029202,1630051696,0,30306,4995.0,5556.0,1022.0,0.0,0.0,0.0,0.0
1630051696209450510,1630051696,0,30306,5039.0,5536.0,1056.0,0.0,0.0,0.0,0.0
1630051696308461737,1630051696,0,30306,5143.0,5577.0,1152.0,0.0,0.0,0.0,0.0
1630051696419775024,1630051696,0,30306,5228.0,5600.0,1195.0,0.0,0.0,0.0,0.0
1630051696508007512,1630051696,0,30306,5226.0,5655.0,1120.0,0.0,0.0,0.0,0.0
1630051696619182364,1630051696,0,30306,5251.0,5632.0,1174.0,0.0,0.0,0.0,0.0
1630051696708255460,1630051696,0,30306,5281.0,5670.0,1212.0,0.0,0.0,0.0,0.0
1630051696818389105,1630051696,0,30306,5253.0,5680.0,1228.0,0.0,0.0,0.0,0.0
1630051696908270218,1630051696,0,30306,5219.0,5706.0,1220.0,0.0,0.0,0.0,0.0
1630051696997846726,1630051696,0,30306,5165.0,5763.0,1135.0,0.0,0.0,0.0,0.0
1630051697107816684,1630051697,0,30306,5130.0,5792.0,1187.0,0.0,0.0,0.0,0.0
1630051697197073077,1630051697,0,30306,5084.0,5842.0,1231.0,0.0,0.0,0.0,0.0
1630051697307354082,1630051697,0,30306,5071.0,5827.0,1357.0,0.0,0.0,0.0,0.0
1630051697407244455,1630051697,0,30306,5106.0,5812.0,1477.0,0.0,0.0,0.0,0.0
1630051697505925349,1630051697,0,30306,5089.0,5810.0,1516.0,0.0,0.0,0.0,0.0
1630051697606059139,1630051697,0,30306,5096.0,5795.0,1568.0,0.0,0.0,0.0,0.0
1630051697717472563,1630051697,0,30306,5116.0,5797.0,1582.0,0.0,0.0,0.0,0.0
1630051697806480336,1630051697,0,30306,5101.0,5817.0,1597.0,0.0,0.0,0.0,0.0
1630051697915315723,1630051697,0,30306,5096.0,5853.0,1589.0,0.0,0.0,0.0,0.0
1630051698006506281,1630051697,0,30306,5074.0,5921.0,1532.0,0.0,0.0,0.0,0.0
1630051698106891756,1630051698,0,30306,5029.0,5963.0,1412.0,0.0,0.0,0.0,0.0
1630051698206703224,1630051698,0,30306,4985.0,5997.0,1363.0,0.0,0.0,0.0,0.0
1630051698306974940,1630051698,0,30306,4937.0,6025.0,1375.0,0.0,0.0,0.0,0.0
1630051698416271827,1630051698,0,30306,4958.0,6081.0,1395.0,0.0,0.0,0.0,0.0
1630051698505176782,1630051698,0,30306,4986.0,6195.0,1315.0,0.0,0.0,0.0,0.0
1630051698616675498,1630051698,0,30306,4989.0,6236.0,1308.0,0.0,0.0,0.0,0.0
1630051698706262078,1630051698,0,30306,5009.0,6273.0,1287.0,0.0,0.0,0.0,0.0
1630051698805743407,1630051698,0,30306,5012.0,6287.0,1273.0,0.0,0.0,0.0,0.0
1630051698905755062,1630051698,0,30306,5007.0,6303.0,1280.0,0.0,0.0,0.0,0.0
1630051699003514874,1630051698,0,30306,5004.0,6317.0,1287.0,0.0,0.0,0.0,0.0
1630051699113433942,1630051699,0,30306,4969.0,6307.0,1306.0,0.0,0.0,0.0,0.0
1630051699204658486,1630051699,0,30306,4932.0,6330.0,1333.0,0.0,0.0,0.0,0.0
1630051699313382749,1630051699,0,30306,4906.0,6343.0,1260.0,0.0,0.0,0.0,0.0
1630051699413388209,1630051699,0,30306,4895.0,6334.0,1207.0,0.0,0.0,0.0,0.0
1630051699504045077,1630051699,0,30306,4887.0,6337.0,1147.0,0.0,0.0,0.0,0.0
1630051699613937597,1630051699,0,30306,4907.0,6393.0,1199.0,0.0,0.0,0.0,0.0
1630051699703764845,1630051699,0,30306,4923.0,6439.0,1280.0,0.0,0.0,0.0,0.0
1630051699810301006,1630051699,0,30306,4911.0,6500.0,1169.0,0.0,0.0,0.0,0.0
1630051699909272755,1630051699,0,30306,4946.0,6571.0,1288.0,0.0,0.0,0.0,0.0
1630051700020587594,1630051699,0,30306,4968.0,6618.0,1409.0,0.0,0.0,0.0,0.0
1630051700109177768,1630051700,0,30306,4988.0,6656.0,1503.0,0.0,0.0,0.0,0.0
1630051700197839028,1630051700,0,30306,4959.0,6638.0,1520.0,0.0,0.0,0.0,0.0
1630051700316899376,1630051700,0,30306,4957.0,6628.0,1465.0,0.0,0.0,0.0,0.0
1630051700408460342,1630051700,0,30306,4915.0,6678.0,1552.0,0.0,0.0,0.0,0.0
1630051700518571991,1630051700,0,30306,4894.0,6737.0,1679.0,0.0,0.0,0.0,0.0
1630051700608405534,1630051700,0,30306,4897.0,6780.0,1715.0,0.0,0.0,0.0,0.0
1630051700697665381,1630051700,0,30306,4896.0,6810.0,1670.0,0.0,0.0,0.0,0.0
1630051700807359270,1630051700,0,30306,4941.0,6866.0,1605.0,0.0,0.0,0.0,0.0
1630051700907208240,1630051700,0,30306,4972.0,6923.0,1505.0,0.0,0.0,0.0,0.0
1630051701007112979,1630051700,0,30306,5002.0,6996.0,1442.0,0.0,0.0,0.0,0.0
1630051701107321991,1630051701,0,30306,5028.0,7054.0,1350.0,0.0,0.0,0.0,0.0
1630051701218058777,1630051701,0,30306,5043.0,7106.0,1253.0,0.0,0.0,0.0,0.0
1630051701306495719,1630051701,0,30306,5065.0,7131.0,1205.0,0.0,0.0,0.0,0.0
1630051701417768445,1630051701,0,30306,5046.0,7156.0,1190.0,0.0,0.0,0.0,0.0
1630051701507161109,1630051701,0,30306,5011.0,7228.0,1083.0,0.0,0.0,0.0,0.0
1630051701607404701,1630051701,0,30306,5009.0,7243.0,1080.0,0.0,0.0,0.0,0.0
1630051701717609229,1630051701,0,30306,4999.0,7269.0,1104.0,0.0,0.0,0.0,0.0
1630051701806495307,1630051701,0,30306,5014.0,7291.0,1097.0,0.0,0.0,0.0,0.0
1630051701917651582,1630051701,0,30306,5024.0,7332.0,1060.0,0.0,0.0,0.0,0.0
1630051702007136496,1630051701,0,30306,5023.0,7376.0,1022.0,0.0,0.0,0.0,0.0
1630051702107908510,1630051702,0,30306,5026.0,7403.0,993.0,0.0,0.0,0.0,0.0
1630051702216949106,1630051702,0,30306,5035.0,7438.0,963.0,0.0,0.0,0.0,0.0
1630051702306599655,1630051702,0,30306,5018.0,7493.0,960.0,0.0,0.0,0.0,0.0
1630051702416882036,1630051702,0,30306,5025.0,7531.0,941.0,0.0,0.0,0.0,0.0
1630051702507023180,1630051702,0,30306,5038.0,7569.0,956.0,0.0,0.0,0.0,0.0
1630051702617874962,1630051702,0,30306,5032.0,7596.0,950.0,0.0,0.0,0.0,0.0
1630051702706457756,1630051702,0,30306,5044.0,7648.0,942.0,0.0,0.0,0.0,0.0
1630051702805566163,1630051702,0,30306,5032.0,7750.0,841.0,0.0,0.0,0.0,0.0
1630051702906750696,1630051702,0,30306,5025.0,7831.0,789.0,0.0,0.0,0.0,0.0
1630051703005468979,1630051702,0,30306,5005.0,7893.0,765.0,0.0,0.0,0.0,0.0
1630051703116478201,1630051703,0,30306,4975.0,7931.0,792.0,0.0,0.0,0.0,0.0
1630051703206298677,1630051703,0,30306,4935.0,7986.0,744.0,0.0,0.0,0.0,0.0
1630051703316917456,1630051703,0,30306,4907.0,8045.0,770.0,0.0,0.0,0.0,0.0
1630051703405853405,1630051703,0,30306,4932.0,8074.0,752.0,0.0,0.0,0.0,0.0
1630051703515823599,1630051703,0,30306,4965.0,8049.0,825.0,0.0,0.0,0.0,0.0
1630051703604948485,1630051703,0,30306,4982.0,8030.0,886.0,0.0,0.0,0.0,0.0
1630051703716242195,1630051703,0,30306,5014.0,8026.0,919.0,0.0,0.0,0.0,0.0
1630051703805961895,1630051703,0,30306,5033.0,8000.0,1022.0,0.0,0.0,0.0,0.0
1630051703905080643,1630051703,0,30306,5025.0,7934.0,994.0,0.0,0.0,0.0,0.0
1630051704004296394,1630051703,0,30306,5004.0,7895.0,947.0,0.0,0.0,0.0,0.0
1630051704104437882,1630051704,0,30306,4999.0,7860.0,941.0,0.0,0.0,0.0,0.0
1630051704214705412,1630051704,0,30306,4987.0,7875.0,936.0,0.0,0.0,0.0,0.0
1630051704304633040,1630051704,0,30306,4976.0,7898.0,968.0,0.0,0.0,0.0,0.0
1630051704415075693,1630051704,0,30306,4972.0,7936.0,988.0,0.0,0.0,0.0,0.0
1630051704505053734,1630051704,0,30306,4951.0,8009.0,949.0,0.0,0.0,0.0,0.0
1630051704603984386,1630051704,0,30306,4931.0,8051.0,949.0,0.0,0.0,0.0,0.0
1630051704727644333,1630051704,0,30306,4919.0,8097.0,943.0,0.0,0.0,0.0,0.0
1630051704807181731,1630051704,0,30306,4911.0,8131.0,905.0,0.0,0.0,0.0,0.0
1630051704906589545,1630051704,0,30306,4910.0,8180.0,869.0,0.0,0.0,0.0,0.0
1630051705005510469,1630051704,0,30306,4889.0,8217.0,856.0,0.0,0.0,0.0,0.0
1630051705117499516,1630051705,0,30306,4877.0,8309.0,789.0,0.0,0.0,0.0,0.0
1630051705204302634,1630051705,0,30306,4883.0,8326.0,837.0,0.0,0.0,0.0,0.0
1630051705314405173,1630051705,0,30306,4882.0,8353.0,865.0,0.0,0.0,0.0,0.0
1630051705414380158,1630051705,0,30306,4876.0,8398.0,899.0,0.0,0.0,0.0,0.0
1630051705503429030,1630051705,0,30306,4854.0,8472.0,951.0,0.0,0.0,0.0,0.0
1630051705613458636,1630051705,0,30306,4854.0,8476.0,1019.0,0.0,0.0,0.0,0.0
1630051705704454801,1630051705,0,30306,4855.0,8482.0,1092.0,0.0,0.0,0.0,0.0
1630051705814287350,1630051705,0,30306,4868.0,8488.0,1135.0,0.0,0.0,0.0,0.0
1630051705903672764,1630051705,0,30306,4889.0,8505.0,1175.0,0.0,0.0,0.0,0.0
1630051706013516613,1630051705,0,30306,4896.0,8504.0,1178.0,0.0,0.0,0.0,0.0
1630051706104360175,1630051706,0,30306,4890.0,8516.0,1171.0,0.0,0.0,0.0,0.0
1630051706245159669,1630051706,0,30306,4881.0,8543.0,1195.0,0.0,0.0,0.0,0.0
1630051706313926259,1630051706,0,30306,4867.0,8570.0,1282.0,0.0,0.0,0.0,0.0
1630051706403774004,1630051706,0,30306,4836.0,8600.0,1210.0,0.0,0.0,0.0,0.0
1630051706513031014,1630051706,0,30306,4808.0,8640.0,1140.0,0.0,0.0,0.0,0.0
1630051706603872366,1630051706,0,30306,4770.0,8704.0,1027.0,0.0,0.0,0.0,0.0
1630051706714248366,1630051706,0,30306,4811.0,8707.0,1041.0,0.0,0.0,0.0,0.0
1630051706803844379,1630051706,0,30306,4867.0,8715.0,1053.0,0.0,0.0,0.0,0.0
1630051706914718750,1630051706,0,30306,4933.0,8725.0,1058.0,0.0,0.0,0.0,0.0
1630051707003794836,1630051706,0,30306,4965.0,8752.0,1051.0,0.0,0.0,0.0,0.0
1630051707113889417,1630051707,0,30306,4989.0,8812.0,964.0,0.0,0.0,0.0,0.0
1630051707202634680,1630051707,0,30306,5024.0,8836.0,992.0,0.0,0.0,0.0,0.0
1630051707312693536,1630051707,0,30306,5056.0,8866.0,994.0,0.0,0.0,0.0,0.0
1630051707413140531,1630051707,0,30306,5043.0,8913.0,1014.0,0.0,0.0,0.0,0.0
1630051707502643302,1630051707,0,30306,5015.0,8977.0,1018.0,0.0,0.0,0.0,0.0
1630051707612277309,1630051707,0,30306,5003.0,9015.0,1064.0,0.0,0.0,0.0,0.0
1630051707701107059,1630051707,0,30306,4991.0,9050.0,1111.0,0.0,0.0,0.0,0.0
1630051707811617346,1630051707,0,30306,4975.0,9086.0,1143.0,0.0,0.0,0.0,0.0
1630051707910629817,1630051707,0,30306,4977.0,9147.0,1159.0,0.0,0.0,0.0,0.0
1630051708011269928,1630051707,0,30306,4973.0,9208.0,1169.0,0.0,0.0,0.0,0.0
1630051708112166102,1630051708,0,30306,4961.0,9258.0,1174.0,0.0,0.0,0.0,0.0
1630051708212207996,1630051708,0,30306,4955.0,9293.0,1168.0,0.0,0.0,0.0,0.0
1630051708311487207,1630051708,0,30306,4935.0,9317.0,1160.0,0.0,0.0,0.0,0.0
1630051708400969208,1630051708,0,30306,4944.0,9327.0,1177.0,0.0,0.0,0.0,0.0
1630051708511036848,1630051708,0,30306,4980.0,9298.0,1246.0,0.0,0.0,0.0,0.0
1630051708601025817,1630051708,0,30306,4984.0,9297.0,1285.0,0.0,0.0,0.0,0.0
1630051708711182089,1630051708,0,30306,5015.0,9319.0,1257.0,0.0,0.0,0.0,0.0
1630051708811669317,1630051708,0,30306,4961.0,9399.0,1173.0,0.0,0.0,0.0,0.0
1630051708911043859,1630051708,0,30306,4895.0,9484.0,1071.0,0.0,0.0,0.0,0.0
1630051709011815708,1630051708,0,30306,4818.0,9517.0,1007.0,0.0,0.0,0.0,0.0
1630051709120943116,1630051709,0,30306,4745.0,9540.0,1003.0,0.0,0.0,0.0,0.0
1630051709211605334,1630051709,0,30306,4682.0,9544.0,995.0,0.0,0.0,0.0,0.0
1630051709301577694,1630051709,0,30306,4632.0,9537.0,1000.0,0.0,0.0,0.0,0.0
1630051709411707012,1630051709,0,30306,4630.0,9519.0,1001.0,0.0,0.0,0.0,0.0
1630051709502933924,1630051709,0,30306,4584.0,9516.0,1032.0,0.0,0.0,0.0,0.0
1630051709613057671,1630051709,0,30306,4531.0,9515.0,1073.0,0.0,0.0,0.0,0.0
1630051709711744236,1630051709,0,30306,4473.0,9520.0,1106.0,0.0,0.0,0.0,0.0
1630051709822540432,1630051709,0,30306,4441.0,9499.0,1122.0,0.0,0.0,0.0,0.0
1630051709912009962,1630051709,0,30306,4426.0,9461.0,1142.0,0.0,0.0,0.0,0.0
1630051710002214644,1630051709,0,30306,4380.0,9451.0,1182.0,0.0,0.0,0.0,0.0
1630051710110785562,1630051710,0,30306,4314.0,9457.0,1233.0,0.0,0.0,0.0,0.0
1630051710211195432,1630051710,0,30306,4289.0,9479.0,1251.0,0.0,0.0,0.0,0.0
1630051710321264422,1630051710,0,30306,4245.0,9503.0,1277.0,0.0,0.0,0.0,0.0
1630051710410859632,1630051710,0,30306,4195.0,9513.0,1307.0,0.0,0.0,0.0,0.0
1630051710499764901,1630051710,0,30306,4167.0,9540.0,1332.0,0.0,0.0,0.0,0.0
1630051710610968891,1630051710,0,30306,4152.0,9587.0,1374.0,0.0,0.0,0.0,0.0
1630051710716518275,1630051710,0,30306,4105.0,9620.0,1443.0,0.0,0.0,0.0,0.0
1630051710820248787,1630051710,0,30306,4087.0,9629.0,1473.0,0.0,0.0,0.0,0.0
1630051710909263634,1630051710,0,30306,4098.0,9638.0,1460.0,0.0,0.0,0.0,0.0
1630051711020068725,1630051710,0,30306,4127.0,9634.0,1460.0,0.0,0.0,0.0,0.0
1630051711110357438,1630051711,0,30306,4120.0,9645.0,1454.0,0.0,0.0,0.0,0.0
1630051711212078829,1630051711,0,30306,4098.0,9664.0,1445.0,0.0,0.0,0.0,0.0
1630051711311181959,1630051711,0,30306,4068.0,9669.0,1450.0,0.0,0.0,0.0,0.0
1630051711401049922,1630051711,0,30306,4036.0,9673.0,1471.0,0.0,0.0,0.0,0.0
1630051711521755388,1630051711,0,30306,4011.0,9693.0,1491.0,0.0,0.0,0.0,0.0
1630051711611141645,1630051711,0,30306,3964.0,9687.0,1536.0,0.0,0.0,0.0,0.0
1630051711701163940,1630051711,0,30306,3902.0,9684.0,1610.0,0.0,0.0,0.0,0.0
1630051711811985787,1630051711,0,30306,3872.0,9639.0,1629.0,0.0,0.0,0.0,0.0
1630051711912812640,1630051711,0,30306,3859.0,9613.0,1634.0,0.0,0.0,0.0,0.0
1630051712012171044,1630051711,0,30306,3839.0,9575.0,1646.0,0.0,0.0,0.0,0.0
1630051712112754798,1630051712,0,30306,3871.0,9547.0,1596.0,0.0,0.0,0.0,0.0
1630051712212655491,1630051712,0,30306,3935.0,9520.0,1485.0,0.0,0.0,0.0,0.0
1630051712312000625,1630051712,0,30306,3963.0,9500.0,1436.0,0.0,0.0,0.0,0.0
1630051712411741864,1630051712,0,30306,3980.0,9479.0,1385.0,0.0,0.0,0.0,0.0
1630051712511393528,1630051712,0,30306,3997.0,9491.0,1346.0,0.0,0.0,0.0,0.0
1630051712601170236,1630051712,0,30306,3965.0,9492.0,1355.0,0.0,0.0,0.0,0.0
1630051712712096915,1630051712,0,30306,3983.0,9479.0,1297.0,0.0,0.0,0.0,0.0
1630051712811044611,1630051712,0,30306,3994.0,9483.0,1230.0,0.0,0.0,0.0,0.0
1630051712910654355,1630051712,0,30306,4028.0,9481.0,1160.0,0.0,0.0,0.0,0.0
1630051713010778793,1630051712,0,30306,3954.0,9494.0,1218.0,0.0,0.0,0.0,0.0
1630051713110834034,1630051713,0,30306,3938.0,9493.0,1193.0,0.0,0.0,0.0,0.0
1630051713210936376,1630051713,0,30306,3930.0,9497.0,1155.0,0.0,0.0,0.0,0.0
1630051713320760631,1630051713,0,30306,3876.0,9510.0,1176.0,0.0,0.0,0.0,0.0
1630051713410154479,1630051713,0,30306,3857.0,9508.0,1169.0,0.0,0.0,0.0,0.0
1630051713499709364,1630051713,0,30306,3832.0,9495.0,1140.0,0.0,0.0,0.0,0.0
1630051713610921330,1630051713,0,30306,3796.0,9479.0,1130.0,0.0,0.0,0.0,0.0
1630051713711074600,1630051713,0,30306,3744.0,9449.0,1108.0,0.0,0.0,0.0,0.0
1630051713819809135,1630051713,0,30306,3704.0,9442.0,1125.0,0.0,0.0,0.0,0.0
1630051713909748610,1630051713,0,30306,3655.0,9438.0,1186.0,0.0,0.0,0.0,0.0
1630051714020071664,1630051713,0,30306,3632.0,9442.0,1235.0,0.0,0.0,0.0,0.0
1630051714109768192,1630051714,0,30306,3611.0,9429.0,1277.0,0.0,0.0,0.0,0.0
1630051714210426039,1630051714,0,30306,3584.0,9417.0,1300.0,0.0,0.0,0.0,0.0
1630051714308397888,1630051714,0,30306,3536.0,9402.0,1348.0,0.0,0.0,0.0,0.0
1630051714409762542,1630051714,0,30306,3509.0,9365.0,1345.0,0.0,0.0,0.0,0.0
1630051714519749827,1630051714,0,30306,3496.0,9329.0,1327.0,0.0,0.0,0.0,0.0
1630051714610102424,1630051714,0,30306,3493.0,9285.0,1316.0,0.0,0.0,0.0,0.0
1630051714720610983,1630051714,0,30306,3494.0,9258.0,1301.0,0.0,0.0,0.0,0.0
1630051714811524547,1630051714,0,30306,3483.0,9289.0,1252.0,0.0,0.0,0.0,0.0
1630051714900903543,1630051714,0,30306,3465.0,9317.0,1241.0,0.0,0.0,0.0,0.0
1630051715011516740,1630051714,0,30306,3496.0,9319.0,1255.0,0.0,0.0,0.0,0.0
1630051715110869665,1630051715,0,30306,3471.0,9350.0,1240.0,0.0,0.0,0.0,0.0
1630051715210677934,1630051715,0,30306,3451.0,9378.0,1224.0,0.0,0.0,0.0,0.0
1630051715311601531,1630051715,0,30306,3434.0,9399.0,1208.0,0.0,0.0,0.0,0.0
1630051715417915004,1630051715,0,30306,3396.0,9420.0,1213.0,0.0,0.0,0.0,0.0
1630051715518446886,1630051715,0,30306,3373.0,9425.0,1176.0,0.0,0.0,0.0,0.0
1630051715607273794,1630051715,0,30306,3372.0,9440.0,1159.0,0.0,0.0,0.0,0.0
1630051715717983967,1630051715,0,30306,3369.0,9442.0,1139.0,0.0,0.0,0.0,0.0
1630051715806881037,1630051715,0,30306,3363.0,9463.0,1106.0,0.0,0.0,0.0,0.0
1630051715906521151,1630051715,0,30306,3357.0,9485.0,1067.0,0.0,0.0,0.0,0.0
1630051716016214159,1630051715,0,30306,3341.0,9488.0,1028.0,0.0,0.0,0.0,0.0
1630051716106807804,1630051716,0,30306,3329.0,9498.0,993.0,0.0,0.0,0.0,0.0
1630051716216275921,1630051716,0,30306,3330.0,9511.0,962.0,0.0,0.0,0.0,0.0
1630051716305802499,1630051716,0,30306,3315.0,9509.0,929.0,0.0,0.0,0.0,0.0
1630051716415831778,1630051716,0,30306,3316.0,9506.0,879.0,0.0,0.0,0.0,0.0
1630051716515728606,1630051716,0,30306,3315.0,9495.0,845.0,0.0,0.0,0.0,0.0
1630051716604633973,1630051716,0,30306,3342.0,9487.0,832.0,0.0,0.0,0.0,0.0
1630051716715719846,1630051716,0,30306,3402.0,9467.0,841.0,0.0,0.0,0.0,0.0
1630051716805004397,1630051716,0,30306,3311.0,9489.0,793.0,0.0,0.0,0.0,0.0
1630051716914880997,1630051716,0,30306,3220.0,9507.0,753.0,0.0,0.0,0.0,0.0
1630051717005676212,1630051716,0,30306,3149.0,9533.0,683.0,0.0,0.0,0.0,0.0
1630051717115492350,1630051717,0,30306,3077.0,9518.0,673.0,0.0,0.0,0.0,0.0
1630051717215675793,1630051717,0,30306,3062.0,9527.0,663.0,0.0,0.0,0.0,0.0
1630051717315579764,1630051717,0,30306,3015.0,9507.0,655.0,0.0,0.0,0.0,0.0
1630051717416073010,1630051717,0,30306,2978.0,9481.0,601.0,0.0,0.0,0.0,0.0
1630051717505190596,1630051717,0,30306,2971.0,9482.0,627.0,0.0,0.0,0.0,0.0
1630051717614595676,1630051717,0,30306,2960.0,9486.0,604.0,0.0,0.0,0.0,0.0
1630051717704434111,1630051717,0,30306,2945.0,9466.0,603.0,0.0,0.0,0.0,0.0
1630051717814962321,1630051717,0,30306,2871.0,9446.0,703.0,0.0,0.0,0.0,0.0
1630051717915118958,1630051717,0,30306,2815.0,9423.0,743.0,0.0,0.0,0.0,0.0
1630051718015757035,1630051717,0,30306,2788.0,9392.0,780.0,0.0,0.0,0.0,0.0
1630051718114739659,1630051718,0,30306,2669.0,9392.0,805.0,0.0,0.0,0.0,0.0
1630051718225260817,1630051718,0,30306,2575.0,9404.0,836.0,0.0,0.0,0.0,0.0
1630051718315299683,1630051718,0,30306,2493.0,9392.0,873.0,0.0,0.0,0.0,0.0
1630051718404529537,1630051718,0,30306,2402.0,9350.0,951.0,0.0,0.0,0.0,0.0
1630051718514725560,1630051718,0,30306,2356.0,9311.0,1059.0,0.0,0.0,0.0,0.0
1630051718604296117,1630051718,0,30306,2316.0,9313.0,1104.0,0.0,0.0,0.0,0.0
1630051718715331830,1630051718,0,30306,2278.0,9306.0,1200.0,0.0,0.0,0.0,0.0
1630051718803343984,1630051718,0,30306,2213.0,9287.0,1301.0,0.0,0.0,0.0,0.0
1630051718914800794,1630051718,0,30306,2164.0,9313.0,1293.0,0.0,0.0,0.0,0.0
1630051719015095039,1630051718,0,30306,2119.0,9369.0,1260.0,0.0,0.0,0.0,0.0
1630051719124251212,1630051719,0,30306,2060.0,9318.0,1247.0,0.0,0.0,0.0,0.0
1630051719214221896,1630051719,0,30306,2016.0,9272.0,1256.0,0.0,0.0,0.0,0.0
1630051719304470947,1630051719,0,30306,2031.0,9263.0,1327.0,0.0,0.0,0.0,0.0
1630051719414525958,1630051719,0,30306,2018.0,9253.0,1355.0,0.0,0.0,0.0,0.0
1630051719514468024,1630051719,0,30306,1999.0,9279.0,1347.0,0.0,0.0,0.0,0.0
1630051719615229212,1630051719,0,30306,1967.0,9291.0,1361.0,0.0,0.0,0.0,0.0
1630051719714386693,1630051719,0,30306,1921.0,9280.0,1344.0,0.0,0.0,0.0,0.0
1630051719824205496,1630051719,0,30306,1866.0,9283.0,1362.0,0.0,0.0,0.0,0.0
1630051719913682544,1630051719,0,30306,1842.0,9288.0,1354.0,0.0,0.0,0.0,0.0
1630051720002725057,1630051719,0,30306,1804.0,9289.0,1347.0,0.0,0.0,0.0,0.0
1630051720113974344,1630051720,0,30306,1795.0,9309.0,1278.0,0.0,0.0,0.0,0.0
1630051720203203791,1630051720,0,30306,1791.0,9347.0,1192.0,0.0,0.0,0.0,0.0
1630051720312934453,1630051720,0,30306,1783.0,9442.0,1092.0,0.0,0.0,0.0,0.0
1630051720412493441,1630051720,0,30306,1786.0,9426.0,1082.0,0.0,0.0,0.0,0.0
1630051720521608862,1630051720,0,30306,1790.0,9404.0,1064.0,0.0,0.0,0.0,0.0
1630051720612258794,1630051720,0,30306,1789.0,9409.0,1026.0,0.0,0.0,0.0,0.0
1630051720711310782,1630051720,0,30306,1786.0,9393.0,1010.0,0.0,0.0,0.0,0.0
1630051720811295129,1630051720,0,30306,1790.0,9369.0,1033.0,0.0,0.0,0.0,0.0
1630051720910665664,1630051720,0,30306,1796.0,9370.0,1032.0,0.0,0.0,0.0,0.0
1630051721021940305,1630051720,0,30306,1782.0,9420.0,988.0,0.0,0.0,0.0,0.0
1630051721110773549,1630051721,0,30306,1807.0,9383.0,1044.0,0.0,0.0,0.0,0.0
1630051721222490905,1630051721,0,30306,1824.0,9316.0,1099.0,0.0,0.0,0.0,0.0
1630051721310311043,1630051721,0,30306,1761.0,9279.0,1037.0,0.0,0.0,0.0,0.0
1630051721412010749,1630051721,0,30306,1707.0,9272.0,976.0,0.0,0.0,0.0,0.0
1630051721511294122,1630051721,0,30306,1680.0,9283.0,949.0,0.0,0.0,0.0,0.0
1630051721610504685,1630051721,0,30306,1658.0,9302.0,958.0,0.0,0.0,0.0,0.0
1630051721721046663,1630051721,0,30306,1594.0,9291.0,892.0,0.0,0.0,0.0,0.0
1630051721811237085,1630051721,0,30306,1527.0,9283.0,876.0,0.0,0.0,0.0,0.0
1630051721921844386,1630051721,0,30306,1488.0,9318.0,908.0,0.0,0.0,0.0,0.0
1630051722010863736,1630051721,0,30306,1462.0,9338.0,925.0,0.0,0.0,0.0,0.0
1630051722101748516,1630051722,0,30306,1432.0,9353.0,948.0,0.0,0.0,0.0,0.0
1630051722211606688,1630051722,0,30306,1401.0,9368.0,960.0,0.0,0.0,0.0,0.0
1630051722311154752,1630051722,0,30306,1363.0,9369.0,940.0,0.0,0.0,0.0,0.0
1630051722422259601,1630051722,0,30306,1337.0,9361.0,932.0,0.0,0.0,0.0,0.0
1630051722511795290,1630051722,0,30306,1317.0,9366.0,910.0,0.0,0.0,0.0,0.0
1630051722620953273,1630051722,0,30306,1241.0,9315.0,798.0,0.0,0.0,0.0,0.0
1630051722711237097,1630051722,0,30306,1163.0,9272.0,651.0,0.0,0.0,0.0,0.0
1630051722811110717,1630051722,0,30306,1141.0,9276.0,676.0,0.0,0.0,0.0,0.0
1630051722911268133,1630051722,0,30306,1111.0,9294.0,723.0,0.0,0.0,0.0,0.0
1630051723010232754,1630051722,0,30306,1087.0,9301.0,763.0,0.0,0.0,0.0,0.0
1630051723120237516,1630051723,0,30306,1066.0,9284.0,818.0,0.0,0.0,0.0,0.0
1630051723209906214,1630051723,0,30306,1008.0,9280.0,790.0,0.0,0.0,0.0,0.0
1630051723320562799,1630051723,0,30306,973.0,9308.0,790.0,0.0,0.0,0.0,0.0
1630051723410439183,1630051723,0,30306,945.0,9327.0,761.0,0.0,0.0,0.0,0.0
1630051723520637733,1630051723,0,30306,933.0,9347.0,783.0,0.0,0.0,0.0,0.0
1630051723618767492,1630051723,0,30306,930.0,9382.0,787.0,0.0,0.0,0.0,0.0
1630051723708452669,1630051723,0,30306,913.0,9410.0,802.0,0.0,0.0,0.0,0.0
1630051723819328179,1630051723,0,30306,863.0,9402.0,804.0,0.0,0.0,0.0,0.0
1630051723908088860,1630051723,0,30306,824.0,9412.0,817.0,0.0,0.0,0.0,0.0
1630051724019738530,1630051723,0,30306,811.0,9406.0,821.0,0.0,0.0,0.0,0.0
1630051724109396031,1630051724,0,30306,801.0,9375.0,868.0,0.0,0.0,0.0,0.0
1630051724220787816,1630051724,0,30306,782.0,9353.0,905.0,0.0,0.0,0.0,0.0
1630051724309305959,1630051724,0,30306,775.0,9332.0,898.0,0.0,0.0,0.0,0.0
1630051724410670287,1630051724,0,30306,732.0,9303.0,901.0,0.0,0.0,0.0,0.0
1630051724520833265,1630051724,0,30306,746.0,9297.0,806.0,0.0,0.0,0.0,0.0
1630051724610248087,1630051724,0,30306,709.0,9279.0,770.0,0.0,0.0,0.0,0.0
1630051724721543125,1630051724,0,30306,666.0,9275.0,772.0,0.0,0.0,0.0,0.0
1630051724811790386,1630051724,0,30306,581.0,9218.0,779.0,0.0,0.0,0.0,0.0
1630051724939916118,1630051724,0,30306,513.0,9182.0,865.0,0.0,0.0,0.0,0.0
1630051725011500074,1630051724,0,30306,493.0,9155.0,886.0,0.0,0.0,0.0,0.0
1630051725112194522,1630051725,0,30306,455.0,9122.0,930.0,0.0,0.0,0.0,0.0
1630051725211485185,1630051725,0,30306,432.0,9094.0,990.0,0.0,0.0,0.0,0.0
1630051725311404421,1630051725,0,30306,408.0,9061.0,1030.0,0.0,0.0,0.0,0.0
1630051725422092828,1630051725,0,30306,396.0,9029.0,1053.0,0.0,0.0,0.0,0.0
1630051725509455463,1630051725,0,30306,370.0,8975.0,1039.0,0.0,0.0,0.0,0.0
1630051725620866682,1630051725,0,30306,382.0,8942.0,1065.0,0.0,0.0,0.0,0.0
1630051725710828472,1630051725,0,30306,383.0,8897.0,1104.0,0.0,0.0,0.0,0.0
1630051725820111121,1630051725,0,30306,354.0,8867.0,1132.0,0.0,0.0,0.0,0.0
1630051725908800807,1630051725,0,30306,345.0,8818.0,1148.0,0.0,0.0,0.0,0.0
1630051726020435715,1630051725,0,30306,333.0,8768.0,1155.0,0.0,0.0,0.0,0.0
1630051726109670414,1630051726,0,30306,326.0,8717.0,1167.0,0.0,0.0,0.0,0.0
1630051726219214742,1630051726,0,30306,346.0,8655.0,1199.0,0.0,0.0,0.0,0.0
1630051726308707417,1630051726,0,30306,349.0,8601.0,1221.0,0.0,0.0,0.0,0.0
1630051726418295419,1630051726,0,30306,343.0,8569.0,1216.0,0.0,0.0,0.0,0.0
1630051726518254410,1630051726,0,30306,368.0,8524.0,1204.0,0.0,0.0,0.0,0.0
1630051726617800785,1630051726,0,30306,409.0,8442.0,1260.0,0.0,0.0,0.0,0.0
1630051726717312652,1630051726,0,30306,429.0,8397.0,1298.0,0.0,0.0,0.0,0.0
1630051726806576555,1630051726,0,30306,422.0,8367.0,1363.0,0.0,0.0,0.0,0.0
1630051726915775004,1630051726,0,30306,483.0,8308.0,1332.0,0.0,0.0,0.0,0.0
1630051727005701491,1630051726,0,30306,471.0,8274.0,1396.0,0.0,0.0,0.0,0.0
1630051727116128529,1630051727,0,30306,470.0,8232.0,1476.0,0.0,0.0,0.0,0.0
1630051727205946174,1630051727,0,30306,463.0,8255.0,1422.0,0.0,0.0,0.0,0.0
1630051727315164724,1630051727,0,30306,496.0,8278.0,1392.0,0.0,0.0,0.0,0.0
1630051727405182583,1630051727,0,30306,526.0,8263.0,1425.0,0.0,0.0,0.0,0.0
1630051727515071247,1630051727,0,30306,533.0,8243.0,1410.0,0.0,0.0,0.0,0.0
1630051727604849460,1630051727,0,30306,536.0,8213.0,1387.0,0.0,0.0,0.0,0.0
1630051727714936275,1630051727,0,30306,530.0,8173.0,1362.0,0.0,0.0,0.0,0.0
1630051727814481974,1630051727,0,30306,517.0,8149.0,1332.0,0.0,0.0,0.0,0.0
1630051727914151725,1630051727,0,30306,488.0,8114.0,1309.0,0.0,0.0,0.0,0.0
1630051728014178408,1630051727,0,30306,473.0,8042.0,1325.0,0.0,0.0,0.0,0.0
1630051728123490595,1630051728,0,30306,501.0,8016.0,1387.0,0.0,0.0,0.0,0.0
1630051728213138518,1630051728,0,30306,526.0,8013.0,1488.0,0.0,0.0,0.0,0.0
1630051728323648139,1630051728,0,30306,515.0,7990.0,1553.0,0.0,0.0,0.0,0.0
1630051728412676338,1630051728,0,30306,462.0,7931.0,1575.0,0.0,0.0,0.0,0.0
1630051728522885476,1630051728,0,30306,435.0,7941.0,1579.0,0.0,0.0,0.0,0.0
1630051728613830978,1630051728,0,30306,379.0,7917.0,1615.0,0.0,0.0,0.0,0.0
1630051728723838489,1630051728,0,30306,434.0,7885.0,1499.0,0.0,0.0,0.0,0.0
1630051728813960619,1630051728,0,30306,477.0,7902.0,1465.0,0.0,0.0,0.0,0.0
1630051728914235270,1630051728,0,30306,529.0,7882.0,1363.0,0.0,0.0,0.0,0.0
1630051729014393322,1630051728,0,30306,452.0,7865.0,1392.0,0.0,0.0,0.0,0.0
1630051729114369635,1630051729,0,30306,461.0,7801.0,1306.0,0.0,0.0,0.0,0.0
1630051729224401224,1630051729,0,30306,512.0,7737.0,1227.0,0.0,0.0,0.0,0.0
1630051729314063340,1630051729,0,30306,437.0,7720.0,1323.0,0.0,0.0,0.0,0.0
1630051729425437994,1630051729,0,30306,504.0,7691.0,1387.0,0.0,0.0,0.0,0.0
1630051729514098819,1630051729,0,30306,493.0,7690.0,1422.0,0.0,0.0,0.0,0.0
1630051729614832048,1630051729,0,30306,476.0,7686.0,1416.0,0.0,0.0,0.0,0.0
1630051729714063303,1630051729,0,30306,535.0,7658.0,1300.0,0.0,0.0,0.0,0.0
1630051729813560827,1630051729,0,30306,595.0,7610.0,1237.0,0.0,0.0,0.0,0.0
1630051729924843817,1630051729,0,30306,649.0,7552.0,1179.0,0.0,0.0,0.0,0.0
1630051730013757168,1630051729,0,30306,692.0,7509.0,1138.0,0.0,0.0,0.0,0.0
1630051730123543038,1630051730,0,30306,722.0,7454.0,1110.0,0.0,0.0,0.0,0.0
1630051730213778339,1630051730,0,30306,749.0,7406.0,1098.0,0.0,0.0,0.0,0.0
1630051730304078030,1630051730,0,30306,780.0,7320.0,1152.0,0.0,0.0,0.0,0.0
1630051730413113531,1630051730,0,30306,792.0,7266.0,1133.0,0.0,0.0,0.0,0.0
1630051730511672287,1630051730,0,30306,794.0,7250.0,1151.0,0.0,0.0,0.0,0.0
1630051730622345381,1630051730,0,30306,841.0,7233.0,1193.0,0.0,0.0,0.0,0.0
1630051730711035959,1630051730,0,30306,862.0,7194.0,1199.0,0.0,0.0,0.0,0.0
1630051730810833660,1630051730,0,30306,910.0,7151.0,1204.0,0.0,0.0,0.0,0.0
1630051730920225837,1630051730,0,30306,939.0,7107.0,1252.0,0.0,0.0,0.0,0.0
1630051731009664715,1630051730,0,30306,964.0,7062.0,1323.0,0.0,0.0,0.0,0.0
1630051731121428524,1630051731,0,30306,992.0,7018.0,1412.0,0.0,0.0,0.0,0.0
1630051731210762332,1630051731,0,30306,1020.0,7003.0,1435.0,0.0,0.0,0.0,0.0
1630051731310545031,1630051731,0,30306,1035.0,6982.0,1469.0,0.0,0.0,0.0,0.0
1630051731419585062,1630051731,0,30306,1030.0,6966.0,1493.0,0.0,0.0,0.0,0.0
1630051731509701906,1630051731,0,30306,1027.0,6956.0,1525.0,0.0,0.0,0.0,0.0
1630051731621425059,1630051731,0,30306,1031.0,6933.0,1523.0,0.0,0.0,0.0,0.0
1630051731709201889,1630051731,0,30306,1036.0,6915.0,1534.0,0.0,0.0,0.0,0.0
1630051731819175492,1630051731,0,30306,1064.0,6887.0,1526.0,0.0,0.0,0.0,0.0
1630051731908436133,1630051731,0,30306,1089.0,6850.0,1504.0,0.0,0.0,0.0,0.0
1630051732009231620,1630051731,0,30306,1105.0,6812.0,1456.0,0.0,0.0,0.0,0.0
1630051732118711842,1630051732,0,30306,1118.0,6781.0,1446.0,0.0,0.0,0.0,0.0
1630051732209338687,1630051732,0,30306,1134.0,6757.0,1428.0,0.0,0.0,0.0,0.0
1630051732318741585,1630051732,0,30306,1164.0,6726.0,1443.0,0.0,0.0,0.0,0.0
1630051732407434115,1630051732,0,30306,1168.0,6707.0,1448.0,0.0,0.0,0.0,0.0
1630051732519653720,1630051732,0,30306,1189.0,6666.0,1476.0,0.0,0.0,0.0,0.0
1630051732618831494,1630051732,0,30306,1228.0,6600.0,1527.0,0.0,0.0,0.0,0.0
1630051732718433575,1630051732,0,30306,1193.0,6579.0,1614.0,0.0,0.0,0.0,0.0
1630051732818304462,1630051732,0,30306,1218.0,6537.0,1601.0,0.0,0.0,0.0,0.0
1630051732906597077,1630051732,0,30306,1234.0,6492.0,1561.0,0.0,0.0,0.0,0.0
1630051733017917259,1630051732,0,30306,1231.0,6448.0,1525.0,0.0,0.0,0.0,0.0
1630051733107647133,1630051733,0,30306,1243.0,6411.0,1470.0,0.0,0.0,0.0,0.0
1630051733216988761,1630051733,0,30306,1266.0,6358.0,1453.0,0.0,0.0,0.0,0.0
1630051733316416818,1630051733,0,30306,1295.0,6316.0,1446.0,0.0,0.0,0.0,0.0
1630051733426729987,1630051733,0,30306,1307.0,6272.0,1438.0,0.0,0.0,0.0,0.0
1630051733515731076,1630051733,0,30306,1313.0,6231.0,1423.0,0.0,0.0,0.0,0.0
1630051733607025361,1630051733,0,30306,1311.0,6195.0,1415.0,0.0,0.0,0.0,0.0
1630051733717078029,1630051733,0,30306,1328.0,6171.0,1418.0,0.0,0.0,0.0,0.0
1630051733807368574,1630051733,0,30306,1374.0,6122.0,1429.0,0.0,0.0,0.0,0.0
1630051733917117824,1630051733,0,30306,1425.0,6085.0,1367.0,0.0,0.0,0.0,0.0
1630051734017182624,1630051733,0,30306,1475.0,6017.0,1350.0,0.0,0.0,0.0,0.0
1630051734126236396,1630051734,0,30306,1521.0,5958.0,1313.0,0.0,0.0,0.0,0.0
1630051734216868621,1630051734,0,30306,1577.0,5894.0,1291.0,0.0,0.0,0.0,0.0
1630051734305823754,1630051734,0,30306,1596.0,5846.0,1279.0,0.0,0.0,0.0,0.0
1630051734416076960,1630051734,0,30306,1628.0,5814.0,1281.0,0.0,0.0,0.0,0.0
1630051734505757034,1630051734,0,30306,1660.0,5790.0,1283.0,0.0,0.0,0.0,0.0
1630051734616788308,1630051734,0,30306,1650.0,5721.0,1223.0,0.0,0.0,0.0,0.0
1630051734706708080,1630051734,0,30306,1639.0,5638.0,1133.0,0.0,0.0,0.0,0.0
1630051734816404560,1630051734,0,30306,1595.0,5559.0,1101.0,0.0,0.0,0.0,0.0
1630051734906476874,1630051734,0,30306,1535.0,5481.0,1064.0,0.0,0.0,0.0,0.0
1630051735016897360,1630051734,0,30306,1503.0,5425.0,1058.0,0.0,0.0,0.0,0.0
1630051735115452940,1630051735,0,30306,1471.0,5384.0,1033.0,0.0,0.0,0.0,0.0
1630051735215528160,1630051735,0,30306,1439.0,5355.0,993.0,0.0,0.0,0.0,0.0
1630051735315487068,1630051735,0,30306,1430.0,5324.0,949.0,0.0,0.0,0.0,0.0
1630051735404222330,1630051735,0,30306,1421.0,5269.0,898.0,0.0,0.0,0.0,0.0
1630051735513365455,1630051735,0,30306,1418.0,5219.0,874.0,0.0,0.0,0.0,0.0
1630051735613353811,1630051735,0,30306,1420.0,5154.0,841.0,0.0,0.0,0.0,0.0
1630051735719068791,1630051735,0,30306,1396.0,5095.0,812.0,0.0,0.0,0.0,0.0
1630051735807745198,1630051735,0,30306,1373.0,5097.0,896.0,0.0,0.0,0.0,0.0
1630051735918735659,1630051735,0,30306,1344.0,5071.0,943.0,0.0,0.0,0.0,0.0
1630051736018483749,1630051735,0,30306,1321.0,5033.0,990.0,0.0,0.0,0.0,0.0
1630051736107818797,1630051736,0,30306,1310.0,5000.0,1040.0,0.0,0.0,0.0,0.0
1630051736218191975,1630051736,0,30306,1316.0,4963.0,1084.0,0.0,0.0,0.0,0.0
1630051736318334364,1630051736,0,30306,1309.0,4904.0,1099.0,0.0,0.0,0.0,0.0
1630051736418255455,1630051736,0,30306,1311.0,4859.0,1132.0,0.0,0.0,0.0,0.0
1630051736517581693,1630051736,0,30306,1333.0,4767.0,1195.0,0.0,0.0,0.0,0.0
1630051736617486217,1630051736,0,30306,1343.0,4708.0,1216.0,0.0,0.0,0.0,0.0
1630051736716048658,1630051736,0,30306,1336.0,4673.0,1200.0,0.0,0.0,0.0,0.0
1630051736805851738,1630051736,0,30306,1317.0,4676.0,1241.0,0.0,0.0,0.0,0.0
1630051736916341817,1630051736,0,30306,1306.0,4671.0,1289.0,0.0,0.0,0.0,0.0
1630051737005376107,1630051736,0,30306,1317.0,4665.0,1301.0,0.0,0.0,0.0,0.0
1630051737115821744,1630051737,0,30306,1295.0,4577.0,1278.0,0.0,0.0,0.0,0.0
1630051737215228842,1630051737,0,30306,1331.0,4500.0,1307.0,0.0,0.0,0.0,0.0
1630051737314277334,1630051737,0,30306,1334.0,4519.0,1253.0,0.0,0.0,0.0,0.0
1630051737415163083,1630051737,0,30306,1346.0,4536.0,1254.0,0.0,0.0,0.0,0.0
1630051737523933624,1630051737,0,30306,1358.0,4548.0,1280.0,0.0,0.0,0.0,0.0
1630051737613148419,1630051737,0,30306,1376.0,4536.0,1286.0,0.0,0.0,0.0,0.0
1630051737713148090,1630051737,0,30306,1408.0,4508.0,1270.0,0.0,0.0,0.0,0.0
1630051737823044475,1630051737,0,30306,1436.0,4435.0,1259.0,0.0,0.0,0.0,0.0
