%time,field.data0.header.seq,field.data0.header.stamp,field.data0.header.frame_id,field.data0.pose.position.x,field.data0.pose.position.y,field.data0.pose.position.z,field.data0.pose.orientation.x,field.data0.pose.orientation.y,field.data0.pose.orientation.z,field.data0.pose.orientation.w
1630052332157320757,1630052332,0,30306,393.0,182.0,1604.0,0.0,0.0,0.0,0.0
1630052332161116978,1630052332,0,30306,398.0,186.0,1607.0,0.0,0.0,0.0,0.0
1630052332174390394,1630052332,0,30306,403.0,190.0,1608.0,0.0,0.0,0.0,0.0
1630052332177379238,1630052332,0,30306,402.0,193.0,1614.0,0.0,0.0,0.0,0.0
1630052332191702410,1630052332,0,30306,407.0,200.0,1616.0,0.0,0.0,0.0,0.0
1630052332204864286,1630052332,0,30306,410.0,208.0,1616.0,0.0,0.0,0.0,0.0
1630052332208093763,1630052332,0,30306,411.0,217.0,1620.0,0.0,0.0,0.0,0.0
1630052332239554068,1630052332,0,30306,410.0,224.0,1624.0,0.0,0.0,0.0,0.0
1630052332239914900,1630052332,0,30306,414.0,229.0,1624.0,0.0,0.0,0.0,0.0
1630052332241515436,1630052332,0,30306,418.0,233.0,1622.0,0.0,0.0,0.0,0.0
1630052332252541287,1630052332,0,30306,418.0,235.0,1622.0,0.0,0.0,0.0,0.0
1630052332256053040,1630052332,0,30306,412.0,237.0,1626.0,0.0,0.0,0.0,0.0
1630052332270699788,1630052332,0,30306,408.0,239.0,1628.0,0.0,0.0,0.0,0.0
1630052332285987699,1630052332,0,30306,406.0,241.0,1621.0,0.0,0.0,0.0,0.0
1630052332288009018,1630052332,0,30306,403.0,242.0,1616.0,0.0,0.0,0.0,0.0
1630052332300662260,1630052332,0,30306,401.0,241.0,1610.0,0.0,0.0,0.0,0.0
1630052332332002673,1630052332,0,30306,413.0,255.0,1618.0,0.0,0.0,0.0,0.0
1630052332333627266,1630052332,0,30306,417.0,264.0,1621.0,0.0,0.0,0.0,0.0
1630052332336012858,1630052332,0,30306,420.0,273.0,1627.0,0.0,0.0,0.0,0.0
1630052332347941155,1630052332,0,30306,425.0,282.0,1630.0,0.0,0.0,0.0,0.0
1630052332362799749,1630052332,0,30306,427.0,293.0,1629.0,0.0,0.0,0.0,0.0
1630052332364777099,1630052332,0,30306,430.0,300.0,1629.0,0.0,0.0,0.0,0.0
1630052332379417657,1630052332,0,30306,437.0,311.0,1628.0,0.0,0.0,0.0,0.0
1630052332382371726,1630052332,0,30306,442.0,319.0,1634.0,0.0,0.0,0.0,0.0
1630052332396232226,1630052332,0,30306,447.0,328.0,1639.0,0.0,0.0,0.0,0.0
1630052332409314708,1630052332,0,30306,452.0,339.0,1640.0,0.0,0.0,0.0,0.0
1630052332412406859,1630052332,0,30306,453.0,348.0,1643.0,0.0,0.0,0.0,0.0
1630052332426969974,1630052332,0,30306,455.0,356.0,1640.0,0.0,0.0,0.0,0.0
1630052332430295106,1630052332,0,30306,462.0,363.0,1645.0,0.0,0.0,0.0,0.0
1630052332443834792,1630052332,0,30306,468.0,371.0,1652.0,0.0,0.0,0.0,0.0
1630052332457744766,1630052332,0,30306,476.0,379.0,1656.0,0.0,0.0,0.0,0.0
1630052332459243379,1630052332,0,30306,483.0,387.0,1661.0,0.0,0.0,0.0,0.0
1630052332473775782,1630052332,0,30306,490.0,397.0,1666.0,0.0,0.0,0.0,0.0
1630052332505004057,1630052332,0,30306,493.0,395.0,1666.0,0.0,0.0,0.0,0.0
1630052332505357085,1630052332,0,30306,501.0,395.0,1666.0,0.0,0.0,0.0,0.0
1630052332506886161,1630052332,0,30306,505.0,402.0,1675.0,0.0,0.0,0.0,0.0
1630052332518933731,1630052332,0,30306,511.0,408.0,1685.0,0.0,0.0,0.0,0.0
1630052332540539749,1630052332,0,30306,522.0,415.0,1685.0,0.0,0.0,0.0,0.0
1630052332543375161,1630052332,0,30306,531.0,426.0,1686.0,0.0,0.0,0.0,0.0
1630052332548824880,1630052332,0,30306,539.0,435.0,1685.0,0.0,0.0,0.0,0.0
1630052332552514614,1630052332,0,30306,540.0,437.0,1681.0,0.0,0.0,0.0,0.0
1630052332565934935,1630052332,0,30306,539.0,439.0,1677.0,0.0,0.0,0.0,0.0
1630052332597503456,1630052332,0,30306,538.0,441.0,1669.0,0.0,0.0,0.0,0.0
1630052332599298354,1630052332,0,30306,540.0,451.0,1677.0,0.0,0.0,0.0,0.0
1630052332611350231,1630052332,0,30306,545.0,460.0,1683.0,0.0,0.0,0.0,0.0
1630052332613393354,1630052332,0,30306,551.0,472.0,1687.0,0.0,0.0,0.0,0.0
1630052332628052653,1630052332,0,30306,556.0,482.0,1693.0,0.0,0.0,0.0,0.0
1630052332631532585,1630052332,0,30306,554.0,487.0,1689.0,0.0,0.0,0.0,0.0
1630052332634245710,1630052332,0,30306,549.0,492.0,1690.0,0.0,0.0,0.0,0.0
1630052332659201056,1630052332,0,30306,548.0,502.0,1685.0,0.0,0.0,0.0,0.0
1630052332661401698,1630052332,0,30306,546.0,507.0,1687.0,0.0,0.0,0.0,0.0
1630052332675761569,1630052332,0,30306,549.0,516.0,1682.0,0.0,0.0,0.0,0.0
1630052332685716095,0,0,,54321.0,54321.0,54321.0,0.0,0.0,0.0,0.0
1630052332690201009,1630052332,0,30306,551.0,522.0,1680.0,0.0,0.0,0.0,0.0
1630052332693002624,1630052332,0,30306,548.0,533.0,1681.0,0.0,0.0,0.0,0.0
1630052332721696462,1630052332,0,30306,549.0,545.0,1687.0,0.0,0.0,0.0,0.0
1630052332724753771,1630052332,0,30306,551.0,556.0,1695.0,0.0,0.0,0.0,0.0
1630052332725173645,1630052332,0,30306,554.0,566.0,1703.0,0.0,0.0,0.0,0.0
1630052332737189172,1630052332,0,30306,551.0,567.0,1702.0,0.0,0.0,0.0,0.0
1630052332739965352,1630052332,0,30306,548.0,568.0,1700.0,0.0,0.0,0.0,0.0
1630052332754858109,1630052332,0,30306,545.0,569.0,1698.0,0.0,0.0,0.0,0.0
1630052332757886739,1630052332,0,30306,543.0,570.0,1695.0,0.0,0.0,0.0,0.0
1630052332760027783,1630052332,0,30306,541.0,571.0,1691.0,0.0,0.0,0.0,0.0
1630052332784868883,1630052332,0,30306,541.0,570.0,1689.0,0.0,0.0,0.0,0.0
1630052332788205313,1630052332,0,30306,542.0,571.0,1684.0,0.0,0.0,0.0,0.0
1630052332792984021,1630052332,0,30306,541.0,571.0,1680.0,0.0,0.0,0.0,0.0
1630052332795710412,1630052332,0,30306,542.0,570.0,1675.0,0.0,0.0,0.0,0.0
1630052332809384999,1630052332,0,30306,544.0,570.0,1670.0,0.0,0.0,0.0,0.0
1630052332833059274,1630052332,0,30306,543.0,569.0,1665.0,0.0,0.0,0.0,0.0
1630052332836871384,1630052332,0,30306,544.0,569.0,1659.0,0.0,0.0,0.0,0.0
1630052332838976892,1630052332,0,30306,543.0,569.0,1653.0,0.0,0.0,0.0,0.0
1630052332864041950,1630052332,0,30306,543.0,569.0,1647.0,0.0,0.0,0.0,0.0
1630052332865946372,1630052332,0,30306,544.0,569.0,1639.0,0.0,0.0,0.0,0.0
1630052332886200750,1630052332,0,30306,542.0,568.0,1634.0,0.0,0.0,0.0,0.0
1630052332886690254,1630052332,0,30306,541.0,567.0,1628.0,0.0,0.0,0.0,0.0
1630052332889175991,1630052332,0,30306,538.0,564.0,1624.0,0.0,0.0,0.0,0.0
1630052332900387062,1630052332,0,30306,536.0,563.0,1618.0,0.0,0.0,0.0,0.0
1630052332903885933,1630052332,0,30306,535.0,562.0,1612.0,0.0,0.0,0.0,0.0
1630052332917500548,1630052332,0,30306,536.0,562.0,1603.0,0.0,0.0,0.0,0.0
1630052332942816171,1630052332,0,30306,538.0,559.0,1597.0,0.0,0.0,0.0,0.0
1630052332955195160,1630052332,0,30306,538.0,556.0,1590.0,0.0,0.0,0.0,0.0
1630052332973381018,1630052332,0,30306,537.0,553.0,1584.0,0.0,0.0,0.0,0.0
1630052332989965289,1630052332,0,30306,536.0,548.0,1581.0,0.0,0.0,0.0,0.0
1630052332990405893,1630052332,0,30306,536.0,544.0,1576.0,0.0,0.0,0.0,0.0
1630052332991998030,1630052332,0,30306,535.0,539.0,1570.0,0.0,0.0,0.0,0.0
1630052333004476613,1630052332,0,30306,531.0,534.0,1568.0,0.0,0.0,0.0,0.0
1630052333006572072,1630052332,0,30306,526.0,529.0,1565.0,0.0,0.0,0.0,0.0
1630052333010862468,1630052332,0,30306,526.0,526.0,1557.0,0.0,0.0,0.0,0.0
1630052333042180280,1630052332,0,30306,523.0,523.0,1549.0,0.0,0.0,0.0,0.0
1630052333042754209,1630052332,0,30306,521.0,519.0,1540.0,0.0,0.0,0.0,0.0
1630052333045384247,1630052333,0,30306,517.0,518.0,1532.0,0.0,0.0,0.0,0.0
1630052333045784827,1630052333,0,30306,513.0,513.0,1526.0,0.0,0.0,0.0,0.0
1630052333079123513,1630052333,0,30306,510.0,504.0,1510.0,0.0,0.0,0.0,0.0
1630052333082000177,1630052333,0,30306,509.0,500.0,1500.0,0.0,0.0,0.0,0.0
1630052333095424536,1630052333,0,30306,506.0,495.0,1493.0,0.0,0.0,0.0,0.0
1630052333126418460,1630052333,0,30306,504.0,489.0,1485.0,0.0,0.0,0.0,0.0
1630052333126883813,1630052333,0,30306,502.0,482.0,1479.0,0.0,0.0,0.0,0.0
1630052333128759134,1630052333,0,30306,498.0,476.0,1471.0,0.0,0.0,0.0,0.0
1630052333130856229,1630052333,0,30306,494.0,470.0,1463.0,0.0,0.0,0.0,0.0
1630052333144697544,1630052333,0,30306,492.0,463.0,1455.0,0.0,0.0,0.0,0.0
1630052333164375399,1630052333,0,30306,491.0,458.0,1445.0,0.0,0.0,0.0,0.0
1630052333177921898,1630052333,0,30306,484.0,452.0,1440.0,0.0,0.0,0.0,0.0
1630052333178398564,1630052333,0,30306,481.0,447.0,1429.0,0.0,0.0,0.0,0.0
1630052333180830636,1630052333,0,30306,475.0,438.0,1426.0,0.0,0.0,0.0,0.0
1630052333191202810,1630052333,0,30306,467.0,437.0,1418.0,0.0,0.0,0.0,0.0
1630052333204347299,1630052333,0,30306,459.0,430.0,1415.0,0.0,0.0,0.0,0.0
1630052333218779028,1630052333,0,30306,449.0,426.0,1404.0,0.0,0.0,0.0,0.0
1630052333249755943,1630052333,0,30306,442.0,423.0,1395.0,0.0,0.0,0.0,0.0
1630052333250066878,1630052333,0,30306,439.0,420.0,1385.0,0.0,0.0,0.0,0.0
1630052333251739224,1630052333,0,30306,440.0,418.0,1372.0,0.0,0.0,0.0,0.0
1630052333255134258,1630052333,0,30306,437.0,421.0,1363.0,0.0,0.0,0.0,0.0
1630052333263742948,0,0,,54321.0,54321.0,54321.0,0.0,0.0,0.0,0.0
1630052333267654294,1630052333,0,30306,437.0,416.0,1357.0,0.0,0.0,0.0,0.0
1630052333269896329,1630052333,0,30306,436.0,414.0,1352.0,0.0,0.0,0.0,0.0
1630052333284951861,1630052333,0,30306,439.0,406.0,1345.0,0.0,0.0,0.0,0.0
1630052333299269606,1630052333,0,30306,445.0,401.0,1336.0,0.0,0.0,0.0,0.0
1630052333301146822,1630052333,0,30306,450.0,398.0,1332.0,0.0,0.0,0.0,0.0
1630052333315714726,1630052333,0,30306,455.0,391.0,1329.0,0.0,0.0,0.0,0.0
1630052333358352023,1630052333,0,30306,463.0,367.0,1326.0,0.0,0.0,0.0,0.0
1630052333359851148,1630052333,0,30306,466.0,363.0,1323.0,0.0,0.0,0.0,0.0
1630052333375777861,1630052333,0,30306,467.0,356.0,1321.0,0.0,0.0,0.0,0.0
1630052333380259916,1630052333,0,30306,467.0,349.0,1323.0,0.0,0.0,0.0,0.0
1630052333383270401,1630052333,0,30306,466.0,345.0,1324.0,0.0,0.0,0.0,0.0
1630052333424581344,1630052333,0,30306,469.0,340.0,1316.0,0.0,0.0,0.0,0.0
1630052333426357794,1630052333,0,30306,468.0,340.0,1314.0,0.0,0.0,0.0,0.0
1630052333428823538,1630052333,0,30306,466.0,337.0,1312.0,0.0,0.0,0.0,0.0
1630052333430553458,1630052333,0,30306,468.0,335.0,1308.0,0.0,0.0,0.0,0.0
1630052333455390237,1630052333,0,30306,468.0,330.0,1303.0,0.0,0.0,0.0,0.0
1630052333458819467,1630052333,0,30306,467.0,328.0,1298.0,0.0,0.0,0.0,0.0
1630052333471974406,1630052333,0,30306,466.0,328.0,1293.0,0.0,0.0,0.0,0.0
1630052333475288514,1630052333,0,30306,467.0,327.0,1289.0,0.0,0.0,0.0,0.0
1630052333480348129,1630052333,0,30306,469.0,324.0,1285.0,0.0,0.0,0.0,0.0
1630052333503139574,1630052333,0,30306,470.0,322.0,1283.0,0.0,0.0,0.0,0.0
1630052333512502267,1630052333,0,30306,472.0,319.0,1282.0,0.0,0.0,0.0,0.0
1630052333512921863,1630052333,0,30306,473.0,309.0,1282.0,0.0,0.0,0.0,0.0
1630052333514626337,1630052333,0,30306,473.0,307.0,1281.0,0.0,0.0,0.0,0.0
1630052333525811107,1630052333,0,30306,479.0,300.0,1275.0,0.0,0.0,0.0,0.0
1630052333540546180,1630052333,0,30306,485.0,294.0,1272.0,0.0,0.0,0.0,0.0
1630052333542422830,1630052333,0,30306,492.0,287.0,1267.0,0.0,0.0,0.0,0.0
1630052333556965060,1630052333,0,30306,491.0,287.0,1268.0,0.0,0.0,0.0,0.0
1630052333580528017,1630052333,0,30306,493.0,280.0,1273.0,0.0,0.0,0.0,0.0
1630052333592335708,1630052333,0,30306,493.0,276.0,1277.0,0.0,0.0,0.0,0.0
1630052333592783982,1630052333,0,30306,489.0,268.0,1284.0,0.0,0.0,0.0,0.0
1630052333594332724,1630052333,0,30306,487.0,263.0,1289.0,0.0,0.0,0.0,0.0
1630052333605499168,1630052333,0,30306,482.0,257.0,1293.0,0.0,0.0,0.0,0.0
1630052333620145068,1630052333,0,30306,475.0,255.0,1296.0,0.0,0.0,0.0,0.0
1630052333644328455,1630052333,0,30306,473.0,251.0,1300.0,0.0,0.0,0.0,0.0
1630052333668970715,1630052333,0,30306,472.0,251.0,1298.0,0.0,0.0,0.0,0.0
1630052333669586152,1630052333,0,30306,470.0,247.0,1301.0,0.0,0.0,0.0,0.0
1630052333672260970,1630052333,0,30306,467.0,245.0,1302.0,0.0,0.0,0.0,0.0
1630052333675561351,1630052333,0,30306,461.0,242.0,1306.0,0.0,0.0,0.0,0.0
1630052333678611353,1630052333,0,30306,456.0,238.0,1313.0,0.0,0.0,0.0,0.0
1630052333679938113,1630052333,0,30306,456.0,234.0,1316.0,0.0,0.0,0.0,0.0
1630052333683234426,1630052333,0,30306,455.0,229.0,1321.0,0.0,0.0,0.0,0.0
1630052333696513597,1630052333,0,30306,457.0,223.0,1324.0,0.0,0.0,0.0,0.0
1630052333721986687,1630052333,0,30306,457.0,220.0,1326.0,0.0,0.0,0.0,0.0
1630052333726573715,1630052333,0,30306,455.0,216.0,1330.0,0.0,0.0,0.0,0.0
1630052333728738805,1630052333,0,30306,454.0,214.0,1333.0,0.0,0.0,0.0,0.0
1630052333759554063,1630052333,0,30306,455.0,212.0,1333.0,0.0,0.0,0.0,0.0
1630052333760319375,1630052333,0,30306,454.0,210.0,1330.0,0.0,0.0,0.0,0.0
1630052333761209968,1630052333,0,30306,456.0,207.0,1330.0,0.0,0.0,0.0,0.0
1630052333761707439,1630052333,0,30306,458.0,206.0,1327.0,0.0,0.0,0.0,0.0
1630052333776117443,1630052333,0,30306,459.0,209.0,1324.0,0.0,0.0,0.0,0.0
1630052333801169180,1630052333,0,30306,458.0,206.0,1321.0,0.0,0.0,0.0,0.0
1630052333810986860,1630052333,0,30306,458.0,200.0,1324.0,0.0,0.0,0.0,0.0
1630052333812230089,1630052333,0,30306,458.0,199.0,1327.0,0.0,0.0,0.0,0.0
1630052333823741374,1630052333,0,30306,459.0,197.0,1326.0,0.0,0.0,0.0,0.0
1630052333837007748,1630052333,0,30306,462.0,195.0,1323.0,0.0,0.0,0.0,0.0
1630052333871382419,1630052333,0,30306,464.0,196.0,1318.0,0.0,0.0,0.0,0.0
1630052333871903346,1630052333,0,30306,465.0,192.0,1320.0,0.0,0.0,0.0,0.0
1630052333874629420,1630052333,0,30306,463.0,188.0,1322.0,0.0,0.0,0.0,0.0
1630052333875101518,1630052333,0,30306,464.0,184.0,1324.0,0.0,0.0,0.0,0.0
1630052333885731564,1630052333,0,30306,463.0,181.0,1325.0,0.0,0.0,0.0,0.0
1630052333889983601,1630052333,0,30306,463.0,180.0,1326.0,0.0,0.0,0.0,0.0
1630052333919150074,1630052333,0,30306,466.0,177.0,1323.0,0.0,0.0,0.0,0.0
1630052333919694907,1630052333,0,30306,464.0,175.0,1324.0,0.0,0.0,0.0,0.0
1630052333922204536,1630052333,0,30306,461.0,165.0,1330.0,0.0,0.0,0.0,0.0
1630052333933669289,1630052333,0,30306,461.0,160.0,1332.0,0.0,0.0,0.0,0.0
1630052333936300843,1630052333,0,30306,463.0,157.0,1329.0,0.0,0.0,0.0,0.0
1630052333968937796,1630052333,0,30306,463.0,152.0,1332.0,0.0,0.0,0.0,0.0
1630052333969563283,1630052333,0,30306,465.0,152.0,1329.0,0.0,0.0,0.0,0.0
1630052333970399731,1630052333,0,30306,462.0,146.0,1336.0,0.0,0.0,0.0,0.0
1630052333981642841,1630052333,0,30306,467.0,144.0,1337.0,0.0,0.0,0.0,0.0
1630052333995824965,1630052333,0,30306,473.0,137.0,1336.0,0.0,0.0,0.0,0.0
1630052334014577383,1630052333,0,30306,469.0,139.0,1342.0,0.0,0.0,0.0,0.0
1630052334016599011,1630052333,0,30306,469.0,135.0,1348.0,0.0,0.0,0.0,0.0
1630052334048442820,1630052333,0,30306,470.0,124.0,1358.0,0.0,0.0,0.0,0.0
1630052334050157856,1630052334,0,30306,463.0,131.0,1363.0,0.0,0.0,0.0,0.0
1630052334052210453,1630052334,0,30306,460.0,135.0,1364.0,0.0,0.0,0.0,0.0
1630052334056009791,1630052334,0,30306,458.0,140.0,1363.0,0.0,0.0,0.0,0.0
1630052334086092416,1630052334,0,30306,453.0,144.0,1366.0,0.0,0.0,0.0,0.0
1630052334086491621,1630052334,0,30306,449.0,148.0,1370.0,0.0,0.0,0.0,0.0
1630052334088980769,1630052334,0,30306,444.0,152.0,1373.0,0.0,0.0,0.0,0.0
1630052334100438305,1630052334,0,30306,440.0,156.0,1376.0,0.0,0.0,0.0,0.0
1630052334102617605,1630052334,0,30306,434.0,160.0,1379.0,0.0,0.0,0.0,0.0
1630052334134302058,1630052334,0,30306,423.0,169.0,1384.0,0.0,0.0,0.0,0.0
1630052334136151123,1630052334,0,30306,420.0,175.0,1387.0,0.0,0.0,0.0,0.0
1630052334148204336,1630052334,0,30306,414.0,174.0,1394.0,0.0,0.0,0.0,0.0
1630052334151319895,1630052334,0,30306,409.0,177.0,1394.0,0.0,0.0,0.0,0.0
1630052334181321745,1630052334,0,30306,404.0,181.0,1398.0,0.0,0.0,0.0,0.0
1630052334181713605,1630052334,0,30306,398.0,186.0,1401.0,0.0,0.0,0.0,0.0
1630052334183340851,1630052334,0,30306,393.0,191.0,1404.0,0.0,0.0,0.0,0.0
1630052334195818340,1630052334,0,30306,388.0,198.0,1405.0,0.0,0.0,0.0,0.0
1630052334199020480,1630052334,0,30306,381.0,203.0,1408.0,0.0,0.0,0.0,0.0
1630052334212679406,1630052334,0,30306,374.0,205.0,1417.0,0.0,0.0,0.0,0.0
1630052334231334775,1630052334,0,30306,368.0,203.0,1423.0,0.0,0.0,0.0,0.0
1630052334233496092,1630052334,0,30306,364.0,202.0,1427.0,0.0,0.0,0.0,0.0
1630052334243568825,1630052334,0,30306,354.0,202.0,1435.0,0.0,0.0,0.0,0.0
1630052334246546648,1630052334,0,30306,347.0,202.0,1444.0,0.0,0.0,0.0,0.0
1630052334276937988,1630052334,0,30306,340.0,201.0,1449.0,0.0,0.0,0.0,0.0
1630052334277451378,1630052334,0,30306,335.0,202.0,1451.0,0.0,0.0,0.0,0.0
1630052334279001496,1630052334,0,30306,332.0,203.0,1452.0,0.0,0.0,0.0,0.0
1630052334281127483,1630052334,0,30306,328.0,209.0,1451.0,0.0,0.0,0.0,0.0
1630052334305959380,1630052334,0,30306,321.0,214.0,1452.0,0.0,0.0,0.0,0.0
1630052334308834071,1630052334,0,30306,320.0,211.0,1451.0,0.0,0.0,0.0,0.0
1630052334322327410,1630052334,0,30306,314.0,215.0,1454.0,0.0,0.0,0.0,0.0
1630052334324482423,1630052334,0,30306,307.0,211.0,1461.0,0.0,0.0,0.0,0.0
1630052334327817180,1630052334,0,30306,299.0,209.0,1468.0,0.0,0.0,0.0,0.0
1630052334352687797,1630052334,0,30306,295.0,210.0,1464.0,0.0,0.0,0.0,0.0
1630052334355703005,1630052334,0,30306,289.0,212.0,1464.0,0.0,0.0,0.0,0.0
1630052334370701636,1630052334,0,30306,288.0,211.0,1467.0,0.0,0.0,0.0,0.0
1630052334373761961,1630052334,0,30306,289.0,213.0,1463.0,0.0,0.0,0.0,0.0
1630052334403282804,1630052334,0,30306,287.0,209.0,1466.0,0.0,0.0,0.0,0.0
1630052334403665868,1630052334,0,30306,282.0,210.0,1466.0,0.0,0.0,0.0,0.0
1630052334405474572,1630052334,0,30306,283.0,209.0,1466.0,0.0,0.0,0.0,0.0
1630052334407744474,1630052334,0,30306,275.0,202.0,1470.0,0.0,0.0,0.0,0.0
1630052334409707774,1630052334,0,30306,270.0,202.0,1471.0,0.0,0.0,0.0,0.0
1630052334423188546,1630052334,0,30306,272.0,199.0,1473.0,0.0,0.0,0.0,0.0
1630052334447402068,1630052334,0,30306,272.0,197.0,1475.0,0.0,0.0,0.0,0.0
1630052334449551788,1630052334,0,30306,265.0,200.0,1480.0,0.0,0.0,0.0,0.0
1630052334452895865,1630052334,0,30306,263.0,199.0,1485.0,0.0,0.0,0.0,0.0
1630052334494715810,1630052334,0,30306,261.0,199.0,1492.0,0.0,0.0,0.0,0.0
1630052334495216419,1630052334,0,30306,265.0,202.0,1493.0,0.0,0.0,0.0,0.0
1630052334495771160,1630052334,0,30306,263.0,204.0,1499.0,0.0,0.0,0.0,0.0
1630052334497583520,1630052334,0,30306,267.0,204.0,1503.0,0.0,0.0,0.0,0.0
1630052334501196176,1630052334,0,30306,268.0,208.0,1502.0,0.0,0.0,0.0,0.0
1630052334504727548,1630052334,0,30306,267.0,209.0,1507.0,0.0,0.0,0.0,0.0
1630052334518290272,1630052334,0,30306,265.0,207.0,1517.0,0.0,0.0,0.0,0.0
1630052334541480195,1630052334,0,30306,268.0,207.0,1520.0,0.0,0.0,0.0,0.0
1630052334572806725,1630052334,0,30306,269.0,212.0,1520.0,0.0,0.0,0.0,0.0
1630052334573488615,1630052334,0,30306,273.0,215.0,1518.0,0.0,0.0,0.0,0.0
1630052334575120193,1630052334,0,30306,269.0,216.0,1525.0,0.0,0.0,0.0,0.0
1630052334577215123,1630052334,0,30306,270.0,219.0,1525.0,0.0,0.0,0.0,0.0
1630052334590289189,1630052334,0,30306,268.0,220.0,1529.0,0.0,0.0,0.0,0.0
1630052334592648030,1630052334,0,30306,264.0,220.0,1533.0,0.0,0.0,0.0,0.0
1630052334595865921,1630052334,0,30306,260.0,220.0,1535.0,0.0,0.0,0.0,0.0
1630052334621849637,1630052334,0,30306,261.0,219.0,1536.0,0.0,0.0,0.0,0.0
1630052334624676115,1630052334,0,30306,259.0,222.0,1536.0,0.0,0.0,0.0,0.0
1630052334628003645,1630052334,0,30306,260.0,225.0,1535.0,0.0,0.0,0.0,0.0
1630052334631410166,1630052334,0,30306,260.0,228.0,1532.0,0.0,0.0,0.0,0.0
1630052334644746008,1630052334,0,30306,260.0,234.0,1533.0,0.0,0.0,0.0,0.0
1630052334667257189,1630052334,0,30306,262.0,238.0,1531.0,0.0,0.0,0.0,0.0
1630052334670614876,1630052334,0,30306,256.0,241.0,1538.0,0.0,0.0,0.0,0.0
1630052334694732927,1630052334,0,30306,258.0,245.0,1539.0,0.0,0.0,0.0,0.0
1630052334695247745,1630052334,0,30306,254.0,246.0,1544.0,0.0,0.0,0.0,0.0
1630052334696906009,1630052334,0,30306,250.0,251.0,1550.0,0.0,0.0,0.0,0.0
1630052334708217759,1630052334,0,30306,250.0,255.0,1551.0,0.0,0.0,0.0,0.0
1630052334711232236,1630052334,0,30306,249.0,256.0,1551.0,0.0,0.0,0.0,0.0
1630052334725086980,1630052334,0,30306,250.0,257.0,1553.0,0.0,0.0,0.0,0.0
1630052334728488818,1630052334,0,30306,250.0,260.0,1554.0,0.0,0.0,0.0,0.0
1630052334742959366,1630052334,0,30306,256.0,268.0,1549.0,0.0,0.0,0.0,0.0
1630052334756130508,1630052334,0,30306,257.0,270.0,1549.0,0.0,0.0,0.0,0.0
1630052334759398026,1630052334,0,30306,256.0,275.0,1549.0,0.0,0.0,0.0,0.0
1630052334772731899,1630052334,0,30306,255.0,279.0,1550.0,0.0,0.0,0.0,0.0
1630052334787418059,1630052334,0,30306,257.0,288.0,1545.0,0.0,0.0,0.0,0.0
1630052334790355454,1630052334,0,30306,246.0,288.0,1552.0,0.0,0.0,0.0,0.0
1630052334805109768,1630052334,0,30306,246.0,292.0,1550.0,0.0,0.0,0.0,0.0
1630052334807010612,1630052334,0,30306,239.0,293.0,1556.0,0.0,0.0,0.0,0.0
1630052334821947011,1630052334,0,30306,236.0,299.0,1556.0,0.0,0.0,0.0,0.0
1630052334836322076,1630052334,0,30306,232.0,303.0,1559.0,0.0,0.0,0.0,0.0
1630052334839746309,1630052334,0,30306,223.0,302.0,1566.0,0.0,0.0,0.0,0.0
1630052334869512906,1630052334,0,30306,221.0,307.0,1566.0,0.0,0.0,0.0,0.0
1630052334870002878,1630052334,0,30306,219.0,309.0,1568.0,0.0,0.0,0.0,0.0
1630052334871378478,1630052334,0,30306,217.0,310.0,1568.0,0.0,0.0,0.0,0.0
1630052334883847110,1630052334,0,30306,221.0,307.0,1568.0,0.0,0.0,0.0,0.0
1630052334885945116,1630052334,0,30306,223.0,305.0,1570.0,0.0,0.0,0.0,0.0
1630052334916954762,1630052334,0,30306,225.0,301.0,1573.0,0.0,0.0,0.0,0.0
1630052334919048449,1630052334,0,30306,227.0,301.0,1573.0,0.0,0.0,0.0,0.0
1630052334919419741,1630052334,0,30306,224.0,300.0,1571.0,0.0,0.0,0.0,0.0
1630052334932609913,1630052334,0,30306,228.0,302.0,1567.0,0.0,0.0,0.0,0.0
1630052334934599181,1630052334,0,30306,233.0,301.0,1564.0,0.0,0.0,0.0,0.0
1630052334948990586,1630052334,0,30306,239.0,299.0,1563.0,0.0,0.0,0.0,0.0
1630052334962342323,1630052334,0,30306,244.0,299.0,1557.0,0.0,0.0,0.0,0.0
1630052334965369991,1630052334,0,30306,248.0,300.0,1552.0,0.0,0.0,0.0,0.0
1630052334980302736,1630052334,0,30306,253.0,302.0,1546.0,0.0,0.0,0.0,0.0
1630052335009865076,1630052334,0,30306,259.0,299.0,1542.0,0.0,0.0,0.0,0.0
1630052335010313466,1630052334,0,30306,264.0,294.0,1541.0,0.0,0.0,0.0,0.0
1630052335011861357,1630052334,0,30306,268.0,289.0,1541.0,0.0,0.0,0.0,0.0
1630052335014368796,1630052334,0,30306,275.0,287.0,1536.0,0.0,0.0,0.0,0.0
1630052335027005567,1630052334,0,30306,280.0,282.0,1535.0,0.0,0.0,0.0,0.0
1630052335030113579,1630052334,0,30306,286.0,277.0,1534.0,0.0,0.0,0.0,0.0
1630052335043655318,1630052335,0,30306,292.0,273.0,1532.0,0.0,0.0,0.0,0.0
1630052335057075450,1630052335,0,30306,296.0,267.0,1529.0,0.0,0.0,0.0,0.0
1630052335093770327,1630052335,0,30306,310.0,258.0,1524.0,0.0,0.0,0.0,0.0
1630052335095226868,1630052335,0,30306,313.0,257.0,1523.0,0.0,0.0,0.0,0.0
1630052335095711831,1630052335,0,30306,321.0,255.0,1516.0,0.0,0.0,0.0,0.0
1630052335106014656,1630052335,0,30306,329.0,253.0,1509.0,0.0,0.0,0.0,0.0
1630052335108948203,1630052335,0,30306,334.0,252.0,1503.0,0.0,0.0,0.0,0.0
1630052335112271696,1630052335,0,30306,342.0,252.0,1495.0,0.0,0.0,0.0,0.0
1630052335115579553,1630052335,0,30306,351.0,252.0,1486.0,0.0,0.0,0.0,0.0
1630052335128948987,1630052335,0,30306,359.0,251.0,1477.0,0.0,0.0,0.0,0.0
1630052335153260576,1630052335,0,30306,365.0,249.0,1467.0,0.0,0.0,0.0,0.0
1630052335156734107,1630052335,0,30306,370.0,248.0,1461.0,0.0,0.0,0.0,0.0
1630052335187172535,1630052335,0,30306,379.0,248.0,1451.0,0.0,0.0,0.0,0.0
1630052335187626493,1630052335,0,30306,387.0,246.0,1442.0,0.0,0.0,0.0,0.0
1630052335189176256,1630052335,0,30306,394.0,243.0,1435.0,0.0,0.0,0.0,0.0
1630052335200408549,1630052335,0,30306,399.0,240.0,1425.0,0.0,0.0,0.0,0.0
1630052335203674722,1630052335,0,30306,401.0,236.0,1421.0,0.0,0.0,0.0,0.0
1630052335207278847,1630052335,0,30306,411.0,239.0,1410.0,0.0,0.0,0.0,0.0
1630052335231766235,1630052335,0,30306,418.0,241.0,1408.0,0.0,0.0,0.0,0.0
1630052335234733005,1630052335,0,30306,430.0,242.0,1405.0,0.0,0.0,0.0,0.0
1630052335247929627,1630052335,0,30306,430.0,239.0,1399.0,0.0,0.0,0.0,0.0
1630052335251111364,1630052335,0,30306,431.0,236.0,1391.0,0.0,0.0,0.0,0.0
1630052335294862778,1630052335,0,30306,436.0,234.0,1384.0,0.0,0.0,0.0,0.0
1630052335295322316,1630052335,0,30306,439.0,234.0,1382.0,0.0,0.0,0.0,0.0
1630052335295748510,1630052335,0,30306,439.0,235.0,1380.0,0.0,0.0,0.0,0.0
1630052335297894713,1630052335,0,30306,444.0,237.0,1376.0,0.0,0.0,0.0,0.0
1630052335300220769,1630052335,0,30306,446.0,236.0,1372.0,0.0,0.0,0.0,0.0
1630052335302292358,1630052335,0,30306,445.0,240.0,1368.0,0.0,0.0,0.0,0.0
1630052335327316701,1630052335,0,30306,445.0,242.0,1366.0,0.0,0.0,0.0,0.0
1630052335329394219,1630052335,0,30306,444.0,244.0,1366.0,0.0,0.0,0.0,0.0
1630052335333636206,1630052335,0,30306,442.0,249.0,1365.0,0.0,0.0,0.0,0.0
1630052335337307205,1630052335,0,30306,442.0,253.0,1358.0,0.0,0.0,0.0,0.0
1630052335350473065,1630052335,0,30306,442.0,258.0,1349.0,0.0,0.0,0.0,0.0
1630052335364033501,1630052335,0,30306,448.0,261.0,1344.0,0.0,0.0,0.0,0.0
1630052335367020375,1630052335,0,30306,452.0,263.0,1340.0,0.0,0.0,0.0,0.0
1630052335398182527,1630052335,0,30306,460.0,266.0,1334.0,0.0,0.0,0.0,0.0
1630052335398678976,1630052335,0,30306,463.0,265.0,1328.0,0.0,0.0,0.0,0.0
1630052335400170094,1630052335,0,30306,473.0,268.0,1318.0,0.0,0.0,0.0,0.0
1630052335422261308,1630052335,0,30306,480.0,269.0,1312.0,0.0,0.0,0.0,0.0
1630052335424482752,1630052335,0,30306,484.0,271.0,1305.0,0.0,0.0,0.0,0.0
1630052335428486341,1630052335,0,30306,488.0,269.0,1299.0,0.0,0.0,0.0,0.0
1630052335451673751,1630052335,0,30306,492.0,269.0,1292.0,0.0,0.0,0.0,0.0
1630052335461184420,1630052335,0,30306,491.0,266.0,1292.0,0.0,0.0,0.0,0.0
1630052335461577409,1630052335,0,30306,497.0,262.0,1286.0,0.0,0.0,0.0,0.0
1630052335463476844,1630052335,0,30306,500.0,256.0,1282.0,0.0,0.0,0.0,0.0
1630052335475640718,1630052335,0,30306,502.0,253.0,1274.0,0.0,0.0,0.0,0.0
1630052335489852975,1630052335,0,30306,505.0,247.0,1273.0,0.0,0.0,0.0,0.0
1630052335517063825,1630052335,0,30306,506.0,242.0,1272.0,0.0,0.0,0.0,0.0
1630052335519061003,1630052335,0,30306,508.0,238.0,1271.0,0.0,0.0,0.0,0.0
1630052335547251349,1630052335,0,30306,503.0,234.0,1277.0,0.0,0.0,0.0,0.0
1630052335547645866,1630052335,0,30306,502.0,227.0,1282.0,0.0,0.0,0.0,0.0
1630052335549189772,1630052335,0,30306,502.0,222.0,1285.0,0.0,0.0,0.0,0.0
1630052335551233889,1630052335,0,30306,502.0,219.0,1288.0,0.0,0.0,0.0,0.0
1630052335575139389,1630052335,0,30306,501.0,213.0,1294.0,0.0,0.0,0.0,0.0
1630052335577660875,1630052335,0,30306,504.0,214.0,1292.0,0.0,0.0,0.0,0.0
1630052335597719003,1630052335,0,30306,502.0,211.0,1295.0,0.0,0.0,0.0,0.0
1630052335598122529,1630052335,0,30306,502.0,207.0,1297.0,0.0,0.0,0.0,0.0
1630052335600821492,1630052335,0,30306,502.0,206.0,1297.0,0.0,0.0,0.0,0.0
1630052335621910032,1630052335,0,30306,500.0,203.0,1299.0,0.0,0.0,0.0,0.0
1630052335625270197,1630052335,0,30306,498.0,202.0,1301.0,0.0,0.0,0.0,0.0
1630052335628726839,1630052335,0,30306,496.0,201.0,1304.0,0.0,0.0,0.0,0.0
1630052335632161200,1630052335,0,30306,495.0,199.0,1304.0,0.0,0.0,0.0,0.0
1630052335645784480,1630052335,0,30306,491.0,202.0,1305.0,0.0,0.0,0.0,0.0
1630052335658696981,1630052335,0,30306,492.0,205.0,1302.0,0.0,0.0,0.0,0.0
1630052335662475311,1630052335,0,30306,491.0,206.0,1301.0,0.0,0.0,0.0,0.0
1630052335703168279,1630052335,0,30306,488.0,207.0,1306.0,0.0,0.0,0.0,0.0
1630052335703672201,1630052335,0,30306,488.0,211.0,1304.0,0.0,0.0,0.0,0.0
1630052335705130428,1630052335,0,30306,484.0,215.0,1307.0,0.0,0.0,0.0,0.0
1630052335707775298,1630052335,0,30306,479.0,219.0,1310.0,0.0,0.0,0.0,0.0
1630052335710150769,1630052335,0,30306,474.0,219.0,1314.0,0.0,0.0,0.0,0.0
1630052335739814512,1630052335,0,30306,476.0,223.0,1313.0,0.0,0.0,0.0,0.0
1630052335740702572,1630052335,0,30306,472.0,228.0,1316.0,0.0,0.0,0.0,0.0
1630052335742105885,1630052335,0,30306,466.0,231.0,1321.0,0.0,0.0,0.0,0.0
1630052335754832454,1630052335,0,30306,467.0,235.0,1320.0,0.0,0.0,0.0,0.0
1630052335756429943,1630052335,0,30306,470.0,241.0,1317.0,0.0,0.0,0.0,0.0
1630052335771011054,1630052335,0,30306,468.0,246.0,1314.0,0.0,0.0,0.0,0.0
1630052335785693960,1630052335,0,30306,469.0,254.0,1311.0,0.0,0.0,0.0,0.0
1630052335816181357,1630052335,0,30306,463.0,257.0,1313.0,0.0,0.0,0.0,0.0
1630052335816575083,1630052335,0,30306,458.0,259.0,1320.0,0.0,0.0,0.0,0.0
1630052335818593472,1630052335,0,30306,458.0,262.0,1322.0,0.0,0.0,0.0,0.0
1630052335820769278,1630052335,0,30306,456.0,268.0,1318.0,0.0,0.0,0.0,0.0
1630052335832969804,1630052335,0,30306,456.0,271.0,1317.0,0.0,0.0,0.0,0.0
1630052335835011156,1630052335,0,30306,455.0,278.0,1316.0,0.0,0.0,0.0,0.0
1630052335866485761,1630052335,0,30306,453.0,280.0,1317.0,0.0,0.0,0.0,0.0
1630052335867006870,1630052335,0,30306,453.0,282.0,1316.0,0.0,0.0,0.0,0.0
1630052335869748559,1630052335,0,30306,452.0,280.0,1318.0,0.0,0.0,0.0,0.0
1630052335880859603,1630052335,0,30306,453.0,279.0,1319.0,0.0,0.0,0.0,0.0
1630052335893203910,1630052335,0,30306,450.0,282.0,1321.0,0.0,0.0,0.0,0.0
1630052335897405939,1630052335,0,30306,447.0,281.0,1328.0,0.0,0.0,0.0,0.0
1630052335927565585,1630052335,0,30306,446.0,282.0,1330.0,0.0,0.0,0.0,0.0
1630052335927939594,1630052335,0,30306,443.0,283.0,1333.0,0.0,0.0,0.0,0.0
1630052335929640937,1630052335,0,30306,440.0,285.0,1337.0,0.0,0.0,0.0,0.0
1630052335940947882,1630052335,0,30306,438.0,284.0,1341.0,0.0,0.0,0.0,0.0
1630052335945833744,1630052335,0,30306,439.0,286.0,1344.0,0.0,0.0,0.0,0.0
1630052335962849470,1630052335,0,30306,441.0,290.0,1341.0,0.0,0.0,0.0,0.0
1630052335988864634,1630052335,0,30306,439.0,293.0,1344.0,0.0,0.0,0.0,0.0
1630052335989248356,1630052335,0,30306,432.0,292.0,1350.0,0.0,0.0,0.0,0.0
1630052335990876670,1630052335,0,30306,427.0,292.0,1356.0,0.0,0.0,0.0,0.0
1630052335993553252,1630052335,0,30306,428.0,295.0,1357.0,0.0,0.0,0.0,0.0
1630052336005667314,1630052335,0,30306,424.0,298.0,1361.0,0.0,0.0,0.0,0.0
1630052336019131226,1630052335,0,30306,427.0,302.0,1358.0,0.0,0.0,0.0,0.0
1630052336039313243,1630052335,0,30306,422.0,306.0,1364.0,0.0,0.0,0.0,0.0
1630052336039962677,1630052335,0,30306,422.0,304.0,1367.0,0.0,0.0,0.0,0.0
1630052336041256518,1630052336,0,30306,421.0,310.0,1365.0,0.0,0.0,0.0,0.0
1630052336053843945,1630052336,0,30306,422.0,313.0,1365.0,0.0,0.0,0.0,0.0
1630052336067126523,1630052336,0,30306,420.0,313.0,1369.0,0.0,0.0,0.0,0.0
1630052336070176833,1630052336,0,30306,418.0,314.0,1372.0,0.0,0.0,0.0,0.0
1630052336084811430,1630052336,0,30306,417.0,317.0,1371.0,0.0,0.0,0.0,0.0
1630052336088172460,1630052336,0,30306,412.0,317.0,1377.0,0.0,0.0,0.0,0.0
1630052336102570957,1630052336,0,30306,411.0,320.0,1380.0,0.0,0.0,0.0,0.0
1630052336116080474,1630052336,0,30306,406.0,320.0,1387.0,0.0,0.0,0.0,0.0
1630052336118869389,1630052336,0,30306,402.0,322.0,1391.0,0.0,0.0,0.0,0.0
1630052336132252314,1630052336,0,30306,403.0,326.0,1391.0,0.0,0.0,0.0,0.0
1630052336146648121,1630052336,0,30306,402.0,327.0,1392.0,0.0,0.0,0.0,0.0
1630052336166849643,1630052336,0,30306,399.0,325.0,1398.0,0.0,0.0,0.0,0.0
1630052336167372721,1630052336,0,30306,398.0,328.0,1402.0,0.0,0.0,0.0,0.0
1630052336168704684,1630052336,0,30306,390.0,324.0,1409.0,0.0,0.0,0.0,0.0
1630052336183983841,1630052336,0,30306,392.0,323.0,1401.0,0.0,0.0,0.0,0.0
1630052336193952925,1630052336,0,30306,391.0,324.0,1399.0,0.0,0.0,0.0,0.0
1630052336223961489,1630052336,0,30306,388.0,322.0,1397.0,0.0,0.0,0.0,0.0
1630052336224336624,1630052336,0,30306,387.0,320.0,1394.0,0.0,0.0,0.0,0.0
1630052336226085807,1630052336,0,30306,388.0,319.0,1393.0,0.0,0.0,0.0,0.0
1630052336228156827,1630052336,0,30306,383.0,314.0,1395.0,0.0,0.0,0.0,0.0
1630052336241826009,1630052336,0,30306,381.0,307.0,1396.0,0.0,0.0,0.0,0.0
1630052336244211302,1630052336,0,30306,378.0,300.0,1395.0,0.0,0.0,0.0,0.0
1630052336247588006,1630052336,0,30306,380.0,298.0,1390.0,0.0,0.0,0.0,0.0
1630052336273201714,1630052336,0,30306,380.0,298.0,1388.0,0.0,0.0,0.0,0.0
1630052336277488034,1630052336,0,30306,377.0,294.0,1387.0,0.0,0.0,0.0,0.0
1630052336279656465,1630052336,0,30306,372.0,289.0,1394.0,0.0,0.0,0.0,0.0
1630052336281671546,1630052336,0,30306,367.0,285.0,1396.0,0.0,0.0,0.0,0.0
1630052336295409611,1630052336,0,30306,362.0,283.0,1400.0,0.0,0.0,0.0,0.0
1630052336326746905,1630052336,0,30306,361.0,282.0,1398.0,0.0,0.0,0.0,0.0
1630052336327609803,1630052336,0,30306,357.0,280.0,1404.0,0.0,0.0,0.0,0.0
1630052336328670530,1630052336,0,30306,352.0,279.0,1405.0,0.0,0.0,0.0,0.0
1630052336330661559,1630052336,0,30306,353.0,276.0,1403.0,0.0,0.0,0.0,0.0
1630052336343148924,1630052336,0,30306,355.0,277.0,1401.0,0.0,0.0,0.0,0.0
1630052336357963945,1630052336,0,30306,352.0,278.0,1401.0,0.0,0.0,0.0,0.0
1630052336359623617,1630052336,0,30306,351.0,276.0,1400.0,0.0,0.0,0.0,0.0
1630052336376044093,1630052336,0,30306,350.0,274.0,1400.0,0.0,0.0,0.0,0.0
1630052336398026116,1630052336,0,30306,358.0,275.0,1396.0,0.0,0.0,0.0,0.0
1630052336399751001,1630052336,0,30306,359.0,276.0,1400.0,0.0,0.0,0.0,0.0
1630052336405355913,1630052336,0,30306,359.0,274.0,1407.0,0.0,0.0,0.0,0.0
1630052336408706264,1630052336,0,30306,365.0,272.0,1408.0,0.0,0.0,0.0,0.0
1630052336438522908,1630052336,0,30306,369.0,274.0,1412.0,0.0,0.0,0.0,0.0
1630052336439018513,1630052336,0,30306,373.0,270.0,1417.0,0.0,0.0,0.0,0.0
1630052336440587283,1630052336,0,30306,380.0,269.0,1417.0,0.0,0.0,0.0,0.0
1630052336453418009,1630052336,0,30306,385.0,269.0,1419.0,0.0,0.0,0.0,0.0
1630052336456432665,1630052336,0,30306,391.0,273.0,1416.0,0.0,0.0,0.0,0.0
1630052336469739558,1630052336,0,30306,397.0,275.0,1420.0,0.0,0.0,0.0,0.0
1630052336485086676,1630052336,0,30306,404.0,275.0,1416.0,0.0,0.0,0.0,0.0
1630052336487621111,1630052336,0,30306,411.0,279.0,1416.0,0.0,0.0,0.0,0.0
1630052336500858361,1630052336,0,30306,415.0,283.0,1419.0,0.0,0.0,0.0,0.0
1630052336514439157,1630052336,0,30306,417.0,287.0,1419.0,0.0,0.0,0.0,0.0
1630052336534712345,1630052336,0,30306,420.0,290.0,1417.0,0.0,0.0,0.0,0.0
1630052336535501495,1630052336,0,30306,422.0,289.0,1416.0,0.0,0.0,0.0,0.0
1630052336537728602,1630052336,0,30306,421.0,289.0,1419.0,0.0,0.0,0.0,0.0
1630052336547749755,1630052336,0,30306,422.0,289.0,1420.0,0.0,0.0,0.0,0.0
1630052336562393442,1630052336,0,30306,432.0,291.0,1414.0,0.0,0.0,0.0,0.0
1630052336566184264,1630052336,0,30306,434.0,291.0,1418.0,0.0,0.0,0.0,0.0
1630052336579180449,1630052336,0,30306,432.0,296.0,1419.0,0.0,0.0,0.0,0.0
1630052336582126305,1630052336,0,30306,434.0,302.0,1416.0,0.0,0.0,0.0,0.0
1630052336596306505,1630052336,0,30306,434.0,302.0,1415.0,0.0,0.0,0.0,0.0
1630052336619243658,1630052336,0,30306,434.0,302.0,1412.0,0.0,0.0,0.0,0.0
1630052336621365045,1630052336,0,30306,435.0,304.0,1409.0,0.0,0.0,0.0,0.0
1630052336644542424,1630052336,0,30306,441.0,301.0,1408.0,0.0,0.0,0.0,0.0
1630052336645689398,1630052336,0,30306,441.0,298.0,1409.0,0.0,0.0,0.0,0.0
1630052336646603354,1630052336,0,30306,442.0,296.0,1409.0,0.0,0.0,0.0,0.0
1630052336658198305,1630052336,0,30306,447.0,292.0,1403.0,0.0,0.0,0.0,0.0
1630052336659945008,1630052336,0,30306,446.0,290.0,1401.0,0.0,0.0,0.0,0.0
1630052336674456762,1630052336,0,30306,447.0,288.0,1402.0,0.0,0.0,0.0,0.0
1630052336696862283,1630052336,0,30306,449.0,287.0,1401.0,0.0,0.0,0.0,0.0
1630052336699338989,1630052336,0,30306,450.0,288.0,1399.0,0.0,0.0,0.0,0.0
1630052336705587899,1630052336,0,30306,447.0,290.0,1395.0,0.0,0.0,0.0,0.0
1630052336708812579,1630052336,0,30306,447.0,293.0,1388.0,0.0,0.0,0.0,0.0
1630052336722604723,1630052336,0,30306,445.0,293.0,1387.0,0.0,0.0,0.0,0.0
1630052336736033816,1630052336,0,30306,444.0,291.0,1383.0,0.0,0.0,0.0,0.0
1630052336739998581,1630052336,0,30306,442.0,292.0,1378.0,0.0,0.0,0.0,0.0
1630052336754555676,1630052336,0,30306,443.0,292.0,1372.0,0.0,0.0,0.0,0.0
1630052336757028168,1630052336,0,30306,442.0,296.0,1371.0,0.0,0.0,0.0,0.0
1630052336771542043,1630052336,0,30306,441.0,293.0,1369.0,0.0,0.0,0.0,0.0
1630052336802042303,1630052336,0,30306,444.0,294.0,1365.0,0.0,0.0,0.0,0.0
1630052336802769309,1630052336,0,30306,442.0,296.0,1364.0,0.0,0.0,0.0,0.0
1630052336804157954,1630052336,0,30306,443.0,295.0,1361.0,0.0,0.0,0.0,0.0
1630052336817034688,1630052336,0,30306,446.0,293.0,1357.0,0.0,0.0,0.0,0.0
1630052336828913772,1630052336,0,30306,453.0,293.0,1351.0,0.0,0.0,0.0,0.0
1630052336832925240,1630052336,0,30306,454.0,292.0,1348.0,0.0,0.0,0.0,0.0
1630052336847063792,1630052336,0,30306,453.0,287.0,1345.0,0.0,0.0,0.0,0.0
1630052336863740102,1630052336,0,30306,457.0,288.0,1334.0,0.0,0.0,0.0,0.0
1630052336865789457,1630052336,0,30306,459.0,286.0,1324.0,0.0,0.0,0.0,0.0
1630052336894132759,1630052336,0,30306,456.0,282.0,1318.0,0.0,0.0,0.0,0.0
1630052336894716883,1630052336,0,30306,451.0,277.0,1315.0,0.0,0.0,0.0,0.0
1630052336897021346,1630052336,0,30306,446.0,269.0,1316.0,0.0,0.0,0.0,0.0
1630052336908094414,1630052336,0,30306,444.0,266.0,1312.0,0.0,0.0,0.0,0.0
1630052336911388170,1630052336,0,30306,443.0,260.0,1311.0,0.0,0.0,0.0,0.0
1630052336925226986,1630052336,0,30306,440.0,256.0,1312.0,0.0,0.0,0.0,0.0
1630052336955204072,1630052336,0,30306,435.0,251.0,1309.0,0.0,0.0,0.0,0.0
1630052336958280957,1630052336,0,30306,435.0,249.0,1307.0,0.0,0.0,0.0,0.0
1630052336960466929,1630052336,0,30306,439.0,244.0,1303.0,0.0,0.0,0.0,0.0
1630052336972491540,1630052336,0,30306,435.0,237.0,1301.0,0.0,0.0,0.0,0.0
1630052336985991865,1630052336,0,30306,435.0,234.0,1296.0,0.0,0.0,0.0,0.0
1630052336990612351,1630052336,0,30306,435.0,231.0,1295.0,0.0,0.0,0.0,0.0
1630052337007067721,0,0,,54321.0,54321.0,54321.0,0.0,0.0,0.0,0.0
1630052337007559253,1630052336,0,30306,436.0,226.0,1291.0,0.0,0.0,0.0,0.0
1630052337010199068,1630052336,0,30306,434.0,224.0,1288.0,0.0,0.0,0.0,0.0
1630052337012837272,1630052336,0,30306,434.0,219.0,1286.0,0.0,0.0,0.0,0.0
1630052337033834436,1630052336,0,30306,434.0,214.0,1279.0,0.0,0.0,0.0,0.0
1630052337055077457,1630052336,0,30306,434.0,215.0,1275.0,0.0,0.0,0.0,0.0
1630052337055524630,1630052337,0,30306,433.0,213.0,1270.0,0.0,0.0,0.0,0.0
1630052337057347773,1630052337,0,30306,435.0,210.0,1265.0,0.0,0.0,0.0,0.0
1630052337060372090,1630052337,0,30306,436.0,205.0,1258.0,0.0,0.0,0.0,0.0
1630052337083457550,1630052337,0,30306,435.0,198.0,1254.0,0.0,0.0,0.0,0.0
1630052337086857538,1630052337,0,30306,436.0,193.0,1255.0,0.0,0.0,0.0,0.0
1630052337089462913,1630052337,0,30306,438.0,187.0,1253.0,0.0,0.0,0.0,0.0
1630052337121354814,1630052337,0,30306,444.0,180.0,1248.0,0.0,0.0,0.0,0.0
1630052337122116856,1630052337,0,30306,450.0,172.0,1247.0,0.0,0.0,0.0,0.0
1630052337123157783,1630052337,0,30306,453.0,162.0,1247.0,0.0,0.0,0.0,0.0
1630052337125283605,1630052337,0,30306,449.0,166.0,1246.0,0.0,0.0,0.0,0.0
1630052337138888689,1630052337,0,30306,442.0,167.0,1246.0,0.0,0.0,0.0,0.0
1630052337152144317,1630052337,0,30306,444.0,157.0,1249.0,0.0,0.0,0.0,0.0
1630052337155216432,1630052337,0,30306,438.0,158.0,1252.0,0.0,0.0,0.0,0.0
1630052337169793101,1630052337,0,30306,435.0,155.0,1255.0,0.0,0.0,0.0,0.0
1630052337171959506,1630052337,0,30306,434.0,148.0,1258.0,0.0,0.0,0.0,0.0
1630052337187823415,1630052337,0,30306,432.0,145.0,1260.0,0.0,0.0,0.0,0.0
1630052337218276713,1630052337,0,30306,430.0,143.0,1266.0,0.0,0.0,0.0,0.0
1630052337219770462,1630052337,0,30306,425.0,142.0,1269.0,0.0,0.0,0.0,0.0
1630052337222145597,1630052337,0,30306,421.0,142.0,1272.0,0.0,0.0,0.0,0.0
1630052337234336705,1630052337,0,30306,419.0,144.0,1271.0,0.0,0.0,0.0,0.0
1630052337248313046,1630052337,0,30306,420.0,144.0,1274.0,0.0,0.0,0.0,0.0
1630052337278275644,1630052337,0,30306,421.0,143.0,1272.0,0.0,0.0,0.0,0.0
1630052337278839385,1630052337,0,30306,418.0,143.0,1273.0,0.0,0.0,0.0,0.0
1630052337280344609,1630052337,0,30306,418.0,143.0,1270.0,0.0,0.0,0.0,0.0
1630052337282892532,1630052337,0,30306,414.0,140.0,1275.0,0.0,0.0,0.0,0.0
1630052337299490786,1630052337,0,30306,406.0,138.0,1282.0,0.0,0.0,0.0,0.0
1630052337302484379,1630052337,0,30306,400.0,141.0,1285.0,0.0,0.0,0.0,0.0
1630052337329231096,1630052337,0,30306,399.0,145.0,1285.0,0.0,0.0,0.0,0.0
1630052337329824417,1630052337,0,30306,391.0,141.0,1293.0,0.0,0.0,0.0,0.0
1630052337331496734,1630052337,0,30306,390.0,143.0,1298.0,0.0,0.0,0.0,0.0
1630052337342436816,1630052337,0,30306,386.0,144.0,1306.0,0.0,0.0,0.0,0.0
1630052337345752257,1630052337,0,30306,386.0,150.0,1308.0,0.0,0.0,0.0,0.0
1630052337359430226,1630052337,0,30306,386.0,155.0,1311.0,0.0,0.0,0.0,0.0
1630052337373985949,1630052337,0,30306,389.0,163.0,1308.0,0.0,0.0,0.0,0.0
1630052337377457831,1630052337,0,30306,391.0,169.0,1307.0,0.0,0.0,0.0,0.0
1630052337390708349,1630052337,0,30306,390.0,175.0,1311.0,0.0,0.0,0.0,0.0
1630052337393726080,1630052337,0,30306,393.0,180.0,1310.0,0.0,0.0,0.0,0.0
1630052337407305989,1630052337,0,30306,400.0,186.0,1305.0,0.0,0.0,0.0,0.0
1630052337421091971,1630052337,0,30306,403.0,194.0,1302.0,0.0,0.0,0.0,0.0
1630052337424237852,1630052337,0,30306,409.0,197.0,1300.0,0.0,0.0,0.0,0.0
1630052337455940717,1630052337,0,30306,412.0,206.0,1298.0,0.0,0.0,0.0,0.0
1630052337456423428,1630052337,0,30306,405.0,202.0,1307.0,0.0,0.0,0.0,0.0
1630052337457949578,1630052337,0,30306,402.0,204.0,1313.0,0.0,0.0,0.0,0.0
1630052337468859028,1630052337,0,30306,393.0,203.0,1321.0,0.0,0.0,0.0,0.0
1630052337472135283,1630052337,0,30306,385.0,199.0,1329.0,0.0,0.0,0.0,0.0
1630052337503839086,1630052337,0,30306,375.0,198.0,1337.0,0.0,0.0,0.0,0.0
1630052337504322916,1630052337,0,30306,370.0,196.0,1342.0,0.0,0.0,0.0,0.0
1630052337505561071,1630052337,0,30306,364.0,194.0,1347.0,0.0,0.0,0.0,0.0
1630052337521355535,1630052337,0,30306,355.0,192.0,1355.0,0.0,0.0,0.0,0.0
1630052337523265339,1630052337,0,30306,355.0,197.0,1357.0,0.0,0.0,0.0,0.0
1630052337534876561,1630052337,0,30306,352.0,201.0,1359.0,0.0,0.0,0.0,0.0
1630052337548044805,1630052337,0,30306,350.0,207.0,1359.0,0.0,0.0,0.0,0.0
1630052337551489271,1630052337,0,30306,351.0,213.0,1364.0,0.0,0.0,0.0,0.0
1630052337583440811,1630052337,0,30306,348.0,222.0,1369.0,0.0,0.0,0.0,0.0
1630052337584561747,1630052337,0,30306,347.0,229.0,1372.0,0.0,0.0,0.0,0.0
1630052337595517116,1630052337,0,30306,350.0,238.0,1370.0,0.0,0.0,0.0,0.0
1630052337599044329,1630052337,0,30306,353.0,246.0,1373.0,0.0,0.0,0.0,0.0
1630052337611464739,1630052337,0,30306,358.0,255.0,1372.0,0.0,0.0,0.0,0.0
1630052337625761123,1630052337,0,30306,363.0,262.0,1374.0,0.0,0.0,0.0,0.0
1630052337627960735,1630052337,0,30306,370.0,267.0,1375.0,0.0,0.0,0.0,0.0
1630052337642445629,1630052337,0,30306,373.0,271.0,1377.0,0.0,0.0,0.0,0.0
1630052337646130434,1630052337,0,30306,377.0,276.0,1381.0,0.0,0.0,0.0,0.0
1630052337659269539,1630052337,0,30306,384.0,281.0,1384.0,0.0,0.0,0.0,0.0
1630052337691199115,1630052337,0,30306,395.0,288.0,1393.0,0.0,0.0,0.0,0.0
1630052337692637055,1630052337,0,30306,402.0,292.0,1397.0,0.0,0.0,0.0,0.0
1630052337695130896,1630052337,0,30306,410.0,294.0,1400.0,0.0,0.0,0.0,0.0
1630052337697561000,1630052337,0,30306,419.0,299.0,1402.0,0.0,0.0,0.0,0.0
1630052337727863944,1630052337,0,30306,425.0,307.0,1406.0,0.0,0.0,0.0,0.0
1630052337728492561,1630052337,0,30306,429.0,311.0,1405.0,0.0,0.0,0.0,0.0
1630052337729806205,1630052337,0,30306,435.0,317.0,1408.0,0.0,0.0,0.0,0.0
1630052337751615536,1630052337,0,30306,438.0,324.0,1409.0,0.0,0.0,0.0,0.0
1630052337754293453,1630052337,0,30306,444.0,331.0,1407.0,0.0,0.0,0.0,0.0
1630052337758695566,1630052337,0,30306,445.0,333.0,1407.0,0.0,0.0,0.0,0.0
1630052337761936150,1630052337,0,30306,450.0,337.0,1406.0,0.0,0.0,0.0,0.0
1630052337775400200,1630052337,0,30306,455.0,341.0,1403.0,0.0,0.0,0.0,0.0
1630052337807062970,1630052337,0,30306,458.0,342.0,1403.0,0.0,0.0,0.0,0.0
1630052337807704044,1630052337,0,30306,464.0,345.0,1399.0,0.0,0.0,0.0,0.0
1630052337809550444,1630052337,0,30306,472.0,350.0,1395.0,0.0,0.0,0.0,0.0
1630052337819610580,1630052337,0,30306,475.0,348.0,1397.0,0.0,0.0,0.0,0.0
1630052337822866820,1630052337,0,30306,476.0,350.0,1400.0,0.0,0.0,0.0,0.0
1630052337837227340,1630052337,0,30306,480.0,352.0,1402.0,0.0,0.0,0.0,0.0
1630052337839276023,1630052337,0,30306,480.0,358.0,1402.0,0.0,0.0,0.0,0.0
1630052337853986741,1630052337,0,30306,482.0,363.0,1405.0,0.0,0.0,0.0,0.0
1630052337866244128,1630052337,0,30306,484.0,364.0,1411.0,0.0,0.0,0.0,0.0
1630052337887488539,1630052337,0,30306,489.0,363.0,1423.0,0.0,0.0,0.0,0.0
1630052337889836230,1630052337,0,30306,491.0,362.0,1429.0,0.0,0.0,0.0,0.0
1630052337901067041,1630052337,0,30306,494.0,361.0,1433.0,0.0,0.0,0.0,0.0
1630052337915526708,1630052337,0,30306,497.0,357.0,1441.0,0.0,0.0,0.0,0.0
1630052337918026647,1630052337,0,30306,502.0,357.0,1442.0,0.0,0.0,0.0,0.0
1630052337949242631,1630052337,0,30306,505.0,356.0,1451.0,0.0,0.0,0.0,0.0
1630052337949998806,1630052337,0,30306,508.0,357.0,1456.0,0.0,0.0,0.0,0.0
1630052337951083440,1630052337,0,30306,511.0,359.0,1458.0,0.0,0.0,0.0,0.0
1630052337962392926,1630052337,0,30306,515.0,361.0,1462.0,0.0,0.0,0.0,0.0
1630052337965454562,1630052337,0,30306,519.0,360.0,1467.0,0.0,0.0,0.0,0.0
1630052337978553493,1630052337,0,30306,520.0,357.0,1471.0,0.0,0.0,0.0,0.0
1630052338009810642,1630052337,0,30306,525.0,355.0,1472.0,0.0,0.0,0.0,0.0
1630052338010809239,1630052337,0,30306,529.0,353.0,1470.0,0.0,0.0,0.0,0.0
1630052338012780037,1630052337,0,30306,532.0,349.0,1472.0,0.0,0.0,0.0,0.0
1630052338014346784,1630052337,0,30306,536.0,350.0,1469.0,0.0,0.0,0.0,0.0
1630052338027057606,1630052337,0,30306,533.0,344.0,1476.0,0.0,0.0,0.0,0.0
1630052338041505578,1630052338,0,30306,539.0,342.0,1471.0,0.0,0.0,0.0,0.0
1630052338044695739,1630052338,0,30306,538.0,337.0,1477.0,0.0,0.0,0.0,0.0
1630052338073966945,1630052338,0,30306,543.0,341.0,1485.0,0.0,0.0,0.0,0.0
1630052338074585301,1630052338,0,30306,541.0,336.0,1487.0,0.0,0.0,0.0,0.0
1630052338076112182,1630052338,0,30306,537.0,331.0,1488.0,0.0,0.0,0.0,0.0
1630052338088625886,1630052338,0,30306,544.0,336.0,1495.0,0.0,0.0,0.0,0.0
1630052338091841889,1630052338,0,30306,550.0,341.0,1502.0,0.0,0.0,0.0,0.0
1630052338105284661,1630052338,0,30306,557.0,346.0,1509.0,0.0,0.0,0.0,0.0
1630052338120505824,1630052338,0,30306,565.0,352.0,1514.0,0.0,0.0,0.0,0.0
1630052338139426887,1630052338,0,30306,572.0,356.0,1514.0,0.0,0.0,0.0,0.0
1630052338139944911,1630052338,0,30306,581.0,361.0,1509.0,0.0,0.0,0.0,0.0
1630052338141465373,1630052338,0,30306,584.0,359.0,1509.0,0.0,0.0,0.0,0.0
1630052338157503566,1630052338,0,30306,588.0,363.0,1510.0,0.0,0.0,0.0,0.0
1630052338167193267,1630052338,0,30306,591.0,363.0,1515.0,0.0,0.0,0.0,0.0
1630052338171079663,1630052338,0,30306,592.0,360.0,1515.0,0.0,0.0,0.0,0.0
1630052338183802175,1630052338,0,30306,598.0,365.0,1523.0,0.0,0.0,0.0,0.0
1630052338214648597,1630052338,0,30306,605.0,370.0,1531.0,0.0,0.0,0.0,0.0
1630052338215164868,1630052338,0,30306,611.0,375.0,1539.0,0.0,0.0,0.0,0.0
1630052338217276703,1630052338,0,30306,618.0,379.0,1549.0,0.0,0.0,0.0,0.0
1630052338219118578,1630052338,0,30306,624.0,383.0,1559.0,0.0,0.0,0.0,0.0
1630052338231646965,1630052338,0,30306,632.0,389.0,1566.0,0.0,0.0,0.0,0.0
1630052338246039537,1630052338,0,30306,637.0,392.0,1577.0,0.0,0.0,0.0,0.0
1630052338248016141,1630052338,0,30306,643.0,396.0,1589.0,0.0,0.0,0.0,0.0
1630052338262424392,1630052338,0,30306,648.0,402.0,1599.0,0.0,0.0,0.0,0.0
1630052338265722313,1630052338,0,30306,645.0,398.0,1609.0,0.0,0.0,0.0,0.0
1630052338279585091,1630052338,0,30306,643.0,393.0,1614.0,0.0,0.0,0.0,0.0
1630052338293835657,1630052338,0,30306,650.0,392.0,1610.0,0.0,0.0,0.0,0.0
1630052338314309229,1630052338,0,30306,656.0,393.0,1602.0,0.0,0.0,0.0,0.0
1630052338315627035,1630052338,0,30306,662.0,390.0,1599.0,0.0,0.0,0.0,0.0
1630052338328512118,1630052338,0,30306,665.0,387.0,1595.0,0.0,0.0,0.0,0.0
1630052338341486778,1630052338,0,30306,667.0,384.0,1591.0,0.0,0.0,0.0,0.0
1630052338344908629,1630052338,0,30306,669.0,378.0,1593.0,0.0,0.0,0.0,0.0
1630052338370403094,1630052338,0,30306,671.0,372.0,1594.0,0.0,0.0,0.0,0.0
1630052338373651472,1630052338,0,30306,670.0,369.0,1592.0,0.0,0.0,0.0,0.0
1630052338375716122,1630052338,0,30306,670.0,365.0,1590.0,0.0,0.0,0.0,0.0
1630052338389516372,1630052338,0,30306,671.0,359.0,1590.0,0.0,0.0,0.0,0.0
1630052338392721603,1630052338,0,30306,667.0,353.0,1594.0,0.0,0.0,0.0,0.0
1630052338395921319,1630052338,0,30306,667.0,353.0,1591.0,0.0,0.0,0.0,0.0
1630052338419251656,1630052338,0,30306,666.0,347.0,1592.0,0.0,0.0,0.0,0.0
1630052338423471915,1630052338,0,30306,662.0,341.0,1596.0,0.0,0.0,0.0,0.0
1630052338444018351,1630052338,0,30306,661.0,334.0,1596.0,0.0,0.0,0.0,0.0
1630052338445820210,1630052338,0,30306,657.0,329.0,1601.0,0.0,0.0,0.0,0.0
1630052338468329387,1630052338,0,30306,653.0,323.0,1605.0,0.0,0.0,0.0,0.0
1630052338470484695,1630052338,0,30306,650.0,319.0,1606.0,0.0,0.0,0.0,0.0
1630052338473711151,1630052338,0,30306,647.0,313.0,1607.0,0.0,0.0,0.0,0.0
1630052338478575139,1630052338,0,30306,647.0,309.0,1605.0,0.0,0.0,0.0,0.0
1630052338508510970,1630052338,0,30306,647.0,302.0,1611.0,0.0,0.0,0.0,0.0
1630052338509001002,1630052338,0,30306,647.0,296.0,1615.0,0.0,0.0,0.0,0.0
1630052338511467170,1630052338,0,30306,640.0,290.0,1620.0,0.0,0.0,0.0,0.0
1630052338521902838,1630052338,0,30306,642.0,285.0,1621.0,0.0,0.0,0.0,0.0
1630052338545700743,1630052338,0,30306,642.0,280.0,1624.0,0.0,0.0,0.0,0.0
1630052338548924111,1630052338,0,30306,640.0,275.0,1629.0,0.0,0.0,0.0,0.0
1630052338553476991,1630052338,0,30306,636.0,270.0,1635.0,0.0,0.0,0.0,0.0
1630052338556543213,1630052338,0,30306,637.0,262.0,1640.0,0.0,0.0,0.0,0.0
1630052338570198501,1630052338,0,30306,637.0,256.0,1643.0,0.0,0.0,0.0,0.0
1630052338600338922,1630052338,0,30306,643.0,250.0,1642.0,0.0,0.0,0.0,0.0
1630052338600870442,1630052338,0,30306,646.0,241.0,1644.0,0.0,0.0,0.0,0.0
1630052338603312436,1630052338,0,30306,652.0,232.0,1643.0,0.0,0.0,0.0,0.0
1630052338606113456,1630052338,0,30306,658.0,224.0,1642.0,0.0,0.0,0.0,0.0
1630052338617923062,1630052338,0,30306,658.0,214.0,1645.0,0.0,0.0,0.0,0.0
1630052338631887239,1630052338,0,30306,664.0,205.0,1645.0,0.0,0.0,0.0,0.0
1630052338633343577,1630052338,0,30306,666.0,194.0,1648.0,0.0,0.0,0.0,0.0
1630052338683112681,1630052338,0,30306,665.0,184.0,1648.0,0.0,0.0,0.0,0.0
1630052338683586761,1630052338,0,30306,671.0,179.0,1643.0,0.0,0.0,0.0,0.0
1630052338699595817,1630052338,0,30306,674.0,177.0,1638.0,0.0,0.0,0.0,0.0
1630052338700107794,1630052338,0,30306,679.0,172.0,1636.0,0.0,0.0,0.0,0.0
1630052338701580941,1630052338,0,30306,689.0,172.0,1632.0,0.0,0.0,0.0,0.0
1630052338702097189,1630052338,0,30306,691.0,168.0,1637.0,0.0,0.0,0.0,0.0
1630052338715054961,1630052338,0,30306,695.0,167.0,1639.0,0.0,0.0,0.0,0.0
1630052338718615137,1630052338,0,30306,695.0,162.0,1642.0,0.0,0.0,0.0,0.0
1630052338732880706,1630052338,0,30306,692.0,162.0,1649.0,0.0,0.0,0.0,0.0
1630052338734802367,1630052338,0,30306,689.0,165.0,1655.0,0.0,0.0,0.0,0.0
1630052338738414309,1630052338,0,30306,689.0,165.0,1661.0,0.0,0.0,0.0,0.0
1630052338782738001,1630052338,0,30306,687.0,164.0,1664.0,0.0,0.0,0.0,0.0
1630052338783240142,1630052338,0,30306,687.0,160.0,1663.0,0.0,0.0,0.0,0.0
1630052338797163834,1630052338,0,30306,693.0,158.0,1654.0,0.0,0.0,0.0,0.0
1630052338798844821,1630052338,0,30306,695.0,160.0,1652.0,0.0,0.0,0.0,0.0
1630052338811646121,1630052338,0,30306,697.0,158.0,1653.0,0.0,0.0,0.0,0.0
1630052338814109208,1630052338,0,30306,701.0,163.0,1652.0,0.0,0.0,0.0,0.0
1630052338817367403,1630052338,0,30306,707.0,161.0,1649.0,0.0,0.0,0.0,0.0
1630052338842051665,1630052338,0,30306,713.0,166.0,1649.0,0.0,0.0,0.0,0.0
1630052338845638970,1630052338,0,30306,723.0,169.0,1642.0,0.0,0.0,0.0,0.0
1630052338865202753,1630052338,0,30306,727.0,170.0,1638.0,0.0,0.0,0.0,0.0
1630052338865651298,1630052338,0,30306,734.0,170.0,1640.0,0.0,0.0,0.0,0.0
1630052338867325176,1630052338,0,30306,743.0,174.0,1639.0,0.0,0.0,0.0,0.0
1630052338890035304,1630052338,0,30306,752.0,173.0,1636.0,0.0,0.0,0.0,0.0
1630052338892831347,1630052338,0,30306,760.0,177.0,1638.0,0.0,0.0,0.0,0.0
1630052338912369688,1630052338,0,30306,776.0,181.0,1639.0,0.0,0.0,0.0,0.0
1630052338914133916,1630052338,0,30306,785.0,184.0,1640.0,0.0,0.0,0.0,0.0
1630052338925566351,1630052338,0,30306,786.0,190.0,1638.0,0.0,0.0,0.0,0.0
1630052338928958353,1630052338,0,30306,794.0,192.0,1641.0,0.0,0.0,0.0,0.0
1630052338942973648,1630052338,0,30306,803.0,192.0,1645.0,0.0,0.0,0.0,0.0
1630052338972230749,1630052338,0,30306,813.0,194.0,1648.0,0.0,0.0,0.0,0.0
1630052338972875145,1630052338,0,30306,824.0,197.0,1647.0,0.0,0.0,0.0,0.0
1630052338974187780,1630052338,0,30306,836.0,199.0,1648.0,0.0,0.0,0.0,0.0
1630052338977807296,1630052338,0,30306,846.0,202.0,1652.0,0.0,0.0,0.0,0.0
1630052338990298866,1630052338,0,30306,851.0,209.0,1653.0,0.0,0.0,0.0,0.0
1630052339005181128,1630052338,0,30306,855.0,217.0,1653.0,0.0,0.0,0.0,0.0
1630052339006968281,1630052338,0,30306,862.0,225.0,1654.0,0.0,0.0,0.0,0.0
1630052339021370950,1630052338,0,30306,870.0,222.0,1660.0,0.0,0.0,0.0,0.0
1630052339023285361,1630052338,0,30306,871.0,229.0,1661.0,0.0,0.0,0.0,0.0
1630052339037815680,1630052339,0,30306,873.0,236.0,1664.0,0.0,0.0,0.0,0.0
1630052339058813110,1630052339,0,30306,874.0,243.0,1662.0,0.0,0.0,0.0,0.0
1630052339060726938,1630052339,0,30306,878.0,252.0,1659.0,0.0,0.0,0.0,0.0
1630052339067702663,1630052339,0,30306,880.0,259.0,1654.0,0.0,0.0,0.0,0.0
1630052339082524693,1630052339,0,30306,884.0,267.0,1651.0,0.0,0.0,0.0,0.0
1630052339085538413,1630052339,0,30306,888.0,276.0,1647.0,0.0,0.0,0.0,0.0
1630052339116253694,1630052339,0,30306,882.0,286.0,1652.0,0.0,0.0,0.0,0.0
1630052339117335944,1630052339,0,30306,883.0,295.0,1651.0,0.0,0.0,0.0,0.0
1630052339130068280,1630052339,0,30306,885.0,302.0,1650.0,0.0,0.0,0.0,0.0
1630052339131929143,1630052339,0,30306,890.0,308.0,1647.0,0.0,0.0,0.0,0.0
1630052339146546521,1630052339,0,30306,893.0,317.0,1645.0,0.0,0.0,0.0,0.0
1630052339177953830,1630052339,0,30306,897.0,325.0,1642.0,0.0,0.0,0.0,0.0
1630052339178489510,1630052339,0,30306,903.0,334.0,1639.0,0.0,0.0,0.0,0.0
1630052339180899562,1630052339,0,30306,908.0,343.0,1635.0,0.0,0.0,0.0,0.0
1630052339181343242,1630052339,0,30306,912.0,352.0,1634.0,0.0,0.0,0.0,0.0
1630052339195020527,1630052339,0,30306,913.0,360.0,1632.0,0.0,0.0,0.0,0.0
1630052339197595503,1630052339,0,30306,919.0,368.0,1629.0,0.0,0.0,0.0,0.0
1630052339228079314,1630052339,0,30306,924.0,379.0,1624.0,0.0,0.0,0.0,0.0
1630052339228603784,1630052339,0,30306,929.0,385.0,1621.0,0.0,0.0,0.0,0.0
1630052339229947595,1630052339,0,30306,937.0,395.0,1613.0,0.0,0.0,0.0,0.0
1630052339242250226,1630052339,0,30306,945.0,403.0,1607.0,0.0,0.0,0.0,0.0
1630052339259900089,1630052339,0,30306,951.0,410.0,1602.0,0.0,0.0,0.0,0.0
1630052339262033909,1630052339,0,30306,952.0,415.0,1601.0,0.0,0.0,0.0,0.0
1630052339270916338,1630052339,0,30306,957.0,417.0,1600.0,0.0,0.0,0.0,0.0
1630052339301899220,1630052339,0,30306,959.0,421.0,1602.0,0.0,0.0,0.0,0.0
1630052339302328241,1630052339,0,30306,962.0,423.0,1603.0,0.0,0.0,0.0,0.0
1630052339305097843,1630052339,0,30306,964.0,426.0,1605.0,0.0,0.0,0.0,0.0
1630052339307622088,1630052339,0,30306,967.0,430.0,1603.0,0.0,0.0,0.0,0.0
1630052339318884062,1630052339,0,30306,971.0,433.0,1602.0,0.0,0.0,0.0,0.0
1630052339322473561,1630052339,0,30306,975.0,439.0,1599.0,0.0,0.0,0.0,0.0
1630052339337143005,1630052339,0,30306,979.0,442.0,1595.0,0.0,0.0,0.0,0.0
1630052339350069352,1630052339,0,30306,981.0,445.0,1595.0,0.0,0.0,0.0,0.0
1630052339353276878,1630052339,0,30306,982.0,447.0,1597.0,0.0,0.0,0.0,0.0
1630052339366884660,1630052339,0,30306,981.0,448.0,1602.0,0.0,0.0,0.0,0.0
1630052339380217522,1630052339,0,30306,982.0,448.0,1603.0,0.0,0.0,0.0,0.0
1630052339383321549,1630052339,0,30306,978.0,446.0,1611.0,0.0,0.0,0.0,0.0
1630052339396755908,1630052339,0,30306,979.0,445.0,1612.0,0.0,0.0,0.0,0.0
1630052339427980679,1630052339,0,30306,978.0,449.0,1615.0,0.0,0.0,0.0,0.0
1630052339428492511,1630052339,0,30306,983.0,449.0,1612.0,0.0,0.0,0.0,0.0
1630052339429985923,1630052339,0,30306,986.0,453.0,1611.0,0.0,0.0,0.0,0.0
1630052339432163875,1630052339,0,30306,988.0,451.0,1614.0,0.0,0.0,0.0,0.0
1630052339452595978,1630052339,0,30306,988.0,449.0,1616.0,0.0,0.0,0.0,0.0
1630052339454629935,1630052339,0,30306,989.0,449.0,1613.0,0.0,0.0,0.0,0.0
1630052339479019856,1630052339,0,30306,990.0,453.0,1606.0,0.0,0.0,0.0,0.0
1630052339479475560,1630052339,0,30306,988.0,455.0,1609.0,0.0,0.0,0.0,0.0
1630052339480959941,1630052339,0,30306,989.0,455.0,1606.0,0.0,0.0,0.0,0.0
1630052339493461450,1630052339,0,30306,993.0,460.0,1602.0,0.0,0.0,0.0,0.0
1630052339505790683,1630052339,0,30306,993.0,462.0,1602.0,0.0,0.0,0.0,0.0
1630052339509223169,1630052339,0,30306,996.0,464.0,1601.0,0.0,0.0,0.0,0.0
1630052339522950452,1630052339,0,30306,997.0,464.0,1600.0,0.0,0.0,0.0,0.0
1630052339526380537,1630052339,0,30306,999.0,467.0,1599.0,0.0,0.0,0.0,0.0
1630052339558804117,1630052339,0,30306,1005.0,469.0,1596.0,0.0,0.0,0.0,0.0
1630052339559281783,1630052339,0,30306,1009.0,471.0,1593.0,0.0,0.0,0.0,0.0
1630052339570812157,1630052339,0,30306,1015.0,476.0,1590.0,0.0,0.0,0.0,0.0
1630052339573845036,1630052339,0,30306,1019.0,481.0,1586.0,0.0,0.0,0.0,0.0
1630052339587511180,1630052339,0,30306,1023.0,489.0,1577.0,0.0,0.0,0.0,0.0
1630052339602240870,1630052339,0,30306,1028.0,493.0,1574.0,0.0,0.0,0.0,0.0
1630052339605403102,1630052339,0,30306,1030.0,498.0,1571.0,0.0,0.0,0.0,0.0
1630052339618455439,1630052339,0,30306,1040.0,501.0,1565.0,0.0,0.0,0.0,0.0
1630052339632916384,1630052339,0,30306,1045.0,507.0,1560.0,0.0,0.0,0.0,0.0
1630052339635003717,1630052339,0,30306,1047.0,511.0,1558.0,0.0,0.0,0.0,0.0
1630052339665553333,1630052339,0,30306,1046.0,512.0,1559.0,0.0,0.0,0.0,0.0
1630052339668005245,1630052339,0,30306,1048.0,513.0,1557.0,0.0,0.0,0.0,0.0
1630052339668372596,1630052339,0,30306,1054.0,510.0,1556.0,0.0,0.0,0.0,0.0
1630052339684949327,1630052339,0,30306,1056.0,511.0,1558.0,0.0,0.0,0.0,0.0
1630052339686707654,1630052339,0,30306,1057.0,512.0,1557.0,0.0,0.0,0.0,0.0
1630052339699653958,1630052339,0,30306,1064.0,513.0,1553.0,0.0,0.0,0.0,0.0
1630052339719608985,1630052339,0,30306,1062.0,512.0,1554.0,0.0,0.0,0.0,0.0
1630052339721000091,1630052339,0,30306,1063.0,512.0,1554.0,0.0,0.0,0.0,0.0
1630052339732442301,1630052339,0,30306,1061.0,512.0,1556.0,0.0,0.0,0.0,0.0
1630052339736958530,1630052339,0,30306,1058.0,509.0,1559.0,0.0,0.0,0.0,0.0
1630052339748998851,1630052339,0,30306,1058.0,511.0,1561.0,0.0,0.0,0.0,0.0
1630052339763651957,1630052339,0,30306,1053.0,508.0,1568.0,0.0,0.0,0.0,0.0
1630052339767080291,1630052339,0,30306,1052.0,510.0,1569.0,0.0,0.0,0.0,0.0
1630052339796819067,1630052339,0,30306,1051.0,512.0,1567.0,0.0,0.0,0.0,0.0
1630052339797252939,1630052339,0,30306,1057.0,512.0,1563.0,0.0,0.0,0.0,0.0
1630052339798784906,1630052339,0,30306,1058.0,512.0,1560.0,0.0,0.0,0.0,0.0
1630052339811234171,1630052339,0,30306,1061.0,515.0,1561.0,0.0,0.0,0.0,0.0
1630052339813303282,1630052339,0,30306,1066.0,515.0,1560.0,0.0,0.0,0.0,0.0
1630052339816570300,1630052339,0,30306,1070.0,513.0,1559.0,0.0,0.0,0.0,0.0
1630052339842413741,1630052339,0,30306,1074.0,513.0,1555.0,0.0,0.0,0.0,0.0
1630052339844544449,1630052339,0,30306,1079.0,512.0,1550.0,0.0,0.0,0.0,0.0
1630052339859295344,1630052339,0,30306,1084.0,511.0,1545.0,0.0,0.0,0.0,0.0
1630052339879665350,1630052339,0,30306,1090.0,510.0,1541.0,0.0,0.0,0.0,0.0
1630052339881688680,1630052339,0,30306,1097.0,510.0,1534.0,0.0,0.0,0.0,0.0
1630052339882715921,1630052339,0,30306,1104.0,509.0,1527.0,0.0,0.0,0.0,0.0
1630052339884901910,1630052339,0,30306,1112.0,507.0,1521.0,0.0,0.0,0.0,0.0
1630052339898727221,1630052339,0,30306,1116.0,505.0,1518.0,0.0,0.0,0.0,0.0
1630052339929824281,1630052339,0,30306,1126.0,507.0,1506.0,0.0,0.0,0.0,0.0
1630052339931424185,1630052339,0,30306,1132.0,506.0,1500.0,0.0,0.0,0.0,0.0
1630052339933692686,1630052339,0,30306,1137.0,509.0,1497.0,0.0,0.0,0.0,0.0
1630052339945867545,1630052339,0,30306,1141.0,511.0,1493.0,0.0,0.0,0.0,0.0
1630052339977666212,1630052339,0,30306,1143.0,509.0,1491.0,0.0,0.0,0.0,0.0
1630052339978315960,1630052339,0,30306,1148.0,508.0,1485.0,0.0,0.0,0.0,0.0
1630052339980592859,1630052339,0,30306,1151.0,505.0,1482.0,0.0,0.0,0.0,0.0
1630052339982956330,1630052339,0,30306,1153.0,502.0,1475.0,0.0,0.0,0.0,0.0
1630052339993122469,1630052339,0,30306,1161.0,507.0,1477.0,0.0,0.0,0.0,0.0
1630052340007711808,1630052339,0,30306,1159.0,501.0,1477.0,0.0,0.0,0.0,0.0
1630052340011719509,1630052339,0,30306,1158.0,495.0,1481.0,0.0,0.0,0.0,0.0
1630052340025134279,1630052339,0,30306,1156.0,495.0,1483.0,0.0,0.0,0.0,0.0
1630052340056853910,1630052340,0,30306,1169.0,498.0,1484.0,0.0,0.0,0.0,0.0
1630052340059716717,1630052340,0,30306,1174.0,497.0,1483.0,0.0,0.0,0.0,0.0
1630052340060116169,1630052340,0,30306,1179.0,497.0,1481.0,0.0,0.0,0.0,0.0
1630052340071625675,1630052340,0,30306,1185.0,499.0,1482.0,0.0,0.0,0.0,0.0
1630052340075383068,1630052340,0,30306,1194.0,498.0,1484.0,0.0,0.0,0.0,0.0
1630052340096993074,1630052340,0,30306,1199.0,497.0,1484.0,0.0,0.0,0.0,0.0
1630052340120390683,1630052340,0,30306,1206.0,493.0,1483.0,0.0,0.0,0.0,0.0
