%time,field.data0.header.seq,field.data0.header.stamp,field.data0.header.frame_id,field.data0.pose.position.x,field.data0.pose.position.y,field.data0.pose.position.z,field.data0.pose.orientation.x,field.data0.pose.orientation.y,field.data0.pose.orientation.z,field.data0.pose.orientation.w
1630051537584840563,1630051537,0,30306,672.0,1039.0,1231.0,0.0,0.0,0.0,0.0
1630051537686487496,1630051537,0,30306,661.0,1046.0,1241.0,0.0,0.0,0.0,0.0
1630051537775553521,1630051537,0,30306,709.0,1041.0,1234.0,0.0,0.0,0.0,0.0
1630051537884742735,1630051537,0,30306,741.0,1041.0,1228.0,0.0,0.0,0.0,0.0
1630051537975788322,1630051537,0,30306,761.0,1026.0,1225.0,0.0,0.0,0.0,0.0
1630051538085514861,1630051538,0,30306,772.0,1023.0,1218.0,0.0,0.0,0.0,0.0
1630051538174818542,1630051538,0,30306,795.0,1021.0,1166.0,0.0,0.0,0.0,0.0
1630051538284195841,1630051538,0,30306,777.0,1044.0,1163.0,0.0,0.0,0.0,0.0
1630051538385774230,1630051538,0,30306,761.0,1067.0,1163.0,0.0,0.0,0.0,0.0
1630051538475707037,1630051538,0,30306,746.0,1080.0,1162.0,0.0,0.0,0.0,0.0
1630051538586270112,1630051538,0,30306,742.0,1089.0,1151.0,0.0,0.0,0.0,0.0
1630051538675425640,1630051538,0,30306,735.0,1091.0,1140.0,0.0,0.0,0.0,0.0
1630051538784843267,1630051538,0,30306,761.0,1109.0,1132.0,0.0,0.0,0.0,0.0
1630051538873930405,1630051538,0,30306,783.0,1126.0,1127.0,0.0,0.0,0.0,0.0
1630051538984087826,1630051538,0,30306,796.0,1135.0,1131.0,0.0,0.0,0.0,0.0
1630051539075133963,1630051539,0,30306,800.0,1149.0,1116.0,0.0,0.0,0.0,0.0
1630051539184000647,1630051539,0,30306,799.0,1156.0,1112.0,0.0,0.0,0.0,0.0
1630051539274681902,1630051539,0,30306,804.0,1160.0,1105.0,0.0,0.0,0.0,0.0
1630051539385737421,1630051539,0,30306,799.0,1164.0,1096.0,0.0,0.0,0.0,0.0
1630051539475970727,1630051539,0,30306,799.0,1157.0,1092.0,0.0,0.0,0.0,0.0
1630051539584614614,1630051539,0,30306,802.0,1151.0,1116.0,0.0,0.0,0.0,0.0
1630051539674445531,1630051539,0,30306,803.0,1137.0,1130.0,0.0,0.0,0.0,0.0
1630051539773924465,1630051539,0,30306,842.0,1129.0,1126.0,0.0,0.0,0.0,0.0
1630051539884535654,1630051539,0,30306,883.0,1113.0,1110.0,0.0,0.0,0.0,0.0
1630051539973661502,1630051539,0,30306,920.0,1087.0,1099.0,0.0,0.0,0.0,0.0
1630051540084990032,1630051540,0,30306,948.0,1062.0,1093.0,0.0,0.0,0.0,0.0
1630051540185009300,1630051540,0,30306,962.0,1040.0,1094.0,0.0,0.0,0.0,0.0
1630051540284653601,1630051540,0,30306,973.0,1028.0,1100.0,0.0,0.0,0.0,0.0
1630051540385439000,1630051540,0,30306,967.0,1031.0,1094.0,0.0,0.0,0.0,0.0
1630051540474417545,1630051540,0,30306,967.0,1045.0,1090.0,0.0,0.0,0.0,0.0
1630051540585809880,1630051540,0,30306,990.0,1052.0,1064.0,0.0,0.0,0.0,0.0
1630051540675447515,1630051540,0,30306,1008.0,1065.0,1076.0,0.0,0.0,0.0,0.0
1630051540786289619,1630051540,0,30306,989.0,1094.0,1119.0,0.0,0.0,0.0,0.0
1630051540886589471,1630051540,0,30306,978.0,1087.0,1164.0,0.0,0.0,0.0,0.0
1630051540975646354,1630051540,0,30306,962.0,1093.0,1194.0,0.0,0.0,0.0,0.0
1630051541085104133,1630051541,0,30306,960.0,1108.0,1233.0,0.0,0.0,0.0,0.0
1630051541175134401,1630051541,0,30306,968.0,1158.0,1238.0,0.0,0.0,0.0,0.0
1630051541285050987,1630051541,0,30306,981.0,1189.0,1233.0,0.0,0.0,0.0,0.0
1630051541374931737,1630051541,0,30306,1030.0,1185.0,1224.0,0.0,0.0,0.0,0.0
1630051541474325994,1630051541,0,30306,1044.0,1204.0,1241.0,0.0,0.0,0.0,0.0
1630051541585623894,1630051541,0,30306,1050.0,1227.0,1233.0,0.0,0.0,0.0,0.0
1630051541674853183,1630051541,0,30306,1052.0,1215.0,1239.0,0.0,0.0,0.0,0.0
1630051541785346107,1630051541,0,30306,1037.0,1206.0,1199.0,0.0,0.0,0.0,0.0
1630051541875873645,1630051541,0,30306,1024.0,1212.0,1184.0,0.0,0.0,0.0,0.0
1630051541985504790,1630051541,0,30306,1041.0,1209.0,1197.0,0.0,0.0,0.0,0.0
1630051542074901524,1630051542,0,30306,1059.0,1196.0,1166.0,0.0,0.0,0.0,0.0
1630051542185338529,1630051542,0,30306,1080.0,1194.0,1146.0,0.0,0.0,0.0,0.0
1630051542283736090,1630051542,0,30306,1122.0,1173.0,1108.0,0.0,0.0,0.0,0.0
1630051542372754531,1630051542,0,30306,1192.0,1189.0,1118.0,0.0,0.0,0.0,0.0
1630051542483960862,1630051542,0,30306,1292.0,1195.0,1146.0,0.0,0.0,0.0,0.0
1630051542573319409,1630051542,0,30306,1388.0,1227.0,1136.0,0.0,0.0,0.0,0.0
1630051542684857203,1630051542,0,30306,1498.0,1227.0,1177.0,0.0,0.0,0.0,0.0
1630051542773571907,1630051542,0,30306,1561.0,1232.0,1224.0,0.0,0.0,0.0,0.0
1630051542884495292,1630051542,0,30306,1634.0,1213.0,1230.0,0.0,0.0,0.0,0.0
1630051542984063191,1630051542,0,30306,1731.0,1205.0,1232.0,0.0,0.0,0.0,0.0
1630051543082284720,1630051543,0,30306,1815.0,1214.0,1237.0,0.0,0.0,0.0,0.0
1630051543182499590,1630051543,0,30306,1931.0,1211.0,1284.0,0.0,0.0,0.0,0.0
1630051543272608830,1630051543,0,30306,2056.0,1197.0,1395.0,0.0,0.0,0.0,0.0
1630051543382013838,1630051543,0,30306,2184.0,1187.0,1439.0,0.0,0.0,0.0,0.0
1630051543481859391,1630051543,0,30306,2319.0,1189.0,1470.0,0.0,0.0,0.0,0.0
1630051543592775528,1630051543,0,30306,2446.0,1202.0,1510.0,0.0,0.0,0.0,0.0
1630051543681877403,1630051543,0,30306,2581.0,1213.0,1536.0,0.0,0.0,0.0,0.0
1630051543771294637,1630051543,0,30306,2702.0,1250.0,1529.0,0.0,0.0,0.0,0.0
1630051543881379585,1630051543,0,30306,2829.0,1273.0,1487.0,0.0,0.0,0.0,0.0
1630051543982087646,1630051543,0,30306,2962.0,1311.0,1442.0,0.0,0.0,0.0,0.0
1630051544093639283,1630051544,0,30306,3094.0,1354.0,1393.0,0.0,0.0,0.0,0.0
1630051544182626747,1630051544,0,30306,3163.0,1372.0,1423.0,0.0,0.0,0.0,0.0
1630051544272207649,1630051544,0,30306,3280.0,1410.0,1510.0,0.0,0.0,0.0,0.0
1630051544383062477,1630051544,0,30306,3338.0,1409.0,1537.0,0.0,0.0,0.0,0.0
1630051544473315627,1630051544,0,30306,3461.0,1428.0,1604.0,0.0,0.0,0.0,0.0
1630051544582761554,1630051544,0,30306,3592.0,1451.0,1669.0,0.0,0.0,0.0,0.0
1630051544683214101,1630051544,0,30306,3699.0,1417.0,1696.0,0.0,0.0,0.0,0.0
1630051544783330891,1630051544,0,30306,3862.0,1437.0,1589.0,0.0,0.0,0.0,0.0
1630051544905026060,1630051544,0,30306,4016.0,1489.0,1501.0,0.0,0.0,0.0,0.0
1630051544993650516,1630051544,0,30306,4132.0,1538.0,1452.0,0.0,0.0,0.0,0.0
1630051545083183950,1630051545,0,30306,4232.0,1582.0,1473.0,0.0,0.0,0.0,0.0
1630051545172801555,1630051545,0,30306,4340.0,1624.0,1425.0,0.0,0.0,0.0,0.0
1630051545283951321,1630051545,0,30306,4465.0,1673.0,1420.0,0.0,0.0,0.0,0.0
1630051545383313059,1630051545,0,30306,4572.0,1724.0,1455.0,0.0,0.0,0.0,0.0
1630051545482376630,1630051545,0,30306,4668.0,1819.0,1489.0,0.0,0.0,0.0,0.0
1630051545582694998,1630051545,0,30306,4738.0,1864.0,1462.0,0.0,0.0,0.0,0.0
1630051545682975139,1630051545,0,30306,4794.0,1908.0,1434.0,0.0,0.0,0.0,0.0
1630051545783004896,1630051545,0,30306,4838.0,1997.0,1395.0,0.0,0.0,0.0,0.0
1630051545892608956,1630051545,0,30306,4870.0,2083.0,1326.0,0.0,0.0,0.0,0.0
1630051545982875030,1630051545,0,30306,4902.0,2178.0,1216.0,0.0,0.0,0.0,0.0
1630051546072995165,1630051546,0,30306,4913.0,2282.0,1134.0,0.0,0.0,0.0,0.0
1630051546182442844,1630051546,0,30306,4894.0,2416.0,1028.0,0.0,0.0,0.0,0.0
1630051546271991758,1630051546,0,30306,4924.0,2518.0,1009.0,0.0,0.0,0.0,0.0
1630051546381246701,1630051546,0,30306,4923.0,2630.0,1065.0,0.0,0.0,0.0,0.0
1630051546482390908,1630051546,0,30306,4900.0,2778.0,1104.0,0.0,0.0,0.0,0.0
1630051546581645025,1630051546,0,30306,4884.0,2942.0,1062.0,0.0,0.0,0.0,0.0
1630051546681405036,1630051546,0,30306,4935.0,3084.0,1024.0,0.0,0.0,0.0,0.0
1630051546791180122,1630051546,0,30306,4980.0,3226.0,914.0,0.0,0.0,0.0,0.0
1630051546882024617,1630051546,0,30306,5036.0,3378.0,791.0,0.0,0.0,0.0,0.0
1630051546971072626,1630051546,0,30306,5069.0,3549.0,690.0,0.0,0.0,0.0,0.0
1630051547080793926,1630051547,0,30306,5111.0,3697.0,663.0,0.0,0.0,0.0,0.0
1630051547181948005,1630051547,0,30306,5119.0,3844.0,644.0,0.0,0.0,0.0,0.0
1630051547284651151,1630051547,0,30306,5119.0,3962.0,581.0,0.0,0.0,0.0,0.0
1630051547383284860,1630051547,0,30306,5093.0,4077.0,491.0,0.0,0.0,0.0,0.0
1630051547483710243,1630051547,0,30306,5048.0,4208.0,401.0,0.0,0.0,0.0,0.0
1630051547584646965,1630051547,0,30306,5012.0,4416.0,266.0,0.0,0.0,0.0,0.0
1630051547683444278,1630051547,0,30306,5041.0,4583.0,187.0,0.0,0.0,0.0,0.0
1630051547782529620,1630051547,0,30306,5063.0,4708.0,213.0,0.0,0.0,0.0,0.0
1630051547894014088,1630051547,0,30306,5075.0,4830.0,220.0,0.0,0.0,0.0,0.0
1630051547982762355,1630051547,0,30306,5061.0,4934.0,216.0,0.0,0.0,0.0,0.0
1630051548072728380,1630051548,0,30306,5071.0,5114.0,172.0,0.0,0.0,0.0,0.0
1630051548183197983,1630051548,0,30306,5053.0,5309.0,154.0,0.0,0.0,0.0,0.0
1630051548283012252,1630051548,0,30306,5036.0,5464.0,232.0,0.0,0.0,0.0,0.0
1630051548394631225,1630051548,0,30306,5019.0,5635.0,313.0,0.0,0.0,0.0,0.0
1630051548483236740,1630051548,0,30306,4968.0,5826.0,366.0,0.0,0.0,0.0,0.0
1630051548570963567,1630051548,0,30306,4949.0,5979.0,435.0,0.0,0.0,0.0,0.0
1630051548681978582,1630051548,0,30306,4954.0,6136.0,509.0,0.0,0.0,0.0,0.0
1630051548783318592,1630051548,0,30306,4898.0,6324.0,613.0,0.0,0.0,0.0,0.0
1630051548881997233,1630051548,0,30306,4834.0,6527.0,763.0,0.0,0.0,0.0,0.0
1630051548982075536,1630051548,0,30306,4818.0,6694.0,902.0,0.0,0.0,0.0,0.0
1630051549082295462,1630051549,0,30306,4836.0,6846.0,966.0,0.0,0.0,0.0,0.0
1630051549180702337,1630051549,0,30306,4808.0,7008.0,1092.0,0.0,0.0,0.0,0.0
1630051549271042549,1630051549,0,30306,4778.0,7181.0,1163.0,0.0,0.0,0.0,0.0
1630051549381452747,1630051549,0,30306,4789.0,7319.0,1205.0,0.0,0.0,0.0,0.0
1630051549480883534,1630051549,0,30306,4796.0,7456.0,1173.0,0.0,0.0,0.0,0.0
1630051549581604911,1630051549,0,30306,4750.0,7627.0,1205.0,0.0,0.0,0.0,0.0
1630051549681050786,1630051549,0,30306,4755.0,7770.0,1232.0,0.0,0.0,0.0,0.0
1630051549789762512,1630051549,0,30306,4653.0,7974.0,1333.0,0.0,0.0,0.0,0.0
1630051549880201553,1630051549,0,30306,4666.0,8122.0,1316.0,0.0,0.0,0.0,0.0
1630051549989649406,1630051549,0,30306,4676.0,8289.0,1288.0,0.0,0.0,0.0,0.0
1630051550078600797,1630051550,0,30306,4680.0,8421.0,1298.0,0.0,0.0,0.0,0.0
1630051550179919587,1630051550,0,30306,4638.0,8580.0,1264.0,0.0,0.0,0.0,0.0
1630051550288803372,1630051550,0,30306,4624.0,8707.0,1223.0,0.0,0.0,0.0,0.0
1630051550378489187,1630051550,0,30306,4512.0,8797.0,1210.0,0.0,0.0,0.0,0.0
1630051550489424619,1630051550,0,30306,4430.0,8844.0,1268.0,0.0,0.0,0.0,0.0
1630051550577893967,1630051550,0,30306,4360.0,8896.0,1279.0,0.0,0.0,0.0,0.0
1630051550689331859,1630051550,0,30306,4291.0,8956.0,1267.0,0.0,0.0,0.0,0.0
1630051550776889201,1630051550,0,30306,4245.0,8981.0,1261.0,0.0,0.0,0.0,0.0
1630051550888798084,1630051550,0,30306,4159.0,9041.0,1185.0,0.0,0.0,0.0,0.0
1630051550977638226,1630051550,0,30306,4082.0,9086.0,1187.0,0.0,0.0,0.0,0.0
1630051551089140259,1630051551,0,30306,3994.0,9122.0,1121.0,0.0,0.0,0.0,0.0
1630051551178182173,1630051551,0,30306,3864.0,9147.0,1101.0,0.0,0.0,0.0,0.0
1630051551278621846,1630051551,0,30306,3673.0,9196.0,1155.0,0.0,0.0,0.0,0.0
1630051551387565341,1630051551,0,30306,3557.0,9234.0,1171.0,0.0,0.0,0.0,0.0
1630051551486946608,1630051551,0,30306,3470.0,9295.0,1160.0,0.0,0.0,0.0,0.0
1630051551576772938,1630051551,0,30306,3374.0,9322.0,1170.0,0.0,0.0,0.0,0.0
1630051551686736753,1630051551,0,30306,3304.0,9350.0,1148.0,0.0,0.0,0.0,0.0
1630051551776096406,1630051551,0,30306,3235.0,9381.0,1150.0,0.0,0.0,0.0,0.0
1630051551886247228,1630051551,0,30306,3143.0,9391.0,1116.0,0.0,0.0,0.0,0.0
1630051551975865659,1630051551,0,30306,3064.0,9405.0,1085.0,0.0,0.0,0.0,0.0
1630051552086860200,1630051552,0,30306,2921.0,9404.0,1058.0,0.0,0.0,0.0,0.0
1630051552186761210,1630051552,0,30306,2780.0,9381.0,1026.0,0.0,0.0,0.0,0.0
1630051552277147124,1630051552,0,30306,2665.0,9381.0,1011.0,0.0,0.0,0.0,0.0
1630051552386038528,1630051552,0,30306,2568.0,9391.0,1010.0,0.0,0.0,0.0,0.0
1630051552475832518,1630051552,0,30306,2461.0,9400.0,1039.0,0.0,0.0,0.0,0.0
1630051552586013640,1630051552,0,30306,2337.0,9351.0,959.0,0.0,0.0,0.0,0.0
1630051552685799882,1630051552,0,30306,2222.0,9316.0,842.0,0.0,0.0,0.0,0.0
1630051552774381206,1630051552,0,30306,2114.0,9299.0,790.0,0.0,0.0,0.0,0.0
1630051552884401111,1630051552,0,30306,2002.0,9279.0,724.0,0.0,0.0,0.0,0.0
1630051552974025330,1630051552,0,30306,1829.0,9239.0,593.0,0.0,0.0,0.0,0.0
1630051553084777542,1630051553,0,30306,1697.0,9279.0,609.0,0.0,0.0,0.0,0.0
1630051553185081970,1630051553,0,30306,1600.0,9299.0,631.0,0.0,0.0,0.0,0.0
1630051553294601978,1630051553,0,30306,1521.0,9302.0,653.0,0.0,0.0,0.0,0.0
1630051553383880696,1630051553,0,30306,1435.0,9311.0,690.0,0.0,0.0,0.0,0.0
1630051553474204988,1630051553,0,30306,1340.0,9385.0,766.0,0.0,0.0,0.0,0.0
1630051553584040031,1630051553,0,30306,1228.0,9340.0,840.0,0.0,0.0,0.0,0.0
1630051553684411337,1630051553,0,30306,1140.0,9326.0,929.0,0.0,0.0,0.0,0.0
1630051553785005493,1630051553,0,30306,1036.0,9284.0,1006.0,0.0,0.0,0.0,0.0
1630051553883302585,1630051553,0,30306,885.0,9208.0,1082.0,0.0,0.0,0.0,0.0
1630051553983932770,1630051553,0,30306,786.0,9135.0,1091.0,0.0,0.0,0.0,0.0
1630051554083762023,1630051554,0,30306,697.0,9061.0,1124.0,0.0,0.0,0.0,0.0
1630051554185213096,1630051554,0,30306,660.0,9005.0,1112.0,0.0,0.0,0.0,0.0
1630051554285150981,1630051554,0,30306,664.0,8957.0,1084.0,0.0,0.0,0.0,0.0
1630051554395556028,1630051554,0,30306,627.0,8881.0,1090.0,0.0,0.0,0.0,0.0
1630051554485044644,1630051554,0,30306,564.0,8833.0,1118.0,0.0,0.0,0.0,0.0
1630051554584971619,1630051554,0,30306,502.0,8757.0,1181.0,0.0,0.0,0.0,0.0
1630051554685480751,1630051554,0,30306,464.0,8695.0,1269.0,0.0,0.0,0.0,0.0
1630051554781121112,1630051554,0,30306,420.0,8620.0,1291.0,0.0,0.0,0.0,0.0
1630051554907203989,1630051554,0,30306,392.0,8559.0,1355.0,0.0,0.0,0.0,0.0
1630051554980540171,1630051554,0,30306,327.0,8406.0,1371.0,0.0,0.0,0.0,0.0
1630051555091067156,1630051555,0,30306,262.0,8274.0,1328.0,0.0,0.0,0.0,0.0
1630051555179851692,1630051555,0,30306,236.0,8143.0,1280.0,0.0,0.0,0.0,0.0
1630051555291400489,1630051555,0,30306,230.0,8001.0,1242.0,0.0,0.0,0.0,0.0
1630051555379760642,1630051555,0,30306,236.0,7877.0,1243.0,0.0,0.0,0.0,0.0
1630051555490415975,1630051555,0,30306,243.0,7766.0,1260.0,0.0,0.0,0.0,0.0
1630051555581159934,1630051555,0,30306,260.0,7661.0,1272.0,0.0,0.0,0.0,0.0
1630051555681375174,1630051555,0,30306,276.0,7563.0,1320.0,0.0,0.0,0.0,0.0
1630051555791212908,1630051555,0,30306,345.0,7462.0,1315.0,0.0,0.0,0.0,0.0
1630051555881082020,1630051555,0,30306,427.0,7368.0,1324.0,0.0,0.0,0.0,0.0
1630051555981445659,1630051555,0,30306,521.0,7283.0,1339.0,0.0,0.0,0.0,0.0
1630051556090014377,1630051556,0,30306,622.0,7211.0,1335.0,0.0,0.0,0.0,0.0
1630051556179659955,1630051556,0,30306,695.0,7116.0,1337.0,0.0,0.0,0.0,0.0
1630051556280986725,1630051556,0,30306,827.0,7081.0,1388.0,0.0,0.0,0.0,0.0
1630051556380339547,1630051556,0,30306,938.0,7037.0,1424.0,0.0,0.0,0.0,0.0
1630051556480269610,1630051556,0,30306,1025.0,6952.0,1417.0,0.0,0.0,0.0,0.0
1630051556590730219,1630051556,0,30306,1115.0,6868.0,1400.0,0.0,0.0,0.0,0.0
1630051556680106759,1630051556,0,30306,1205.0,6780.0,1384.0,0.0,0.0,0.0,0.0
1630051556790201126,1630051556,0,30306,1283.0,6668.0,1330.0,0.0,0.0,0.0,0.0
1630051556880112543,1630051556,0,30306,1356.0,6553.0,1283.0,0.0,0.0,0.0,0.0
1630051556978548560,1630051556,0,30306,1423.0,6454.0,1255.0,0.0,0.0,0.0,0.0
1630051557089133217,1630051557,0,30306,1465.0,6372.0,1257.0,0.0,0.0,0.0,0.0
1630051557178589698,1630051557,0,30306,1523.0,6282.0,1258.0,0.0,0.0,0.0,0.0
1630051557288271705,1630051557,0,30306,1540.0,6187.0,1278.0,0.0,0.0,0.0,0.0
1630051557377059747,1630051557,0,30306,1561.0,6092.0,1312.0,0.0,0.0,0.0,0.0
1630051557488585063,1630051557,0,30306,1558.0,5999.0,1355.0,0.0,0.0,0.0,0.0
1630051557585634500,1630051557,0,30306,1541.0,5903.0,1383.0,0.0,0.0,0.0,0.0
1630051557685181593,1630051557,0,30306,1568.0,5771.0,1373.0,0.0,0.0,0.0,0.0
1630051557784734936,1630051557,0,30306,1543.0,5606.0,1337.0,0.0,0.0,0.0,0.0
1630051557894825604,1630051557,0,30306,1537.0,5416.0,1308.0,0.0,0.0,0.0,0.0
1630051557983598733,1630051557,0,30306,1526.0,5274.0,1327.0,0.0,0.0,0.0,0.0
1630051558093713902,1630051558,0,30306,1510.0,5136.0,1339.0,0.0,0.0,0.0,0.0
1630051558183365790,1630051558,0,30306,1521.0,4983.0,1318.0,0.0,0.0,0.0,0.0
1630051558283039476,1630051558,0,30306,1549.0,4815.0,1314.0,0.0,0.0,0.0,0.0
1630051558382945022,1630051558,0,30306,1525.0,4756.0,1236.0,0.0,0.0,0.0,0.0
1630051558482238085,1630051558,0,30306,1514.0,4684.0,1213.0,0.0,0.0,0.0,0.0
1630051558592335480,1630051558,0,30306,1513.0,4594.0,1136.0,0.0,0.0,0.0,0.0
1630051558683074620,1630051558,0,30306,1509.0,4520.0,1118.0,0.0,0.0,0.0,0.0
1630051558792030470,1630051558,0,30306,1505.0,4459.0,1174.0,0.0,0.0,0.0,0.0
1630051558881776557,1630051558,0,30306,1506.0,4381.0,1215.0,0.0,0.0,0.0,0.0
1630051558992556286,1630051558,0,30306,1500.0,4290.0,1304.0,0.0,0.0,0.0,0.0
1630051559081625868,1630051559,0,30306,1438.0,4123.0,1255.0,0.0,0.0,0.0,0.0
1630051559182453443,1630051559,0,30306,1347.0,3950.0,1207.0,0.0,0.0,0.0,0.0
1630051559291477900,1630051559,0,30306,1273.0,3807.0,1197.0,0.0,0.0,0.0,0.0
1630051559382506292,1630051559,0,30306,1204.0,3676.0,1190.0,0.0,0.0,0.0,0.0
1630051559491792054,1630051559,0,30306,1139.0,3555.0,1193.0,0.0,0.0,0.0,0.0
1630051559583198059,1630051559,0,30306,1095.0,3458.0,1205.0,0.0,0.0,0.0,0.0
1630051559693501919,1630051559,0,30306,1049.0,3380.0,1229.0,0.0,0.0,0.0,0.0
1630051559782579063,1630051559,0,30306,999.0,3265.0,1287.0,0.0,0.0,0.0,0.0
1630051559882162842,1630051559,0,30306,964.0,3168.0,1281.0,0.0,0.0,0.0,0.0
1630051559982092534,1630051559,0,30306,927.0,3068.0,1269.0,0.0,0.0,0.0,0.0
1630051560082563865,1630051560,0,30306,865.0,2971.0,1301.0,0.0,0.0,0.0,0.0
1630051560192732931,1630051560,0,30306,779.0,2871.0,1308.0,0.0,0.0,0.0,0.0
1630051560281852501,1630051560,0,30306,724.0,2773.0,1332.0,0.0,0.0,0.0,0.0
1630051560391354788,1630051560,0,30306,668.0,2659.0,1335.0,0.0,0.0,0.0,0.0
1630051560480267025,1630051560,0,30306,620.0,2541.0,1320.0,0.0,0.0,0.0,0.0
1630051560591063693,1630051560,0,30306,547.0,2417.0,1361.0,0.0,0.0,0.0,0.0
1630051560680428460,1630051560,0,30306,568.0,2366.0,1420.0,0.0,0.0,0.0,0.0
1630051560789252800,1630051560,0,30306,557.0,2255.0,1414.0,0.0,0.0,0.0,0.0
1630051560879348188,1630051560,0,30306,566.0,2100.0,1334.0,0.0,0.0,0.0,0.0
1630051560990286169,1630051560,0,30306,542.0,1971.0,1318.0,0.0,0.0,0.0,0.0
1630051561078632266,1630051561,0,30306,539.0,1840.0,1327.0,0.0,0.0,0.0,0.0
1630051561189122282,1630051561,0,30306,537.0,1726.0,1324.0,0.0,0.0,0.0,0.0
1630051561289164227,1630051561,0,30306,565.0,1640.0,1379.0,0.0,0.0,0.0,0.0
1630051561378510295,1630051561,0,30306,544.0,1532.0,1455.0,0.0,0.0,0.0,0.0
1630051561489424717,1630051561,0,30306,514.0,1395.0,1409.0,0.0,0.0,0.0,0.0
1630051561577352893,1630051561,0,30306,541.0,1294.0,1508.0,0.0,0.0,0.0,0.0
1630051561688724257,1630051561,0,30306,539.0,1206.0,1485.0,0.0,0.0,0.0,0.0
1630051561778772513,1630051561,0,30306,578.0,1110.0,1446.0,0.0,0.0,0.0,0.0
1630051561888199617,1630051561,0,30306,617.0,1002.0,1344.0,0.0,0.0,0.0,0.0
1630051561977887213,1630051561,0,30306,652.0,882.0,1301.0,0.0,0.0,0.0,0.0
1630051562087139679,1630051562,0,30306,714.0,828.0,1331.0,0.0,0.0,0.0,0.0
1630051562187213072,1630051562,0,30306,757.0,771.0,1293.0,0.0,0.0,0.0,0.0
1630051562276966440,1630051562,0,30306,798.0,694.0,1247.0,0.0,0.0,0.0,0.0
1630051562387691847,1630051562,0,30306,865.0,640.0,1223.0,0.0,0.0,0.0,0.0
1630051562479694014,1630051562,0,30306,930.0,610.0,1267.0,0.0,0.0,0.0,0.0
1630051562589584191,1630051562,0,30306,1009.0,550.0,1224.0,0.0,0.0,0.0,0.0
1630051562677347877,1630051562,0,30306,1118.0,516.0,1189.0,0.0,0.0,0.0,0.0
1630051562787046683,1630051562,0,30306,1269.0,505.0,1196.0,0.0,0.0,0.0,0.0
1630051562886131763,1630051562,0,30306,1436.0,471.0,1201.0,0.0,0.0,0.0,0.0
1630051562996176895,1630051562,0,30306,1597.0,463.0,1199.0,0.0,0.0,0.0,0.0
1630051563086394017,1630051563,0,30306,1774.0,491.0,1252.0,0.0,0.0,0.0,0.0
1630051563175137448,1630051563,0,30306,1906.0,480.0,1232.0,0.0,0.0,0.0,0.0
1630051563284478506,1630051563,0,30306,2008.0,464.0,1184.0,0.0,0.0,0.0,0.0
1630051563385786110,1630051563,0,30306,2085.0,457.0,1121.0,0.0,0.0,0.0,0.0
1630051563484981787,1630051563,0,30306,2235.0,454.0,1131.0,0.0,0.0,0.0,0.0
1630051563585586015,1630051563,0,30306,2333.0,424.0,1084.0,0.0,0.0,0.0,0.0
1630051563685160490,1630051563,0,30306,2447.0,391.0,1086.0,0.0,0.0,0.0,0.0
1630051563787536877,1630051563,0,30306,2547.0,411.0,1143.0,0.0,0.0,0.0,0.0
1630051563895006218,1630051563,0,30306,2627.0,389.0,1182.0,0.0,0.0,0.0,0.0
1630051563985442325,1630051563,0,30306,2696.0,396.0,1256.0,0.0,0.0,0.0,0.0
1630051564074660944,1630051564,0,30306,2811.0,443.0,1305.0,0.0,0.0,0.0,0.0
1630051564184857502,1630051564,0,30306,2910.0,444.0,1309.0,0.0,0.0,0.0,0.0
1630051564275855414,1630051564,0,30306,2976.0,437.0,1312.0,0.0,0.0,0.0,0.0
1630051564385079062,1630051564,0,30306,3041.0,440.0,1344.0,0.0,0.0,0.0,0.0
1630051564496538893,1630051564,0,30306,3140.0,454.0,1343.0,0.0,0.0,0.0,0.0
1630051564585057397,1630051564,0,30306,3247.0,496.0,1336.0,0.0,0.0,0.0,0.0
1630051564675337723,1630051564,0,30306,3362.0,525.0,1352.0,0.0,0.0,0.0,0.0
1630051564785102093,1630051564,0,30306,3465.0,586.0,1342.0,0.0,0.0,0.0,0.0
1630051564907186417,1630051564,0,30306,3566.0,641.0,1356.0,0.0,0.0,0.0,0.0
1630051564974896427,1630051564,0,30306,3653.0,693.0,1409.0,0.0,0.0,0.0,0.0
1630051565084584509,1630051565,0,30306,3741.0,754.0,1444.0,0.0,0.0,0.0,0.0
1630051565184940007,1630051565,0,30306,3840.0,811.0,1507.0,0.0,0.0,0.0,0.0
1630051565285189470,1630051565,0,30306,3942.0,872.0,1579.0,0.0,0.0,0.0,0.0
1630051565385433494,1630051565,0,30306,4122.0,972.0,1533.0,0.0,0.0,0.0,0.0
1630051565495401623,1630051565,0,30306,4304.0,1073.0,1484.0,0.0,0.0,0.0,0.0
1630051565585310209,1630051565,0,30306,4462.0,1188.0,1459.0,0.0,0.0,0.0,0.0
1630051565674759787,1630051565,0,30306,4575.0,1237.0,1406.0,0.0,0.0,0.0,0.0
1630051565785654825,1630051565,0,30306,4651.0,1308.0,1375.0,0.0,0.0,0.0,0.0
1630051565886103015,1630051565,0,30306,4710.0,1387.0,1351.0,0.0,0.0,0.0,0.0
1630051565986010267,1630051565,0,30306,4807.0,1515.0,1409.0,0.0,0.0,0.0,0.0
1630051566086105835,1630051566,0,30306,4905.0,1660.0,1466.0,0.0,0.0,0.0,0.0
1630051566175295556,1630051566,0,30306,4957.0,1794.0,1462.0,0.0,0.0,0.0,0.0
1630051566285777275,1630051566,0,30306,5013.0,1923.0,1445.0,0.0,0.0,0.0,0.0
1630051566384971693,1630051566,0,30306,5050.0,2063.0,1437.0,0.0,0.0,0.0,0.0
1630051566484795707,1630051566,0,30306,5053.0,2185.0,1523.0,0.0,0.0,0.0,0.0
1630051566585702182,1630051566,0,30306,5119.0,2322.0,1487.0,0.0,0.0,0.0,0.0
1630051566674716644,1630051566,0,30306,5152.0,2464.0,1514.0,0.0,0.0,0.0,0.0
1630051566783673137,1630051566,0,30306,5137.0,2648.0,1467.0,0.0,0.0,0.0,0.0
1630051566884570166,1630051566,0,30306,5130.0,2831.0,1435.0,0.0,0.0,0.0,0.0
1630051566984773721,1630051566,0,30306,5153.0,2988.0,1429.0,0.0,0.0,0.0,0.0
1630051567084136540,1630051567,0,30306,5166.0,3131.0,1344.0,0.0,0.0,0.0,0.0
1630051567184423899,1630051567,0,30306,5176.0,3265.0,1249.0,0.0,0.0,0.0,0.0
1630051567284344514,1630051567,0,30306,5184.0,3407.0,1129.0,0.0,0.0,0.0,0.0
1630051567373352531,1630051567,0,30306,5189.0,3571.0,1045.0,0.0,0.0,0.0,0.0
1630051567494298955,1630051567,0,30306,5182.0,3749.0,943.0,0.0,0.0,0.0,0.0
1630051567584323042,1630051567,0,30306,5185.0,3867.0,925.0,0.0,0.0,0.0,0.0
1630051567695034814,1630051567,0,30306,5201.0,4002.0,947.0,0.0,0.0,0.0,0.0
1630051567781599077,1630051567,0,30306,5215.0,4157.0,909.0,0.0,0.0,0.0,0.0
1630051567881187931,1630051567,0,30306,5250.0,4347.0,917.0,0.0,0.0,0.0,0.0
1630051567981275793,1630051567,0,30306,5198.0,4515.0,882.0,0.0,0.0,0.0,0.0
1630051568091756160,1630051568,0,30306,5204.0,4649.0,770.0,0.0,0.0,0.0,0.0
1630051568180816209,1630051568,0,30306,5211.0,4755.0,713.0,0.0,0.0,0.0,0.0
1630051568290920478,1630051568,0,30306,5200.0,4877.0,669.0,0.0,0.0,0.0,0.0
1630051568381151887,1630051568,0,30306,5209.0,4987.0,640.0,0.0,0.0,0.0,0.0
1630051568491225557,1630051568,0,30306,5195.0,5120.0,597.0,0.0,0.0,0.0,0.0
1630051568591724187,1630051568,0,30306,5180.0,5247.0,584.0,0.0,0.0,0.0,0.0
1630051568679944403,1630051568,0,30306,5149.0,5391.0,569.0,0.0,0.0,0.0,0.0
1630051568791777490,1630051568,0,30306,5155.0,5517.0,630.0,0.0,0.0,0.0,0.0
1630051568880000205,1630051568,0,30306,5157.0,5680.0,701.0,0.0,0.0,0.0,0.0
1630051568991425838,1630051568,0,30306,5176.0,5823.0,709.0,0.0,0.0,0.0,0.0
1630051569080780206,1630051569,0,30306,5197.0,5951.0,683.0,0.0,0.0,0.0,0.0
1630051569190909091,1630051569,0,30306,5174.0,6086.0,695.0,0.0,0.0,0.0,0.0
1630051569280364839,1630051569,0,30306,5150.0,6236.0,713.0,0.0,0.0,0.0,0.0
1630051569391931160,1630051569,0,30306,5150.0,6367.0,698.0,0.0,0.0,0.0,0.0
1630051569480442200,1630051569,0,30306,5131.0,6507.0,673.0,0.0,0.0,0.0,0.0
1630051569590954091,1630051569,0,30306,5112.0,6646.0,658.0,0.0,0.0,0.0,0.0
1630051569690409026,1630051569,0,30306,5101.0,6779.0,624.0,0.0,0.0,0.0,0.0
1630051569779758645,1630051569,0,30306,5116.0,6917.0,657.0,0.0,0.0,0.0,0.0
1630051569889958890,1630051569,0,30306,5123.0,7050.0,706.0,0.0,0.0,0.0,0.0
1630051569980850732,1630051569,0,30306,5134.0,7191.0,738.0,0.0,0.0,0.0,0.0
1630051570089684951,1630051570,0,30306,5130.0,7345.0,799.0,0.0,0.0,0.0,0.0
1630051570181044898,1630051570,0,30306,5135.0,7482.0,794.0,0.0,0.0,0.0,0.0
1630051570281170693,1630051570,0,30306,5132.0,7636.0,790.0,0.0,0.0,0.0,0.0
1630051570391164889,1630051570,0,30306,5118.0,7785.0,788.0,0.0,0.0,0.0,0.0
1630051570480905090,1630051570,0,30306,5092.0,7921.0,812.0,0.0,0.0,0.0,0.0
1630051570591144203,1630051570,0,30306,5074.0,8041.0,831.0,0.0,0.0,0.0,0.0
1630051570679833820,1630051570,0,30306,5031.0,8180.0,745.0,0.0,0.0,0.0,0.0
1630051570775431064,1630051570,0,30306,4967.0,8281.0,793.0,0.0,0.0,0.0,0.0
1630051570885085567,1630051570,0,30306,4901.0,8406.0,818.0,0.0,0.0,0.0,0.0
1630051570974163720,1630051570,0,30306,4851.0,8538.0,844.0,0.0,0.0,0.0,0.0
1630051571084382592,1630051571,0,30306,4771.0,8659.0,870.0,0.0,0.0,0.0,0.0
1630051571185054943,1630051571,0,30306,4692.0,8764.0,900.0,0.0,0.0,0.0,0.0
1630051571284952807,1630051571,0,30306,4620.0,8852.0,1021.0,0.0,0.0,0.0,0.0
1630051571385764671,1630051571,0,30306,4569.0,8894.0,1147.0,0.0,0.0,0.0,0.0
1630051571496384095,1630051571,0,30306,4469.0,8962.0,1272.0,0.0,0.0,0.0,0.0
1630051571585399831,1630051571,0,30306,4383.0,9029.0,1352.0,0.0,0.0,0.0,0.0
1630051571675453540,1630051571,0,30306,4298.0,9077.0,1430.0,0.0,0.0,0.0,0.0
1630051571785396283,1630051571,0,30306,4233.0,9124.0,1385.0,0.0,0.0,0.0,0.0
1630051571884391738,1630051571,0,30306,4179.0,9134.0,1327.0,0.0,0.0,0.0,0.0
1630051571995250179,1630051571,0,30306,4134.0,9130.0,1292.0,0.0,0.0,0.0,0.0
1630051572085160107,1630051572,0,30306,4050.0,9160.0,1281.0,0.0,0.0,0.0,0.0
1630051572195054877,1630051572,0,30306,3983.0,9192.0,1251.0,0.0,0.0,0.0,0.0
1630051572283813109,1630051572,0,30306,3908.0,9222.0,1201.0,0.0,0.0,0.0,0.0
1630051572384297338,1630051572,0,30306,3821.0,9270.0,1165.0,0.0,0.0,0.0,0.0
1630051572495275712,1630051572,0,30306,3705.0,9301.0,1147.0,0.0,0.0,0.0,0.0
1630051572583947997,1630051572,0,30306,3589.0,9307.0,1077.0,0.0,0.0,0.0,0.0
1630051572688106432,1630051572,0,30306,3452.0,9312.0,1088.0,0.0,0.0,0.0,0.0
1630051572787826216,1630051572,0,30306,3295.0,9294.0,1133.0,0.0,0.0,0.0,0.0
1630051572896659311,1630051572,0,30306,3124.0,9288.0,1154.0,0.0,0.0,0.0,0.0
1630051572986912940,1630051572,0,30306,2962.0,9286.0,1198.0,0.0,0.0,0.0,0.0
1630051573095399375,1630051573,0,30306,2793.0,9272.0,1233.0,0.0,0.0,0.0,0.0
1630051573186020502,1630051573,0,30306,2633.0,9252.0,1248.0,0.0,0.0,0.0,0.0
1630051573295972503,1630051573,0,30306,2506.0,9265.0,1234.0,0.0,0.0,0.0,0.0
1630051573386156021,1630051573,0,30306,2382.0,9248.0,1217.0,0.0,0.0,0.0,0.0
1630051573485318239,1630051573,0,30306,2267.0,9186.0,1309.0,0.0,0.0,0.0,0.0
1630051573585629474,1630051573,0,30306,2150.0,9130.0,1383.0,0.0,0.0,0.0,0.0
1630051573684857823,1630051573,0,30306,2058.0,9067.0,1525.0,0.0,0.0,0.0,0.0
1630051573795152352,1630051573,0,30306,1916.0,9080.0,1522.0,0.0,0.0,0.0,0.0
1630051573884929762,1630051573,0,30306,1770.0,9059.0,1513.0,0.0,0.0,0.0,0.0
1630051573994028188,1630051573,0,30306,1610.0,9079.0,1441.0,0.0,0.0,0.0,0.0
1630051574083908491,1630051574,0,30306,1443.0,9094.0,1384.0,0.0,0.0,0.0,0.0
1630051574183794664,1630051574,0,30306,1293.0,9093.0,1371.0,0.0,0.0,0.0,0.0
1630051574283426706,1630051574,0,30306,1161.0,9058.0,1309.0,0.0,0.0,0.0,0.0
1630051574384856647,1630051574,0,30306,1025.0,9011.0,1324.0,0.0,0.0,0.0,0.0
1630051574495268895,1630051574,0,30306,853.0,8987.0,1400.0,0.0,0.0,0.0,0.0
1630051574584479749,1630051574,0,30306,702.0,8941.0,1509.0,0.0,0.0,0.0,0.0
1630051574694223600,1630051574,0,30306,535.0,8888.0,1581.0,0.0,0.0,0.0,0.0
1630051574784399655,1630051574,0,30306,495.0,8814.0,1538.0,0.0,0.0,0.0,0.0
1630051574911008555,1630051574,0,30306,418.0,8768.0,1467.0,0.0,0.0,0.0,0.0
1630051574985937898,1630051574,0,30306,360.0,8698.0,1339.0,0.0,0.0,0.0,0.0
1630051575084341308,1630051575,0,30306,294.0,8587.0,1223.0,0.0,0.0,0.0,0.0
1630051575184779063,1630051575,0,30306,257.0,8501.0,1083.0,0.0,0.0,0.0,0.0
1630051575286441941,1630051575,0,30306,262.0,8441.0,1031.0,0.0,0.0,0.0,0.0
1630051575385335309,1630051575,0,30306,285.0,8350.0,1036.0,0.0,0.0,0.0,0.0
1630051575484621082,1630051575,0,30306,296.0,8255.0,1041.0,0.0,0.0,0.0,0.0
1630051575595877600,1630051575,0,30306,239.0,8191.0,1173.0,0.0,0.0,0.0,0.0
1630051575684696726,1630051575,0,30306,236.0,8162.0,1293.0,0.0,0.0,0.0,0.0
1630051575794439071,1630051575,0,30306,247.0,8140.0,1364.0,0.0,0.0,0.0,0.0
1630051575885698814,1630051575,0,30306,329.0,8089.0,1303.0,0.0,0.0,0.0,0.0
1630051575986193483,1630051575,0,30306,423.0,7986.0,1312.0,0.0,0.0,0.0,0.0
1630051576085111423,1630051576,0,30306,527.0,7918.0,1358.0,0.0,0.0,0.0,0.0
1630051576184849049,1630051576,0,30306,602.0,7877.0,1377.0,0.0,0.0,0.0,0.0
1630051576294334754,1630051576,0,30306,691.0,7842.0,1386.0,0.0,0.0,0.0,0.0
1630051576384449645,1630051576,0,30306,808.0,7815.0,1434.0,0.0,0.0,0.0,0.0
1630051576485430984,1630051576,0,30306,874.0,7752.0,1407.0,0.0,0.0,0.0,0.0
1630051576586286100,1630051576,0,30306,948.0,7741.0,1386.0,0.0,0.0,0.0,0.0
1630051576675413808,1630051576,0,30306,1033.0,7752.0,1387.0,0.0,0.0,0.0,0.0
1630051576785108450,1630051576,0,30306,1094.0,7717.0,1352.0,0.0,0.0,0.0,0.0
1630051576885574479,1630051576,0,30306,1224.0,7745.0,1351.0,0.0,0.0,0.0,0.0
1630051576995921069,1630051576,0,30306,1344.0,7723.0,1312.0,0.0,0.0,0.0,0.0
1630051577084799459,1630051577,0,30306,1443.0,7691.0,1281.0,0.0,0.0,0.0,0.0
1630051577193815326,1630051577,0,30306,1544.0,7679.0,1229.0,0.0,0.0,0.0,0.0
1630051577283643804,1630051577,0,30306,1643.0,7675.0,1193.0,0.0,0.0,0.0,0.0
1630051577383602221,1630051577,0,30306,1731.0,7654.0,1161.0,0.0,0.0,0.0,0.0
1630051577493270435,1630051577,0,30306,1851.0,7637.0,1133.0,0.0,0.0,0.0,0.0
1630051577582717191,1630051577,0,30306,1976.0,7613.0,1139.0,0.0,0.0,0.0,0.0
1630051577693254416,1630051577,0,30306,2101.0,7581.0,1175.0,0.0,0.0,0.0,0.0
1630051577782728610,1630051577,0,30306,2221.0,7539.0,1251.0,0.0,0.0,0.0,0.0
1630051577893685668,1630051577,0,30306,2265.0,7514.0,1392.0,0.0,0.0,0.0,0.0
1630051577992433828,1630051577,0,30306,2348.0,7466.0,1468.0,0.0,0.0,0.0,0.0
1630051578091554587,1630051578,0,30306,2438.0,7430.0,1455.0,0.0,0.0,0.0,0.0
1630051578191969367,1630051578,0,30306,2531.0,7374.0,1407.0,0.0,0.0,0.0,0.0
1630051578281703699,1630051578,0,30306,2625.0,7297.0,1318.0,0.0,0.0,0.0,0.0
1630051578391724684,1630051578,0,30306,2644.0,7254.0,1338.0,0.0,0.0,0.0,0.0
1630051578481872247,1630051578,0,30306,2754.0,7186.0,1245.0,0.0,0.0,0.0,0.0
1630051578592261978,1630051578,0,30306,2854.0,7146.0,1140.0,0.0,0.0,0.0,0.0
1630051578681432588,1630051578,0,30306,2918.0,7090.0,1015.0,0.0,0.0,0.0,0.0
1630051578792796271,1630051578,0,30306,3017.0,7013.0,979.0,0.0,0.0,0.0,0.0
1630051578891909990,1630051578,0,30306,3090.0,6938.0,949.0,0.0,0.0,0.0,0.0
1630051578981465625,1630051578,0,30306,3136.0,6886.0,882.0,0.0,0.0,0.0,0.0
1630051579092620013,1630051579,0,30306,3139.0,6796.0,871.0,0.0,0.0,0.0,0.0
1630051579181704691,1630051579,0,30306,3113.0,6724.0,774.0,0.0,0.0,0.0,0.0
1630051579292889013,1630051579,0,30306,3090.0,6686.0,733.0,0.0,0.0,0.0,0.0
1630051579381802746,1630051579,0,30306,3033.0,6616.0,700.0,0.0,0.0,0.0,0.0
1630051579492346550,1630051579,0,30306,2991.0,6550.0,691.0,0.0,0.0,0.0,0.0
1630051579581566986,1630051579,0,30306,2915.0,6483.0,612.0,0.0,0.0,0.0,0.0
1630051579692360229,1630051579,0,30306,2881.0,6456.0,622.0,0.0,0.0,0.0,0.0
1630051579791173465,1630051579,0,30306,2875.0,6333.0,601.0,0.0,0.0,0.0,0.0
1630051579881926444,1630051579,0,30306,2848.0,6262.0,641.0,0.0,0.0,0.0,0.0
1630051579993402691,1630051579,0,30306,2838.0,6204.0,653.0,0.0,0.0,0.0,0.0
1630051580081686704,1630051580,0,30306,2790.0,6165.0,708.0,0.0,0.0,0.0,0.0
1630051580192636199,1630051580,0,30306,2755.0,6143.0,709.0,0.0,0.0,0.0,0.0
1630051580282749787,1630051580,0,30306,2652.0,6136.0,775.0,0.0,0.0,0.0,0.0
1630051580393802676,1630051580,0,30306,2523.0,6135.0,833.0,0.0,0.0,0.0,0.0
1630051580482844427,1630051580,0,30306,2370.0,6131.0,894.0,0.0,0.0,0.0,0.0
1630051580582962258,1630051580,0,30306,2266.0,6124.0,854.0,0.0,0.0,0.0,0.0
1630051580694288731,1630051580,0,30306,2169.0,6115.0,836.0,0.0,0.0,0.0,0.0
1630051580784272214,1630051580,0,30306,2099.0,6064.0,900.0,0.0,0.0,0.0,0.0
1630051580893798965,1630051580,0,30306,2011.0,6019.0,945.0,0.0,0.0,0.0,0.0
1630051580982359090,1630051580,0,30306,1925.0,5978.0,1010.0,0.0,0.0,0.0,0.0
1630051581093398682,1630051581,0,30306,1818.0,5908.0,1011.0,0.0,0.0,0.0,0.0
1630051581183033698,1630051581,0,30306,1707.0,5878.0,1050.0,0.0,0.0,0.0,0.0
1630051581293807283,1630051581,0,30306,1601.0,5847.0,1110.0,0.0,0.0,0.0,0.0
1630051581394640249,1630051581,0,30306,1504.0,5812.0,1190.0,0.0,0.0,0.0,0.0
1630051581482576801,1630051581,0,30306,1431.0,5790.0,1303.0,0.0,0.0,0.0,0.0
1630051581593949753,1630051581,0,30306,1327.0,5756.0,1499.0,0.0,0.0,0.0,0.0
1630051581681924816,1630051581,0,30306,1233.0,5735.0,1533.0,0.0,0.0,0.0,0.0
1630051581793626884,1630051581,0,30306,1148.0,5709.0,1520.0,0.0,0.0,0.0,0.0
1630051581883709231,1630051581,0,30306,1050.0,5628.0,1473.0,0.0,0.0,0.0,0.0
1630051581993411006,1630051581,0,30306,972.0,5592.0,1437.0,0.0,0.0,0.0,0.0
1630051582082116146,1630051582,0,30306,929.0,5550.0,1431.0,0.0,0.0,0.0,0.0
1630051582193872965,1630051582,0,30306,881.0,5475.0,1360.0,0.0,0.0,0.0,0.0
1630051582282692512,1630051582,0,30306,907.0,5449.0,1353.0,0.0,0.0,0.0,0.0
1630051582383914253,1630051582,0,30306,941.0,5430.0,1361.0,0.0,0.0,0.0,0.0
1630051582493619634,1630051582,0,30306,941.0,5385.0,1390.0,0.0,0.0,0.0,0.0
1630051582582896912,1630051582,0,30306,960.0,5333.0,1398.0,0.0,0.0,0.0,0.0
1630051582694552763,1630051582,0,30306,1009.0,5294.0,1512.0,0.0,0.0,0.0,0.0
1630051582783462806,1630051582,0,30306,1064.0,5225.0,1654.0,0.0,0.0,0.0,0.0
1630051582882229809,1630051582,0,30306,1154.0,5171.0,1724.0,0.0,0.0,0.0,0.0
1630051582994071548,1630051582,0,30306,1193.0,5190.0,1648.0,0.0,0.0,0.0,0.0
1630051583082203863,1630051583,0,30306,1264.0,5161.0,1638.0,0.0,0.0,0.0,0.0
1630051583193071217,1630051583,0,30306,1313.0,5180.0,1573.0,0.0,0.0,0.0,0.0
1630051583282917374,1630051583,0,30306,1352.0,5189.0,1516.0,0.0,0.0,0.0,0.0
1630051583392853299,1630051583,0,30306,1445.0,5141.0,1512.0,0.0,0.0,0.0,0.0
1630051583491987418,1630051583,0,30306,1557.0,5102.0,1493.0,0.0,0.0,0.0,0.0
1630051583582734010,1630051583,0,30306,1677.0,5064.0,1439.0,0.0,0.0,0.0,0.0
1630051583692440288,1630051583,0,30306,1776.0,5051.0,1419.0,0.0,0.0,0.0,0.0
1630051583783442329,1630051583,0,30306,1879.0,5059.0,1336.0,0.0,0.0,0.0,0.0
1630051583892668012,1630051583,0,30306,1988.0,5072.0,1322.0,0.0,0.0,0.0,0.0
1630051583992808002,1630051583,0,30306,2137.0,5088.0,1366.0,0.0,0.0,0.0,0.0
1630051584093519972,1630051584,0,30306,2289.0,5090.0,1375.0,0.0,0.0,0.0,0.0
1630051584193599183,1630051584,0,30306,2423.0,5087.0,1400.0,0.0,0.0,0.0,0.0
1630051584282387899,1630051584,0,30306,2535.0,5052.0,1340.0,0.0,0.0,0.0,0.0
1630051584393734153,1630051584,0,30306,2639.0,5029.0,1283.0,0.0,0.0,0.0,0.0
1630051584483546059,1630051584,0,30306,2742.0,5002.0,1193.0,0.0,0.0,0.0,0.0
1630051584593603454,1630051584,0,30306,2870.0,4923.0,1233.0,0.0,0.0,0.0,0.0
1630051584683254459,1630051584,0,30306,2993.0,4891.0,1168.0,0.0,0.0,0.0,0.0
1630051584782785822,1630051584,0,30306,3088.0,4865.0,1143.0,0.0,0.0,0.0,0.0
1630051584912223632,1630051584,0,30306,3145.0,4826.0,1170.0,0.0,0.0,0.0,0.0
1630051584983044384,1630051584,0,30306,3189.0,4792.0,1148.0,0.0,0.0,0.0,0.0
1630051585094298599,1630051585,0,30306,3257.0,4768.0,1116.0,0.0,0.0,0.0,0.0
1630051585183024180,1630051585,0,30306,3325.0,4746.0,1157.0,0.0,0.0,0.0,0.0
1630051585294484665,1630051585,0,30306,3335.0,4731.0,1148.0,0.0,0.0,0.0,0.0
1630051585383864332,1630051585,0,30306,3365.0,4679.0,1172.0,0.0,0.0,0.0,0.0
1630051585498705003,1630051585,0,30306,3403.0,4617.0,1156.0,0.0,0.0,0.0,0.0
1630051585587151471,1630051585,0,30306,3405.0,4573.0,1171.0,0.0,0.0,0.0,0.0
1630051585698467973,1630051585,0,30306,3379.0,4519.0,1273.0,0.0,0.0,0.0,0.0
1630051585786475468,1630051585,0,30306,3367.0,4476.0,1255.0,0.0,0.0,0.0,0.0
1630051585876765017,1630051585,0,30306,3353.0,4427.0,1160.0,0.0,0.0,0.0,0.0
1630051585987074421,1630051585,0,30306,3347.0,4405.0,1116.0,0.0,0.0,0.0,0.0
1630051586075849925,1630051586,0,30306,3339.0,4374.0,1108.0,0.0,0.0,0.0,0.0
1630051586186833127,1630051586,0,30306,3307.0,4343.0,1108.0,0.0,0.0,0.0,0.0
1630051586285338957,1630051586,0,30306,3216.0,4316.0,1129.0,0.0,0.0,0.0,0.0
1630051586397549906,1630051586,0,30306,3159.0,4291.0,1072.0,0.0,0.0,0.0,0.0
1630051586487364540,1630051586,0,30306,3078.0,4273.0,1079.0,0.0,0.0,0.0,0.0
1630051586597833007,1630051586,0,30306,2993.0,4255.0,1066.0,0.0,0.0,0.0,0.0
1630051586687828950,1630051586,0,30306,2891.0,4247.0,1046.0,0.0,0.0,0.0,0.0
1630051586789343641,1630051586,0,30306,2732.0,4239.0,1069.0,0.0,0.0,0.0,0.0
1630051586889303084,1630051586,0,30306,2564.0,4215.0,1110.0,0.0,0.0,0.0,0.0
1630051587001575535,1630051586,0,30306,2397.0,4187.0,1142.0,0.0,0.0,0.0,0.0
1630051587090105071,1630051587,0,30306,2247.0,4164.0,1159.0,0.0,0.0,0.0,0.0
1630051587179573850,1630051587,0,30306,2113.0,4139.0,1153.0,0.0,0.0,0.0,0.0
1630051587290680745,1630051587,0,30306,1990.0,4136.0,1124.0,0.0,0.0,0.0,0.0
1630051587379895586,1630051587,0,30306,1864.0,4127.0,1102.0,0.0,0.0,0.0,0.0
1630051587500984396,1630051587,0,30306,1745.0,4126.0,1035.0,0.0,0.0,0.0,0.0
1630051587589578874,1630051587,0,30306,1576.0,4078.0,944.0,0.0,0.0,0.0,0.0
1630051587700400571,1630051587,0,30306,1468.0,4059.0,902.0,0.0,0.0,0.0,0.0
1630051587790234871,1630051587,0,30306,1355.0,3995.0,937.0,0.0,0.0,0.0,0.0
1630051587879458194,1630051587,0,30306,1285.0,3903.0,944.0,0.0,0.0,0.0,0.0
1630051587988402946,1630051587,0,30306,1213.0,3821.0,1030.0,0.0,0.0,0.0,0.0
1630051588088205599,1630051588,0,30306,1134.0,3815.0,1065.0,0.0,0.0,0.0,0.0
1630051588187827822,1630051588,0,30306,1054.0,3776.0,1067.0,0.0,0.0,0.0,0.0
1630051588294998897,1630051588,0,30306,967.0,3722.0,1085.0,0.0,0.0,0.0,0.0
1630051588384065550,1630051588,0,30306,917.0,3685.0,1103.0,0.0,0.0,0.0,0.0
1630051588494225873,1630051588,0,30306,805.0,3651.0,1036.0,0.0,0.0,0.0,0.0
1630051588584750808,1630051588,0,30306,780.0,3595.0,927.0,0.0,0.0,0.0,0.0
1630051588695773515,1630051588,0,30306,749.0,3518.0,887.0,0.0,0.0,0.0,0.0
1630051588795013145,1630051588,0,30306,761.0,3434.0,917.0,0.0,0.0,0.0,0.0
1630051588883603522,1630051588,0,30306,813.0,3379.0,966.0,0.0,0.0,0.0,0.0
1630051588995131385,1630051588,0,30306,890.0,3303.0,974.0,0.0,0.0,0.0,0.0
1630051589084672652,1630051589,0,30306,981.0,3258.0,1023.0,0.0,0.0,0.0,0.0
1630051589195850959,1630051589,0,30306,1088.0,3208.0,1073.0,0.0,0.0,0.0,0.0
1630051589284290645,1630051589,0,30306,1213.0,3108.0,1086.0,0.0,0.0,0.0,0.0
1630051589394588297,1630051589,0,30306,1317.0,3044.0,1140.0,0.0,0.0,0.0,0.0
1630051589482703990,1630051589,0,30306,1432.0,2941.0,1271.0,0.0,0.0,0.0,0.0
1630051589582914591,1630051589,0,30306,1479.0,2919.0,1300.0,0.0,0.0,0.0,0.0
1630051589692256217,1630051589,0,30306,1569.0,2900.0,1306.0,0.0,0.0,0.0,0.0
1630051589781284662,1630051589,0,30306,1691.0,2927.0,1268.0,0.0,0.0,0.0,0.0
1630051589890780763,1630051589,0,30306,1828.0,2956.0,1288.0,0.0,0.0,0.0,0.0
1630051590000520420,1630051589,0,30306,1984.0,2994.0,1241.0,0.0,0.0,0.0,0.0
1630051590091937023,1630051590,0,30306,2150.0,3027.0,1244.0,0.0,0.0,0.0,0.0
1630051590179900525,1630051590,0,30306,2277.0,3051.0,1338.0,0.0,0.0,0.0,0.0
1630051590290993308,1630051590,0,30306,2406.0,3064.0,1482.0,0.0,0.0,0.0,0.0
1630051590390031565,1630051590,0,30306,2528.0,3008.0,1489.0,0.0,0.0,0.0,0.0
1630051590490335012,1630051590,0,30306,2643.0,2966.0,1596.0,0.0,0.0,0.0,0.0
1630051590590923149,1630051590,0,30306,2801.0,2952.0,1642.0,0.0,0.0,0.0,0.0
1630051590702080360,1630051590,0,30306,2950.0,2926.0,1636.0,0.0,0.0,0.0,0.0
1630051590791010920,1630051590,0,30306,3129.0,2898.0,1535.0,0.0,0.0,0.0,0.0
1630051590879617287,1630051590,0,30306,3231.0,2881.0,1487.0,0.0,0.0,0.0,0.0
1630051590990551333,1630051590,0,30306,3300.0,2868.0,1475.0,0.0,0.0,0.0,0.0
1630051591079444231,1630051591,0,30306,3354.0,2854.0,1434.0,0.0,0.0,0.0,0.0
1630051591190631621,1630051591,0,30306,3386.0,2811.0,1443.0,0.0,0.0,0.0,0.0
1630051591289154312,1630051591,0,30306,3404.0,2769.0,1449.0,0.0,0.0,0.0,0.0
1630051591389543074,1630051591,0,30306,3402.0,2714.0,1512.0,0.0,0.0,0.0,0.0
1630051591488243130,1630051591,0,30306,3409.0,2678.0,1586.0,0.0,0.0,0.0,0.0
1630051591577241580,1630051591,0,30306,3432.0,2659.0,1675.0,0.0,0.0,0.0,0.0
1630051591688296686,1630051591,0,30306,3466.0,2620.0,1658.0,0.0,0.0,0.0,0.0
1630051591787879935,1630051591,0,30306,3444.0,2556.0,1619.0,0.0,0.0,0.0,0.0
1630051591898265357,1630051591,0,30306,3398.0,2493.0,1532.0,0.0,0.0,0.0,0.0
1630051591988396045,1630051591,0,30306,3321.0,2438.0,1460.0,0.0,0.0,0.0,0.0
1630051592098028985,1630051592,0,30306,3252.0,2385.0,1405.0,0.0,0.0,0.0,0.0
1630051592187379459,1630051592,0,30306,3177.0,2297.0,1374.0,0.0,0.0,0.0,0.0
1630051592298360858,1630051592,0,30306,3160.0,2258.0,1350.0,0.0,0.0,0.0,0.0
1630051592388149680,1630051592,0,30306,3100.0,2202.0,1323.0,0.0,0.0,0.0,0.0
1630051592488174680,1630051592,0,30306,3052.0,2193.0,1378.0,0.0,0.0,0.0,0.0
1630051592587678946,1630051592,0,30306,3003.0,2199.0,1421.0,0.0,0.0,0.0,0.0
1630051592688040640,1630051592,0,30306,2919.0,2178.0,1432.0,0.0,0.0,0.0,0.0
1630051592797925363,1630051592,0,30306,2818.0,2167.0,1367.0,0.0,0.0,0.0,0.0
1630051592886665109,1630051592,0,30306,2721.0,2172.0,1314.0,0.0,0.0,0.0,0.0
1630051592997749700,1630051592,0,30306,2607.0,2187.0,1243.0,0.0,0.0,0.0,0.0
1630051593086748340,1630051593,0,30306,2481.0,2212.0,1183.0,0.0,0.0,0.0,0.0
1630051593186121355,1630051593,0,30306,2345.0,2238.0,1126.0,0.0,0.0,0.0,0.0
1630051593295814603,1630051593,0,30306,2199.0,2254.0,1060.0,0.0,0.0,0.0,0.0
1630051593385212340,1630051593,0,30306,2045.0,2262.0,978.0,0.0,0.0,0.0,0.0
1630051593496127562,1630051593,0,30306,1885.0,2282.0,903.0,0.0,0.0,0.0,0.0
1630051593585538762,1630051593,0,30306,1732.0,2282.0,857.0,0.0,0.0,0.0,0.0
1630051593695740808,1630051593,0,30306,1601.0,2268.0,898.0,0.0,0.0,0.0,0.0
1630051593786090011,1630051593,0,30306,1544.0,2326.0,931.0,0.0,0.0,0.0,0.0
1630051593895567425,1630051593,0,30306,1429.0,2414.0,839.0,0.0,0.0,0.0,0.0
1630051593996163338,1630051593,0,30306,1337.0,2460.0,764.0,0.0,0.0,0.0,0.0
1630051594084731294,1630051594,0,30306,1284.0,2441.0,823.0,0.0,0.0,0.0,0.0
1630051594195701779,1630051594,0,30306,1207.0,2418.0,877.0,0.0,0.0,0.0,0.0
1630051594284760674,1630051594,0,30306,1085.0,2416.0,840.0,0.0,0.0,0.0,0.0
1630051594394867094,1630051594,0,30306,988.0,2411.0,874.0,0.0,0.0,0.0,0.0
1630051594494691146,1630051594,0,30306,904.0,2400.0,914.0,0.0,0.0,0.0,0.0
1630051594593989178,1630051594,0,30306,818.0,2372.0,944.0,0.0,0.0,0.0,0.0
1630051594694115479,1630051594,0,30306,755.0,2328.0,1010.0,0.0,0.0,0.0,0.0
1630051594783398318,1630051594,0,30306,690.0,2321.0,1034.0,0.0,0.0,0.0,0.0
1630051594912909895,1630051594,0,30306,663.0,2300.0,1077.0,0.0,0.0,0.0,0.0
1630051594983799339,1630051594,0,30306,524.0,2295.0,1058.0,0.0,0.0,0.0,0.0
1630051595093040875,1630051595,0,30306,477.0,2244.0,1200.0,0.0,0.0,0.0,0.0
1630051595182550045,1630051595,0,30306,420.0,2207.0,1271.0,0.0,0.0,0.0,0.0
1630051595292793184,1630051595,0,30306,389.0,2168.0,1439.0,0.0,0.0,0.0,0.0
1630051595393073601,1630051595,0,30306,332.0,2072.0,1496.0,0.0,0.0,0.0,0.0
1630051595483338067,1630051595,0,30306,330.0,1972.0,1470.0,0.0,0.0,0.0,0.0
1630051595592867249,1630051595,0,30306,357.0,1917.0,1532.0,0.0,0.0,0.0,0.0
1630051595682990547,1630051595,0,30306,363.0,1826.0,1466.0,0.0,0.0,0.0,0.0
1630051595792197615,1630051595,0,30306,370.0,1709.0,1436.0,0.0,0.0,0.0,0.0
1630051595892067674,1630051595,0,30306,370.0,1591.0,1377.0,0.0,0.0,0.0,0.0
1630051595993274251,1630051595,0,30306,363.0,1471.0,1337.0,0.0,0.0,0.0,0.0
1630051596092833433,1630051596,0,30306,354.0,1392.0,1298.0,0.0,0.0,0.0,0.0
1630051596201991076,1630051596,0,30306,349.0,1256.0,1346.0,0.0,0.0,0.0,0.0
1630051596292297133,1630051596,0,30306,361.0,1182.0,1299.0,0.0,0.0,0.0,0.0
1630051596390737193,1630051596,0,30306,368.0,1032.0,1298.0,0.0,0.0,0.0,0.0
1630051596502136632,1630051596,0,30306,418.0,957.0,1274.0,0.0,0.0,0.0,0.0
1630051596592094864,1630051596,0,30306,443.0,912.0,1269.0,0.0,0.0,0.0,0.0
1630051596680764826,1630051596,0,30306,522.0,837.0,1267.0,0.0,0.0,0.0,0.0
1630051596790080195,1630051596,0,30306,551.0,795.0,1250.0,0.0,0.0,0.0,0.0
1630051596888905915,1630051596,0,30306,555.0,775.0,1238.0,0.0,0.0,0.0,0.0
1630051596999142005,1630051596,0,30306,566.0,756.0,1194.0,0.0,0.0,0.0,0.0
1630051597089218501,1630051597,0,30306,552.0,726.0,1148.0,0.0,0.0,0.0,0.0
1630051597199033054,1630051597,0,30306,559.0,644.0,1139.0,0.0,0.0,0.0,0.0
1630051597288152070,1630051597,0,30306,573.0,608.0,1101.0,0.0,0.0,0.0,0.0
1630051597398257527,1630051597,0,30306,587.0,580.0,1102.0,0.0,0.0,0.0,0.0
1630051597487268422,1630051597,0,30306,609.0,563.0,1092.0,0.0,0.0,0.0,0.0
1630051597587114493,1630051597,0,30306,620.0,568.0,1081.0,0.0,0.0,0.0,0.0
1630051597686454788,1630051597,0,30306,630.0,526.0,1109.0,0.0,0.0,0.0,0.0
1630051597787108057,1630051597,0,30306,625.0,500.0,1161.0,0.0,0.0,0.0,0.0
1630051597895904379,1630051597,0,30306,661.0,486.0,1154.0,0.0,0.0,0.0,0.0
1630051597985367853,1630051597,0,30306,688.0,476.0,1135.0,0.0,0.0,0.0,0.0
1630051598095568502,1630051598,0,30306,709.0,483.0,1122.0,0.0,0.0,0.0,0.0
1630051598183671372,1630051598,0,30306,728.0,482.0,1106.0,0.0,0.0,0.0,0.0
1630051598293294373,1630051598,0,30306,744.0,488.0,1119.0,0.0,0.0,0.0,0.0
1630051598380707705,1630051598,0,30306,742.0,515.0,1129.0,0.0,0.0,0.0,0.0
1630051598490923907,1630051598,0,30306,729.0,489.0,1133.0,0.0,0.0,0.0,0.0
1630051598591814506,1630051598,0,30306,727.0,489.0,1157.0,0.0,0.0,0.0,0.0
1630051598691492127,1630051598,0,30306,713.0,473.0,1170.0,0.0,0.0,0.0,0.0
1630051598792179274,1630051598,0,30306,670.0,493.0,1164.0,0.0,0.0,0.0,0.0
1630051598890526637,1630051598,0,30306,638.0,518.0,1166.0,0.0,0.0,0.0,0.0
1630051598990144912,1630051598,0,30306,605.0,517.0,1161.0,0.0,0.0,0.0,0.0
1630051599099254444,1630051599,0,30306,588.0,506.0,1169.0,0.0,0.0,0.0,0.0
1630051599189660155,1630051599,0,30306,581.0,489.0,1186.0,0.0,0.0,0.0,0.0
1630051599298364867,1630051599,0,30306,586.0,461.0,1191.0,0.0,0.0,0.0,0.0
1630051599388558331,1630051599,0,30306,592.0,432.0,1213.0,0.0,0.0,0.0,0.0
1630051599498624136,1630051599,0,30306,600.0,415.0,1220.0,0.0,0.0,0.0,0.0
1630051599587203115,1630051599,0,30306,602.0,382.0,1228.0,0.0,0.0,0.0,0.0
1630051599698080616,1630051599,0,30306,626.0,312.0,1243.0,0.0,0.0,0.0,0.0
1630051599788201757,1630051599,0,30306,673.0,367.0,1207.0,0.0,0.0,0.0,0.0
1630051599898201624,1630051599,0,30306,714.0,406.0,1168.0,0.0,0.0,0.0,0.0
1630051599988207468,1630051599,0,30306,760.0,397.0,1202.0,0.0,0.0,0.0,0.0
1630051600097248379,1630051600,0,30306,787.0,433.0,1264.0,0.0,0.0,0.0,0.0
1630051600187053271,1630051600,0,30306,799.0,471.0,1324.0,0.0,0.0,0.0,0.0
1630051600296785524,1630051600,0,30306,807.0,517.0,1366.0,0.0,0.0,0.0,0.0
1630051600396973444,1630051600,0,30306,819.0,529.0,1401.0,0.0,0.0,0.0,0.0
1630051600498890443,1630051600,0,30306,835.0,532.0,1407.0,0.0,0.0,0.0,0.0
1630051600587047914,1630051600,0,30306,841.0,530.0,1372.0,0.0,0.0,0.0,0.0
1630051600687189625,1630051600,0,30306,853.0,509.0,1357.0,0.0,0.0,0.0,0.0
1630051600796174346,1630051600,0,30306,835.0,521.0,1304.0,0.0,0.0,0.0,0.0
1630051600885816829,1630051600,0,30306,821.0,537.0,1232.0,0.0,0.0,0.0,0.0
1630051600995796913,1630051600,0,30306,813.0,550.0,1152.0,0.0,0.0,0.0,0.0
1630051601085929264,1630051601,0,30306,805.0,566.0,1065.0,0.0,0.0,0.0,0.0
1630051601185920918,1630051601,0,30306,803.0,583.0,999.0,0.0,0.0,0.0,0.0
1630051601296772874,1630051601,0,30306,799.0,587.0,956.0,0.0,0.0,0.0,0.0
1630051601385488476,1630051601,0,30306,807.0,593.0,904.0,0.0,0.0,0.0,0.0
1630051601498087184,1630051601,0,30306,821.0,606.0,860.0,0.0,0.0,0.0,0.0
1630051601585163478,1630051601,0,30306,843.0,596.0,822.0,0.0,0.0,0.0,0.0
1630051601696576725,1630051601,0,30306,858.0,602.0,779.0,0.0,0.0,0.0,0.0
1630051601797044596,1630051601,0,30306,830.0,614.0,792.0,0.0,0.0,0.0,0.0
1630051601886646260,1630051601,0,30306,794.0,630.0,802.0,0.0,0.0,0.0,0.0
1630051601997467535,1630051601,0,30306,763.0,647.0,809.0,0.0,0.0,0.0,0.0
1630051602086144666,1630051602,0,30306,737.0,668.0,825.0,0.0,0.0,0.0,0.0
1630051602196161489,1630051602,0,30306,712.0,689.0,839.0,0.0,0.0,0.0,0.0
1630051602286343237,1630051602,0,30306,689.0,706.0,858.0,0.0,0.0,0.0,0.0
1630051602396162854,1630051602,0,30306,677.0,726.0,864.0,0.0,0.0,0.0,0.0
1630051602485800528,1630051602,0,30306,666.0,745.0,870.0,0.0,0.0,0.0,0.0
1630051602594679405,1630051602,0,30306,652.0,759.0,874.0,0.0,0.0,0.0,0.0
1630051602694831022,1630051602,0,30306,636.0,773.0,880.0,0.0,0.0,0.0,0.0
1630051602790716013,1630051602,0,30306,627.0,767.0,926.0,0.0,0.0,0.0,0.0
1630051602889539608,1630051602,0,30306,622.0,755.0,956.0,0.0,0.0,0.0,0.0
1630051602989977700,1630051602,0,30306,614.0,744.0,1006.0,0.0,0.0,0.0,0.0
1630051603099302175,1630051603,0,30306,608.0,731.0,1037.0,0.0,0.0,0.0,0.0
1630051603188883085,1630051603,0,30306,595.0,736.0,1068.0,0.0,0.0,0.0,0.0
