%time,field.data0.header.seq,field.data0.header.stamp,field.data0.header.frame_id,field.data0.pose.position.x,field.data0.pose.position.y,field.data0.pose.position.z,field.data0.pose.orientation.x,field.data0.pose.orientation.y,field.data0.pose.orientation.z,field.data0.pose.orientation.w
1630046547327801746,1630046547,0,30306,1147.0,1049.0,1023.0,0.0,0.0,0.0,0.0
1630046547438743707,1630046547,0,30306,1155.0,1051.0,1005.0,0.0,0.0,0.0,0.0
1630046547527772386,1630046547,0,30306,1163.0,1049.0,981.0,0.0,0.0,0.0,0.0
1630046547626998910,1630046547,0,30306,1174.0,1048.0,953.0,0.0,0.0,0.0,0.0
1630046547734554803,1630046547,0,30306,1151.0,1065.0,981.0,0.0,0.0,0.0,0.0
1630046547825628752,1630046547,0,30306,1132.0,1085.0,1002.0,0.0,0.0,0.0,0.0
1630046547936188329,1630046547,0,30306,1113.0,1102.0,1027.0,0.0,0.0,0.0,0.0
1630046548026327755,1630046548,0,30306,1095.0,1117.0,1050.0,0.0,0.0,0.0,0.0
1630046548136698051,1630046548,0,30306,1087.0,1133.0,1066.0,0.0,0.0,0.0,0.0
1630046548225297139,1630046548,0,30306,1083.0,1141.0,1075.0,0.0,0.0,0.0,0.0
1630046548335538833,1630046548,0,30306,1079.0,1148.0,1084.0,0.0,0.0,0.0,0.0
1630046548435999837,1630046548,0,30306,1078.0,1150.0,1096.0,0.0,0.0,0.0,0.0
1630046548525427248,1630046548,0,30306,1082.0,1153.0,1109.0,0.0,0.0,0.0,0.0
1630046548636444113,1630046548,0,30306,1086.0,1148.0,1117.0,0.0,0.0,0.0,0.0
1630046548725739239,1630046548,0,30306,1082.0,1129.0,1132.0,0.0,0.0,0.0,0.0
1630046548835956112,1630046548,0,30306,1078.0,1117.0,1141.0,0.0,0.0,0.0,0.0
1630046548925882039,1630046548,0,30306,1068.0,1104.0,1164.0,0.0,0.0,0.0,0.0
1630046549026009582,1630046549,0,30306,1060.0,1101.0,1188.0,0.0,0.0,0.0,0.0
1630046549135523432,1630046549,0,30306,1054.0,1103.0,1204.0,0.0,0.0,0.0,0.0
1630046549224357879,1630046549,0,30306,1050.0,1109.0,1225.0,0.0,0.0,0.0,0.0
1630046549334932885,1630046549,0,30306,1050.0,1119.0,1236.0,0.0,0.0,0.0,0.0
1630046549424843101,1630046549,0,30306,1047.0,1130.0,1248.0,0.0,0.0,0.0,0.0
1630046549525115020,1630046549,0,30306,1044.0,1147.0,1263.0,0.0,0.0,0.0,0.0
1630046549634853776,1630046549,0,30306,1049.0,1164.0,1286.0,0.0,0.0,0.0,0.0
1630046549723467889,1630046549,0,30306,1051.0,1142.0,1285.0,0.0,0.0,0.0,0.0
1630046549834187965,1630046549,0,30306,1052.0,1123.0,1292.0,0.0,0.0,0.0,0.0
1630046549923722317,1630046549,0,30306,1055.0,1114.0,1283.0,0.0,0.0,0.0,0.0
1630046550033809975,1630046550,0,30306,1061.0,1108.0,1275.0,0.0,0.0,0.0,0.0
1630046550123231810,1630046550,0,30306,1068.0,1102.0,1266.0,0.0,0.0,0.0,0.0
1630046550233319163,1630046550,0,30306,1077.0,1104.0,1266.0,0.0,0.0,0.0,0.0
1630046550333659741,1630046550,0,30306,1082.0,1113.0,1269.0,0.0,0.0,0.0,0.0
1630046550423484841,1630046550,0,30306,1090.0,1111.0,1276.0,0.0,0.0,0.0,0.0
1630046550534252176,1630046550,0,30306,1101.0,1119.0,1272.0,0.0,0.0,0.0,0.0
1630046550623415844,1630046550,0,30306,1113.0,1129.0,1271.0,0.0,0.0,0.0,0.0
1630046550731826603,1630046550,0,30306,1114.0,1120.0,1243.0,0.0,0.0,0.0,0.0
1630046550823198430,1630046550,0,30306,1115.0,1113.0,1218.0,0.0,0.0,0.0,0.0
1630046550933294712,1630046550,0,30306,1120.0,1106.0,1202.0,0.0,0.0,0.0,0.0
1630046551023057171,1630046551,0,30306,1119.0,1106.0,1187.0,0.0,0.0,0.0,0.0
1630046551133725346,1630046551,0,30306,1126.0,1108.0,1170.0,0.0,0.0,0.0,0.0
1630046551233890987,1630046551,0,30306,1131.0,1112.0,1149.0,0.0,0.0,0.0,0.0
1630046551323402829,1630046551,0,30306,1134.0,1112.0,1132.0,0.0,0.0,0.0,0.0
1630046551432983151,1630046551,0,30306,1144.0,1114.0,1115.0,0.0,0.0,0.0,0.0
1630046551523266425,1630046551,0,30306,1161.0,1113.0,1092.0,0.0,0.0,0.0,0.0
1630046551634038688,1630046551,0,30306,1172.0,1117.0,1074.0,0.0,0.0,0.0,0.0
1630046551723135991,1630046551,0,30306,1154.0,1109.0,1060.0,0.0,0.0,0.0,0.0
1630046551833188473,1630046551,0,30306,1139.0,1100.0,1048.0,0.0,0.0,0.0,0.0
1630046551933443472,1630046551,0,30306,1134.0,1091.0,1033.0,0.0,0.0,0.0,0.0
1630046552034286581,1630046552,0,30306,1134.0,1080.0,1021.0,0.0,0.0,0.0,0.0
1630046552133426377,1630046552,0,30306,1135.0,1079.0,1010.0,0.0,0.0,0.0,0.0
1630046552225820990,1630046552,0,30306,1144.0,1077.0,1000.0,0.0,0.0,0.0,0.0
1630046552335946847,1630046552,0,30306,1147.0,1078.0,1002.0,0.0,0.0,0.0,0.0
1630046552425139509,1630046552,0,30306,1150.0,1077.0,1000.0,0.0,0.0,0.0,0.0
1630046552534948974,1630046552,0,30306,1157.0,1076.0,1004.0,0.0,0.0,0.0,0.0
1630046552624016307,1630046552,0,30306,1165.0,1075.0,993.0,0.0,0.0,0.0,0.0
1630046552724217510,1630046552,0,30306,1150.0,1074.0,1025.0,0.0,0.0,0.0,0.0
1630046552834882819,1630046552,0,30306,1139.0,1073.0,1058.0,0.0,0.0,0.0,0.0
1630046552924895286,1630046552,0,30306,1133.0,1071.0,1085.0,0.0,0.0,0.0,0.0
1630046553033515626,1630046553,0,30306,1137.0,1065.0,1107.0,0.0,0.0,0.0,0.0
1630046553133933854,1630046553,0,30306,1134.0,1059.0,1113.0,0.0,0.0,0.0,0.0
1630046553223067212,1630046553,0,30306,1136.0,1050.0,1118.0,0.0,0.0,0.0,0.0
1630046553333160222,1630046553,0,30306,1134.0,1043.0,1121.0,0.0,0.0,0.0,0.0
1630046553423142279,1630046553,0,30306,1140.0,1032.0,1111.0,0.0,0.0,0.0,0.0
1630046553532063264,1630046553,0,30306,1139.0,1019.0,1099.0,0.0,0.0,0.0,0.0
1630046553621172162,1630046553,0,30306,1139.0,1012.0,1077.0,0.0,0.0,0.0,0.0
1630046553732376484,1630046553,0,30306,1113.0,1023.0,1084.0,0.0,0.0,0.0,0.0
1630046553832518384,1630046553,0,30306,1094.0,1032.0,1077.0,0.0,0.0,0.0,0.0
1630046553921327383,1630046553,0,30306,1077.0,1041.0,1067.0,0.0,0.0,0.0,0.0
1630046554031434671,1630046554,0,30306,1067.0,1046.0,1052.0,0.0,0.0,0.0,0.0
1630046554121306244,1630046554,0,30306,1054.0,1050.0,1034.0,0.0,0.0,0.0,0.0
1630046554232635295,1630046554,0,30306,1043.0,1052.0,1024.0,0.0,0.0,0.0,0.0
1630046554320801991,1630046554,0,30306,1032.0,1052.0,1027.0,0.0,0.0,0.0,0.0
1630046554432455272,1630046554,0,30306,1029.0,1056.0,1020.0,0.0,0.0,0.0,0.0
1630046554532757252,1630046554,0,30306,1021.0,1054.0,1014.0,0.0,0.0,0.0,0.0
1630046554631523664,1630046554,0,30306,1021.0,1050.0,1012.0,0.0,0.0,0.0,0.0
1630046554730908456,1630046554,0,30306,1033.0,1058.0,1028.0,0.0,0.0,0.0,0.0
1630046554820245098,1630046554,0,30306,1049.0,1065.0,1041.0,0.0,0.0,0.0,0.0
1630046554930664278,1630046554,0,30306,1050.0,1068.0,1063.0,0.0,0.0,0.0,0.0
1630046555029597327,1630046555,0,30306,1053.0,1074.0,1090.0,0.0,0.0,0.0,0.0
1630046555131078543,1630046555,0,30306,1053.0,1076.0,1097.0,0.0,0.0,0.0,0.0
1630046555229313043,1630046555,0,30306,1046.0,1080.0,1106.0,0.0,0.0,0.0,0.0
1630046555318580991,1630046555,0,30306,1037.0,1087.0,1117.0,0.0,0.0,0.0,0.0
1630046555430285649,1630046555,0,30306,1023.0,1094.0,1132.0,0.0,0.0,0.0,0.0
1630046555529551385,1630046555,0,30306,1010.0,1102.0,1144.0,0.0,0.0,0.0,0.0
1630046555629656938,1630046555,0,30306,997.0,1104.0,1165.0,0.0,0.0,0.0,0.0
1630046555730591545,1630046555,0,30306,998.0,1094.0,1202.0,0.0,0.0,0.0,0.0
1630046555829821737,1630046555,0,30306,1005.0,1092.0,1233.0,0.0,0.0,0.0,0.0
1630046555930297856,1630046555,0,30306,1007.0,1089.0,1267.0,0.0,0.0,0.0,0.0
1630046556030548866,1630046556,0,30306,996.0,1086.0,1298.0,0.0,0.0,0.0,0.0
1630046556129233512,1630046556,0,30306,986.0,1083.0,1330.0,0.0,0.0,0.0,0.0
1630046556238387220,1630046556,0,30306,971.0,1085.0,1363.0,0.0,0.0,0.0,0.0
1630046556326912757,1630046556,0,30306,963.0,1084.0,1398.0,0.0,0.0,0.0,0.0
1630046556439331145,1630046556,0,30306,942.0,1087.0,1426.0,0.0,0.0,0.0,0.0
1630046556528385743,1630046556,0,30306,922.0,1090.0,1451.0,0.0,0.0,0.0,0.0
1630046556639528440,1630046556,0,30306,903.0,1094.0,1481.0,0.0,0.0,0.0,0.0
1630046556727281077,1630046556,0,30306,930.0,1078.0,1450.0,0.0,0.0,0.0,0.0
1630046556839473728,1630046556,0,30306,946.0,1075.0,1426.0,0.0,0.0,0.0,0.0
1630046556927908153,1630046556,0,30306,961.0,1073.0,1403.0,0.0,0.0,0.0,0.0
1630046557037503320,1630046557,0,30306,971.0,1067.0,1393.0,0.0,0.0,0.0,0.0
1630046557127571756,1630046557,0,30306,974.0,1064.0,1391.0,0.0,0.0,0.0,0.0
1630046557236657548,1630046557,0,30306,969.0,1066.0,1400.0,0.0,0.0,0.0,0.0
1630046557327988659,1630046557,0,30306,958.0,1071.0,1416.0,0.0,0.0,0.0,0.0
1630046557439966859,1630046557,0,30306,945.0,1082.0,1432.0,0.0,0.0,0.0,0.0
1630046557527601440,1630046557,0,30306,930.0,1086.0,1447.0,0.0,0.0,0.0,0.0
1630046557639461104,1630046557,0,30306,918.0,1094.0,1461.0,0.0,0.0,0.0,0.0
1630046557727711543,1630046557,0,30306,956.0,1089.0,1398.0,0.0,0.0,0.0,0.0
1630046557837974358,1630046557,0,30306,983.0,1086.0,1351.0,0.0,0.0,0.0,0.0
1630046557927450714,1630046557,0,30306,999.0,1080.0,1313.0,0.0,0.0,0.0,0.0
1630046558037307266,1630046558,0,30306,1008.0,1075.0,1275.0,0.0,0.0,0.0,0.0
1630046558126387351,1630046558,0,30306,1008.0,1073.0,1240.0,0.0,0.0,0.0,0.0
1630046558236190274,1630046558,0,30306,1000.0,1068.0,1222.0,0.0,0.0,0.0,0.0
1630046558326844682,1630046558,0,30306,986.0,1075.0,1199.0,0.0,0.0,0.0,0.0
1630046558436945819,1630046558,0,30306,975.0,1073.0,1181.0,0.0,0.0,0.0,0.0
1630046558526121963,1630046558,0,30306,965.0,1068.0,1163.0,0.0,0.0,0.0,0.0
1630046558625192867,1630046558,0,30306,950.0,1070.0,1148.0,0.0,0.0,0.0,0.0
1630046558735196890,1630046558,0,30306,966.0,1073.0,1147.0,0.0,0.0,0.0,0.0
1630046558826082917,1630046558,0,30306,983.0,1077.0,1151.0,0.0,0.0,0.0,0.0
1630046558934298004,1630046558,0,30306,990.0,1079.0,1156.0,0.0,0.0,0.0,0.0
1630046559023522474,1630046559,0,30306,995.0,1089.0,1145.0,0.0,0.0,0.0,0.0
1630046559135564753,1630046559,0,30306,999.0,1092.0,1132.0,0.0,0.0,0.0,0.0
1630046559223743228,1630046559,0,30306,998.0,1098.0,1133.0,0.0,0.0,0.0,0.0
1630046559334919885,1630046559,0,30306,1000.0,1106.0,1129.0,0.0,0.0,0.0,0.0
1630046559433182998,1630046559,0,30306,1001.0,1109.0,1133.0,0.0,0.0,0.0,0.0
1630046559524014630,1630046559,0,30306,1002.0,1118.0,1118.0,0.0,0.0,0.0,0.0
1630046559634542005,1630046559,0,30306,1003.0,1117.0,1109.0,0.0,0.0,0.0,0.0
1630046559721829401,1630046559,0,30306,1039.0,1112.0,1098.0,0.0,0.0,0.0,0.0
1630046559833343136,1630046559,0,30306,1074.0,1104.0,1085.0,0.0,0.0,0.0,0.0
1630046559922248457,1630046559,0,30306,1103.0,1097.0,1066.0,0.0,0.0,0.0,0.0
1630046560033538523,1630046560,0,30306,1131.0,1085.0,1032.0,0.0,0.0,0.0,0.0
1630046560121997125,1630046560,0,30306,1151.0,1076.0,1005.0,0.0,0.0,0.0,0.0
1630046560231479878,1630046560,0,30306,1167.0,1066.0,979.0,0.0,0.0,0.0,0.0
1630046560333004222,1630046560,0,30306,1178.0,1055.0,952.0,0.0,0.0,0.0,0.0
1630046560432669674,1630046560,0,30306,1187.0,1046.0,933.0,0.0,0.0,0.0,0.0
1630046560534837212,1630046560,0,30306,1195.0,1038.0,919.0,0.0,0.0,0.0,0.0
1630046560623805234,1630046560,0,30306,1204.0,1026.0,915.0,0.0,0.0,0.0,0.0
1630046560733822498,1630046560,0,30306,1187.0,1038.0,936.0,0.0,0.0,0.0,0.0
1630046560823897193,1630046560,0,30306,1174.0,1044.0,963.0,0.0,0.0,0.0,0.0
1630046560934912260,1630046560,0,30306,1167.0,1047.0,990.0,0.0,0.0,0.0,0.0
1630046561022607581,1630046561,0,30306,1156.0,1052.0,1010.0,0.0,0.0,0.0,0.0
1630046561133163762,1630046561,0,30306,1144.0,1049.0,1028.0,0.0,0.0,0.0,0.0
1630046561235837463,1630046561,0,30306,1138.0,1052.0,1041.0,0.0,0.0,0.0,0.0
1630046561324710759,1630046561,0,30306,1142.0,1047.0,1050.0,0.0,0.0,0.0,0.0
1630046561451250873,1630046561,0,30306,1141.0,1043.0,1051.0,0.0,0.0,0.0,0.0
1630046561524833622,1630046561,0,30306,1145.0,1029.0,1050.0,0.0,0.0,0.0,0.0
1630046561634895284,1630046561,0,30306,1150.0,1024.0,1052.0,0.0,0.0,0.0,0.0
1630046561723977884,1630046561,0,30306,1125.0,1039.0,1092.0,0.0,0.0,0.0,0.0
1630046561824729065,1630046561,0,30306,1113.0,1049.0,1117.0,0.0,0.0,0.0,0.0
1630046561934974749,1630046561,0,30306,1097.0,1059.0,1142.0,0.0,0.0,0.0,0.0
1630046562025208839,1630046562,0,30306,1089.0,1059.0,1157.0,0.0,0.0,0.0,0.0
1630046562133923980,1630046562,0,30306,1088.0,1055.0,1170.0,0.0,0.0,0.0,0.0
1630046562223064758,1630046562,0,30306,1093.0,1053.0,1168.0,0.0,0.0,0.0,0.0
1630046562335000187,1630046562,0,30306,1098.0,1048.0,1171.0,0.0,0.0,0.0,0.0
1630046562427380667,1630046562,0,30306,1107.0,1040.0,1170.0,0.0,0.0,0.0,0.0
1630046562526990989,1630046562,0,30306,1108.0,1038.0,1172.0,0.0,0.0,0.0,0.0
1630046562637467789,1630046562,0,30306,1114.0,1030.0,1169.0,0.0,0.0,0.0,0.0
1630046562726093229,1630046562,0,30306,1092.0,1042.0,1163.0,0.0,0.0,0.0,0.0
1630046562827683776,1630046562,0,30306,1078.0,1048.0,1146.0,0.0,0.0,0.0,0.0
1630046562927505220,1630046562,0,30306,1070.0,1052.0,1120.0,0.0,0.0,0.0,0.0
1630046563027957100,1630046563,0,30306,1065.0,1057.0,1101.0,0.0,0.0,0.0,0.0
1630046563128249282,1630046563,0,30306,1059.0,1056.0,1079.0,0.0,0.0,0.0,0.0
1630046563228244372,1630046563,0,30306,1060.0,1048.0,1059.0,0.0,0.0,0.0,0.0
1630046563338332839,1630046563,0,30306,1062.0,1049.0,1042.0,0.0,0.0,0.0,0.0
1630046563427435511,1630046563,0,30306,1074.0,1044.0,1026.0,0.0,0.0,0.0,0.0
1630046563537426424,1630046563,0,30306,1076.0,1043.0,1016.0,0.0,0.0,0.0,0.0
1630046563627430217,1630046563,0,30306,1082.0,1042.0,1013.0,0.0,0.0,0.0,0.0
1630046563747848081,1630046563,0,30306,1085.0,1065.0,1024.0,0.0,0.0,0.0,0.0
1630046563826622951,1630046563,0,30306,1089.0,1082.0,1040.0,0.0,0.0,0.0,0.0
1630046563927434087,1630046563,0,30306,1093.0,1096.0,1050.0,0.0,0.0,0.0,0.0
1630046564027706742,1630046564,0,30306,1096.0,1109.0,1057.0,0.0,0.0,0.0,0.0
1630046564127228842,1630046564,0,30306,1101.0,1123.0,1056.0,0.0,0.0,0.0,0.0
1630046564236361150,1630046564,0,30306,1102.0,1138.0,1056.0,0.0,0.0,0.0,0.0
1630046564326891933,1630046564,0,30306,1099.0,1150.0,1054.0,0.0,0.0,0.0,0.0
1630046564436585450,1630046564,0,30306,1095.0,1160.0,1045.0,0.0,0.0,0.0,0.0
1630046564525911016,1630046564,0,30306,1095.0,1167.0,1034.0,0.0,0.0,0.0,0.0
1630046564630404984,1630046564,0,30306,1089.0,1176.0,1020.0,0.0,0.0,0.0,0.0
1630046564736998452,1630046564,0,30306,1077.0,1158.0,1039.0,0.0,0.0,0.0,0.0
1630046564825983278,1630046564,0,30306,1064.0,1147.0,1066.0,0.0,0.0,0.0,0.0
1630046564936184095,1630046564,0,30306,1047.0,1137.0,1097.0,0.0,0.0,0.0,0.0
1630046565026533548,1630046565,0,30306,1030.0,1135.0,1117.0,0.0,0.0,0.0,0.0
1630046565126562756,1630046565,0,30306,1015.0,1130.0,1137.0,0.0,0.0,0.0,0.0
1630046565237414481,1630046565,0,30306,994.0,1130.0,1153.0,0.0,0.0,0.0,0.0
1630046565326010678,1630046565,0,30306,980.0,1132.0,1174.0,0.0,0.0,0.0,0.0
1630046565437093315,1630046565,0,30306,967.0,1140.0,1188.0,0.0,0.0,0.0,0.0
1630046565526662110,1630046565,0,30306,962.0,1141.0,1201.0,0.0,0.0,0.0,0.0
1630046565638583225,1630046565,0,30306,957.0,1143.0,1204.0,0.0,0.0,0.0,0.0
1630046565727658024,1630046565,0,30306,980.0,1120.0,1199.0,0.0,0.0,0.0,0.0
1630046565827309841,1630046565,0,30306,991.0,1094.0,1206.0,0.0,0.0,0.0,0.0
1630046565936894023,1630046565,0,30306,996.0,1074.0,1203.0,0.0,0.0,0.0,0.0
1630046566025502716,1630046566,0,30306,1004.0,1060.0,1198.0,0.0,0.0,0.0,0.0
1630046566137258716,1630046566,0,30306,1003.0,1041.0,1206.0,0.0,0.0,0.0,0.0
1630046566226358733,1630046566,0,30306,1002.0,1027.0,1203.0,0.0,0.0,0.0,0.0
1630046566337318946,1630046566,0,30306,1001.0,1015.0,1204.0,0.0,0.0,0.0,0.0
1630046566426562093,1630046566,0,30306,990.0,1004.0,1215.0,0.0,0.0,0.0,0.0
1630046566537985703,1630046566,0,30306,984.0,999.0,1231.0,0.0,0.0,0.0,0.0
1630046566626143402,1630046566,0,30306,973.0,996.0,1251.0,0.0,0.0,0.0,0.0
1630046566737164160,1630046566,0,30306,981.0,1010.0,1247.0,0.0,0.0,0.0,0.0
1630046566826014534,1630046566,0,30306,982.0,1018.0,1255.0,0.0,0.0,0.0,0.0
1630046566937325087,1630046566,0,30306,982.0,1021.0,1256.0,0.0,0.0,0.0,0.0
1630046567024425217,1630046567,0,30306,973.0,1027.0,1265.0,0.0,0.0,0.0,0.0
1630046567126824943,1630046567,0,30306,966.0,1022.0,1283.0,0.0,0.0,0.0,0.0
1630046567235947869,1630046567,0,30306,961.0,1018.0,1301.0,0.0,0.0,0.0,0.0
1630046567325849386,1630046567,0,30306,954.0,1005.0,1320.0,0.0,0.0,0.0,0.0
1630046567436196888,1630046567,0,30306,938.0,994.0,1340.0,0.0,0.0,0.0,0.0
1630046567523049376,1630046567,0,30306,921.0,981.0,1364.0,0.0,0.0,0.0,0.0
1630046567635379753,1630046567,0,30306,921.0,970.0,1383.0,0.0,0.0,0.0,0.0
1630046567734489370,1630046567,0,30306,951.0,992.0,1365.0,0.0,0.0,0.0,0.0
1630046567824338211,1630046567,0,30306,969.0,1003.0,1356.0,0.0,0.0,0.0,0.0
1630046567935144871,1630046567,0,30306,987.0,1008.0,1355.0,0.0,0.0,0.0,0.0
1630046568024557718,1630046568,0,30306,1005.0,1010.0,1356.0,0.0,0.0,0.0,0.0
1630046568134759955,1630046568,0,30306,1017.0,1012.0,1360.0,0.0,0.0,0.0,0.0
1630046568223619433,1630046568,0,30306,1019.0,1008.0,1376.0,0.0,0.0,0.0,0.0
1630046568334982662,1630046568,0,30306,1018.0,998.0,1408.0,0.0,0.0,0.0,0.0
1630046568433976899,1630046568,0,30306,1014.0,989.0,1427.0,0.0,0.0,0.0,0.0
1630046568523801752,1630046568,0,30306,1009.0,978.0,1459.0,0.0,0.0,0.0,0.0
1630046568634486825,1630046568,0,30306,1000.0,975.0,1474.0,0.0,0.0,0.0,0.0
1630046568723550971,1630046568,0,30306,1012.0,1008.0,1421.0,0.0,0.0,0.0,0.0
1630046568834158547,1630046568,0,30306,1023.0,1032.0,1380.0,0.0,0.0,0.0,0.0
1630046568932345340,1630046568,0,30306,1029.0,1054.0,1341.0,0.0,0.0,0.0,0.0
1630046569022384908,1630046569,0,30306,1039.0,1071.0,1315.0,0.0,0.0,0.0,0.0
1630046569133913200,1630046569,0,30306,1043.0,1086.0,1285.0,0.0,0.0,0.0,0.0
1630046569222548886,1630046569,0,30306,1040.0,1095.0,1267.0,0.0,0.0,0.0,0.0
1630046569332751739,1630046569,0,30306,1043.0,1102.0,1257.0,0.0,0.0,0.0,0.0
1630046569423265120,1630046569,0,30306,1044.0,1100.0,1255.0,0.0,0.0,0.0,0.0
1630046569533574663,1630046569,0,30306,1048.0,1103.0,1248.0,0.0,0.0,0.0,0.0
1630046569633843971,1630046569,0,30306,1056.0,1109.0,1245.0,0.0,0.0,0.0,0.0
1630046569722782478,1630046569,0,30306,1060.0,1106.0,1213.0,0.0,0.0,0.0,0.0
1630046569832645535,1630046569,0,30306,1068.0,1097.0,1189.0,0.0,0.0,0.0,0.0
1630046569921589253,1630046569,0,30306,1076.0,1094.0,1163.0,0.0,0.0,0.0,0.0
1630046570033098641,1630046570,0,30306,1076.0,1096.0,1149.0,0.0,0.0,0.0,0.0
1630046570131314997,1630046570,0,30306,1080.0,1102.0,1133.0,0.0,0.0,0.0,0.0
1630046570233202593,1630046570,0,30306,1079.0,1103.0,1129.0,0.0,0.0,0.0,0.0
1630046570333107610,1630046570,0,30306,1083.0,1101.0,1116.0,0.0,0.0,0.0,0.0
1630046570422246114,1630046570,0,30306,1086.0,1106.0,1096.0,0.0,0.0,0.0,0.0
1630046570532782763,1630046570,0,30306,1087.0,1109.0,1090.0,0.0,0.0,0.0,0.0
1630046570623406514,1630046570,0,30306,1089.0,1121.0,1072.0,0.0,0.0,0.0,0.0
1630046570733915156,1630046570,0,30306,1093.0,1108.0,1068.0,0.0,0.0,0.0,0.0
1630046570823054012,1630046570,0,30306,1092.0,1103.0,1061.0,0.0,0.0,0.0,0.0
1630046570933308216,1630046570,0,30306,1104.0,1098.0,1045.0,0.0,0.0,0.0,0.0
1630046571033422886,1630046571,0,30306,1106.0,1096.0,1024.0,0.0,0.0,0.0,0.0
1630046571122039029,1630046571,0,30306,1113.0,1088.0,1002.0,0.0,0.0,0.0,0.0
1630046571233906578,1630046571,0,30306,1124.0,1083.0,976.0,0.0,0.0,0.0,0.0
1630046571323698361,1630046571,0,30306,1133.0,1077.0,954.0,0.0,0.0,0.0,0.0
1630046571435575987,1630046571,0,30306,1137.0,1071.0,933.0,0.0,0.0,0.0,0.0
1630046571524117183,1630046571,0,30306,1148.0,1061.0,914.0,0.0,0.0,0.0,0.0
1630046571634001246,1630046571,0,30306,1150.0,1057.0,893.0,0.0,0.0,0.0,0.0
1630046571723038122,1630046571,0,30306,1133.0,1054.0,937.0,0.0,0.0,0.0,0.0
1630046571834079745,1630046571,0,30306,1120.0,1051.0,959.0,0.0,0.0,0.0,0.0
1630046571924999416,1630046571,0,30306,1111.0,1054.0,957.0,0.0,0.0,0.0,0.0
1630046572035095014,1630046572,0,30306,1100.0,1053.0,961.0,0.0,0.0,0.0,0.0
1630046572134922021,1630046572,0,30306,1092.0,1055.0,954.0,0.0,0.0,0.0,0.0
1630046572243976842,1630046572,0,30306,1088.0,1049.0,935.0,0.0,0.0,0.0,0.0
1630046572333630735,1630046572,0,30306,1086.0,1049.0,908.0,0.0,0.0,0.0,0.0
1630046572422244796,1630046572,0,30306,1082.0,1045.0,892.0,0.0,0.0,0.0,0.0
1630046572533458087,1630046572,0,30306,1079.0,1038.0,874.0,0.0,0.0,0.0,0.0
1630046572632412524,1630046572,0,30306,1076.0,1028.0,865.0,0.0,0.0,0.0,0.0
1630046572733273181,1630046572,0,30306,1065.0,1036.0,917.0,0.0,0.0,0.0,0.0
1630046572832927159,1630046572,0,30306,1055.0,1035.0,958.0,0.0,0.0,0.0,0.0
1630046572920864670,1630046572,0,30306,1045.0,1042.0,979.0,0.0,0.0,0.0,0.0
1630046573032034272,1630046573,0,30306,1038.0,1036.0,1000.0,0.0,0.0,0.0,0.0
1630046573132159555,1630046573,0,30306,1030.0,1036.0,1018.0,0.0,0.0,0.0,0.0
1630046573231819438,1630046573,0,30306,1024.0,1030.0,1036.0,0.0,0.0,0.0,0.0
1630046573322358236,1630046573,0,30306,1026.0,1022.0,1040.0,0.0,0.0,0.0,0.0
1630046573432334968,1630046573,0,30306,1033.0,1017.0,1035.0,0.0,0.0,0.0,0.0
1630046573533167334,1630046573,0,30306,1035.0,1016.0,1029.0,0.0,0.0,0.0,0.0
1630046573623105768,1630046573,0,30306,1036.0,1018.0,1022.0,0.0,0.0,0.0,0.0
1630046573732994281,1630046573,0,30306,1052.0,1033.0,1064.0,0.0,0.0,0.0,0.0
1630046573823192296,1630046573,0,30306,1065.0,1050.0,1096.0,0.0,0.0,0.0,0.0
1630046573931053979,1630046573,0,30306,1072.0,1063.0,1118.0,0.0,0.0,0.0,0.0
1630046574032345873,1630046574,0,30306,1075.0,1064.0,1140.0,0.0,0.0,0.0,0.0
1630046574133117521,1630046574,0,30306,1082.0,1069.0,1150.0,0.0,0.0,0.0,0.0
1630046574233401778,1630046574,0,30306,1083.0,1069.0,1164.0,0.0,0.0,0.0,0.0
1630046574331812177,1630046574,0,30306,1077.0,1069.0,1176.0,0.0,0.0,0.0,0.0
1630046574432432394,1630046574,0,30306,1074.0,1073.0,1187.0,0.0,0.0,0.0,0.0
1630046574521204626,1630046574,0,30306,1055.0,1079.0,1199.0,0.0,0.0,0.0,0.0
1630046574632519801,1630046574,0,30306,1042.0,1085.0,1198.0,0.0,0.0,0.0,0.0
1630046574719289999,1630046574,0,30306,1040.0,1087.0,1193.0,0.0,0.0,0.0,0.0
1630046574832558893,1630046574,0,30306,1033.0,1094.0,1189.0,0.0,0.0,0.0,0.0
1630046574922434395,1630046574,0,30306,1031.0,1102.0,1186.0,0.0,0.0,0.0,0.0
1630046575029271566,1630046575,0,30306,1027.0,1111.0,1188.0,0.0,0.0,0.0,0.0
1630046575130931485,1630046575,0,30306,1024.0,1114.0,1190.0,0.0,0.0,0.0,0.0
1630046575221987699,1630046575,0,30306,1021.0,1119.0,1189.0,0.0,0.0,0.0,0.0
1630046575331276289,1630046575,0,30306,1019.0,1122.0,1191.0,0.0,0.0,0.0,0.0
1630046575422223193,1630046575,0,30306,1018.0,1128.0,1180.0,0.0,0.0,0.0,0.0
1630046575532321221,1630046575,0,30306,1012.0,1133.0,1180.0,0.0,0.0,0.0,0.0
1630046575622466834,1630046575,0,30306,1010.0,1135.0,1178.0,0.0,0.0,0.0,0.0
1630046575733779202,1630046575,0,30306,1028.0,1115.0,1173.0,0.0,0.0,0.0,0.0
1630046575821139272,1630046575,0,30306,1046.0,1105.0,1171.0,0.0,0.0,0.0,0.0
1630046575931504703,1630046575,0,30306,1060.0,1094.0,1166.0,0.0,0.0,0.0,0.0
1630046576032319095,1630046576,0,30306,1069.0,1085.0,1160.0,0.0,0.0,0.0,0.0
1630046576132331385,1630046576,0,30306,1075.0,1073.0,1155.0,0.0,0.0,0.0,0.0
1630046576232088218,1630046576,0,30306,1081.0,1064.0,1149.0,0.0,0.0,0.0,0.0
1630046576321202753,1630046576,0,30306,1087.0,1065.0,1138.0,0.0,0.0,0.0,0.0
1630046576431180786,1630046576,0,30306,1088.0,1060.0,1128.0,0.0,0.0,0.0,0.0
1630046576519713119,1630046576,0,30306,1089.0,1052.0,1110.0,0.0,0.0,0.0,0.0
1630046576635434072,1630046576,0,30306,1090.0,1049.0,1094.0,0.0,0.0,0.0,0.0
1630046576720508464,1630046576,0,30306,1089.0,1052.0,1091.0,0.0,0.0,0.0,0.0
1630046576831357044,1630046576,0,30306,1089.0,1054.0,1090.0,0.0,0.0,0.0,0.0
1630046576920773563,1630046576,0,30306,1091.0,1056.0,1079.0,0.0,0.0,0.0,0.0
1630046577032262478,1630046577,0,30306,1094.0,1063.0,1071.0,0.0,0.0,0.0,0.0
1630046577122344380,1630046577,0,30306,1104.0,1065.0,1061.0,0.0,0.0,0.0,0.0
1630046577231514380,1630046577,0,30306,1109.0,1064.0,1054.0,0.0,0.0,0.0,0.0
1630046577330693279,1630046577,0,30306,1113.0,1059.0,1048.0,0.0,0.0,0.0,0.0
1630046577421567836,1630046577,0,30306,1121.0,1055.0,1042.0,0.0,0.0,0.0,0.0
1630046577531729094,1630046577,0,30306,1126.0,1048.0,1036.0,0.0,0.0,0.0,0.0
1630046577631873236,1630046577,0,30306,1132.0,1044.0,1038.0,0.0,0.0,0.0,0.0
1630046577730660260,1630046577,0,30306,1129.0,1054.0,1058.0,0.0,0.0,0.0,0.0
1630046577832394513,1630046577,0,30306,1134.0,1063.0,1080.0,0.0,0.0,0.0,0.0
1630046577922197459,1630046577,0,30306,1136.0,1068.0,1097.0,0.0,0.0,0.0,0.0
1630046578030933468,1630046578,0,30306,1134.0,1072.0,1122.0,0.0,0.0,0.0,0.0
1630046578121329701,1630046578,0,30306,1134.0,1076.0,1145.0,0.0,0.0,0.0,0.0
1630046578231395377,1630046578,0,30306,1136.0,1082.0,1164.0,0.0,0.0,0.0,0.0
1630046578321465897,1630046578,0,30306,1139.0,1083.0,1184.0,0.0,0.0,0.0,0.0
1630046578431603449,1630046578,0,30306,1134.0,1087.0,1206.0,0.0,0.0,0.0,0.0
1630046578532111171,1630046578,0,30306,1133.0,1093.0,1221.0,0.0,0.0,0.0,0.0
1630046578631123333,1630046578,0,30306,1135.0,1092.0,1245.0,0.0,0.0,0.0,0.0
1630046578731372110,1630046578,0,30306,1115.0,1097.0,1252.0,0.0,0.0,0.0,0.0
1630046578841464298,1630046578,0,30306,1110.0,1098.0,1252.0,0.0,0.0,0.0,0.0
1630046578931233297,1630046578,0,30306,1104.0,1098.0,1252.0,0.0,0.0,0.0,0.0
1630046579021314546,1630046579,0,30306,1103.0,1100.0,1255.0,0.0,0.0,0.0,0.0
1630046579131221508,1630046579,0,30306,1109.0,1102.0,1253.0,0.0,0.0,0.0,0.0
1630046579221503491,1630046579,0,30306,1116.0,1103.0,1248.0,0.0,0.0,0.0,0.0
1630046579331517933,1630046579,0,30306,1116.0,1099.0,1253.0,0.0,0.0,0.0,0.0
1630046579420492860,1630046579,0,30306,1119.0,1103.0,1254.0,0.0,0.0,0.0,0.0
1630046579530085836,1630046579,0,30306,1119.0,1105.0,1254.0,0.0,0.0,0.0,0.0
1630046579630047123,1630046579,0,30306,1117.0,1106.0,1259.0,0.0,0.0,0.0,0.0
1630046579731629886,1630046579,0,30306,1098.0,1094.0,1238.0,0.0,0.0,0.0,0.0
1630046579831365107,1630046579,0,30306,1086.0,1091.0,1216.0,0.0,0.0,0.0,0.0
1630046579940594342,1630046579,0,30306,1071.0,1083.0,1201.0,0.0,0.0,0.0,0.0
1630046580031112103,1630046580,0,30306,1058.0,1080.0,1193.0,0.0,0.0,0.0,0.0
1630046580119981417,1630046580,0,30306,1043.0,1080.0,1188.0,0.0,0.0,0.0,0.0
1630046580229315192,1630046580,0,30306,1028.0,1082.0,1183.0,0.0,0.0,0.0,0.0
1630046580318872514,1630046580,0,30306,1018.0,1084.0,1184.0,0.0,0.0,0.0,0.0
1630046580429068849,1630046580,0,30306,1018.0,1088.0,1190.0,0.0,0.0,0.0,0.0
1630046580529355566,1630046580,0,30306,1014.0,1093.0,1191.0,0.0,0.0,0.0,0.0
1630046580641903303,1630046580,0,30306,1011.0,1096.0,1184.0,0.0,0.0,0.0,0.0
1630046580728878689,1630046580,0,30306,1024.0,1083.0,1163.0,0.0,0.0,0.0,0.0
1630046580841237024,1630046580,0,30306,1030.0,1070.0,1147.0,0.0,0.0,0.0,0.0
1630046580931320765,1630046580,0,30306,1038.0,1059.0,1129.0,0.0,0.0,0.0,0.0
1630046581031098663,1630046581,0,30306,1052.0,1058.0,1119.0,0.0,0.0,0.0,0.0
1630046581131399157,1630046581,0,30306,1061.0,1057.0,1094.0,0.0,0.0,0.0,0.0
1630046581220036588,1630046581,0,30306,1071.0,1056.0,1077.0,0.0,0.0,0.0,0.0
1630046581330492255,1630046581,0,30306,1074.0,1055.0,1069.0,0.0,0.0,0.0,0.0
1630046581420687182,1630046581,0,30306,1081.0,1052.0,1049.0,0.0,0.0,0.0,0.0
1630046581531783706,1630046581,0,30306,1087.0,1055.0,1031.0,0.0,0.0,0.0,0.0
1630046581630003133,1630046581,0,30306,1089.0,1059.0,1028.0,0.0,0.0,0.0,0.0
1630046581730178617,1630046581,0,30306,1096.0,1067.0,1049.0,0.0,0.0,0.0,0.0
1630046581830030115,1630046581,0,30306,1094.0,1072.0,1080.0,0.0,0.0,0.0,0.0
1630046581939864653,1630046581,0,30306,1091.0,1077.0,1103.0,0.0,0.0,0.0,0.0
1630046582030639170,1630046582,0,30306,1088.0,1076.0,1131.0,0.0,0.0,0.0,0.0
1630046582119067045,1630046582,0,30306,1079.0,1074.0,1158.0,0.0,0.0,0.0,0.0
1630046582230429788,1630046582,0,30306,1075.0,1068.0,1173.0,0.0,0.0,0.0,0.0
1630046582318792005,1630046582,0,30306,1065.0,1066.0,1199.0,0.0,0.0,0.0,0.0
1630046582430100638,1630046582,0,30306,1055.0,1061.0,1218.0,0.0,0.0,0.0,0.0
1630046582530192068,1630046582,0,30306,1054.0,1049.0,1232.0,0.0,0.0,0.0,0.0
1630046582618470120,1630046582,0,30306,1057.0,1040.0,1235.0,0.0,0.0,0.0,0.0
1630046582730344562,1630046582,0,30306,1050.0,1044.0,1248.0,0.0,0.0,0.0,0.0
1630046582830627513,1630046582,0,30306,1043.0,1056.0,1251.0,0.0,0.0,0.0,0.0
1630046582939436614,1630046582,0,30306,1031.0,1065.0,1252.0,0.0,0.0,0.0,0.0
1630046583032395369,1630046583,0,30306,1029.0,1065.0,1246.0,0.0,0.0,0.0,0.0
1630046583133018799,1630046583,0,30306,1027.0,1066.0,1231.0,0.0,0.0,0.0,0.0
1630046583231087599,1630046583,0,30306,1022.0,1068.0,1224.0,0.0,0.0,0.0,0.0
1630046583321799002,1630046583,0,30306,1015.0,1075.0,1216.0,0.0,0.0,0.0,0.0
1630046583431702542,1630046583,0,30306,1006.0,1080.0,1217.0,0.0,0.0,0.0,0.0
1630046583520898507,1630046583,0,30306,998.0,1078.0,1222.0,0.0,0.0,0.0,0.0
1630046583630940485,1630046583,0,30306,993.0,1083.0,1215.0,0.0,0.0,0.0,0.0
1630046583719539454,1630046583,0,30306,1018.0,1081.0,1191.0,0.0,0.0,0.0,0.0
1630046583831291362,1630046583,0,30306,1039.0,1082.0,1172.0,0.0,0.0,0.0,0.0
1630046583930425953,1630046583,0,30306,1051.0,1084.0,1153.0,0.0,0.0,0.0,0.0
1630046584031589583,1630046584,0,30306,1054.0,1080.0,1145.0,0.0,0.0,0.0,0.0
1630046584130373016,1630046584,0,30306,1060.0,1081.0,1133.0,0.0,0.0,0.0,0.0
1630046584230765823,1630046584,0,30306,1059.0,1087.0,1116.0,0.0,0.0,0.0,0.0
1630046584331681383,1630046584,0,30306,1057.0,1091.0,1113.0,0.0,0.0,0.0,0.0
1630046584442011525,1630046584,0,30306,1051.0,1086.0,1121.0,0.0,0.0,0.0,0.0
1630046584531371467,1630046584,0,30306,1039.0,1084.0,1131.0,0.0,0.0,0.0,0.0
1630046584641993263,1630046584,0,30306,1029.0,1081.0,1131.0,0.0,0.0,0.0,0.0
1630046584732238292,1630046584,0,30306,1030.0,1081.0,1131.0,0.0,0.0,0.0,0.0
1630046584821289533,1630046584,0,30306,1029.0,1075.0,1128.0,0.0,0.0,0.0,0.0
1630046584932240472,1630046584,0,30306,1031.0,1070.0,1128.0,0.0,0.0,0.0,0.0
1630046585021033241,1630046585,0,30306,1026.0,1068.0,1122.0,0.0,0.0,0.0,0.0
1630046585130954911,1630046585,0,30306,1021.0,1063.0,1124.0,0.0,0.0,0.0,0.0
1630046585231122204,1630046585,0,30306,1013.0,1061.0,1130.0,0.0,0.0,0.0,0.0
1630046585331574626,1630046585,0,30306,1004.0,1052.0,1143.0,0.0,0.0,0.0,0.0
1630046585431534632,1630046585,0,30306,992.0,1049.0,1157.0,0.0,0.0,0.0,0.0
1630046585521182339,1630046585,0,30306,974.0,1047.0,1167.0,0.0,0.0,0.0,0.0
1630046585630926312,1630046585,0,30306,962.0,1044.0,1173.0,0.0,0.0,0.0,0.0
1630046585719988240,1630046585,0,30306,974.0,1041.0,1183.0,0.0,0.0,0.0,0.0
1630046585832202667,1630046585,0,30306,982.0,1042.0,1186.0,0.0,0.0,0.0,0.0
1630046585920797227,1630046585,0,30306,989.0,1043.0,1192.0,0.0,0.0,0.0,0.0
1630046586030194066,1630046586,0,30306,984.0,1041.0,1199.0,0.0,0.0,0.0,0.0
1630046586132041386,1630046586,0,30306,985.0,1043.0,1193.0,0.0,0.0,0.0,0.0
1630046586231130113,1630046586,0,30306,980.0,1049.0,1189.0,0.0,0.0,0.0,0.0
1630046586329783371,1630046586,0,30306,980.0,1052.0,1193.0,0.0,0.0,0.0,0.0
1630046586431138344,1630046586,0,30306,976.0,1055.0,1193.0,0.0,0.0,0.0,0.0
1630046586531304883,1630046586,0,30306,968.0,1049.0,1199.0,0.0,0.0,0.0,0.0
1630046586631260200,1630046586,0,30306,959.0,1044.0,1206.0,0.0,0.0,0.0,0.0
1630046586729317977,1630046586,0,30306,991.0,1050.0,1200.0,0.0,0.0,0.0,0.0
1630046586830949273,1630046586,0,30306,1018.0,1056.0,1202.0,0.0,0.0,0.0,0.0
1630046586931432273,1630046586,0,30306,1035.0,1055.0,1209.0,0.0,0.0,0.0,0.0
1630046587019881531,1630046587,0,30306,1044.0,1054.0,1211.0,0.0,0.0,0.0,0.0
1630046587132039794,1630046587,0,30306,1053.0,1052.0,1224.0,0.0,0.0,0.0,0.0
1630046587231615081,1630046587,0,30306,1055.0,1044.0,1235.0,0.0,0.0,0.0,0.0
1630046587331126349,1630046587,0,30306,1061.0,1040.0,1236.0,0.0,0.0,0.0,0.0
1630046587430978650,1630046587,0,30306,1060.0,1042.0,1242.0,0.0,0.0,0.0,0.0
1630046587530336630,1630046587,0,30306,1054.0,1046.0,1254.0,0.0,0.0,0.0,0.0
1630046587630801770,1630046587,0,30306,1046.0,1055.0,1267.0,0.0,0.0,0.0,0.0
1630046587741096944,1630046587,0,30306,1054.0,1063.0,1246.0,0.0,0.0,0.0,0.0
1630046587830765089,1630046587,0,30306,1061.0,1075.0,1234.0,0.0,0.0,0.0,0.0
1630046587921928150,1630046587,0,30306,1068.0,1084.0,1214.0,0.0,0.0,0.0,0.0
1630046588031501377,1630046588,0,30306,1072.0,1081.0,1208.0,0.0,0.0,0.0,0.0
1630046588130713998,1630046588,0,30306,1083.0,1082.0,1191.0,0.0,0.0,0.0,0.0
1630046588229827067,1630046588,0,30306,1092.0,1082.0,1175.0,0.0,0.0,0.0,0.0
1630046588330480838,1630046588,0,30306,1099.0,1081.0,1164.0,0.0,0.0,0.0,0.0
1630046588431303593,1630046588,0,30306,1107.0,1077.0,1156.0,0.0,0.0,0.0,0.0
1630046588520710241,1630046588,0,30306,1116.0,1074.0,1146.0,0.0,0.0,0.0,0.0
1630046588630153995,1630046588,0,30306,1124.0,1072.0,1139.0,0.0,0.0,0.0,0.0
1630046588730474876,1630046588,0,30306,1110.0,1073.0,1134.0,0.0,0.0,0.0,0.0
1630046588832352956,1630046588,0,30306,1108.0,1067.0,1134.0,0.0,0.0,0.0,0.0
1630046588931209885,1630046588,0,30306,1101.0,1065.0,1130.0,0.0,0.0,0.0,0.0
1630046589031693632,1630046589,0,30306,1103.0,1059.0,1129.0,0.0,0.0,0.0,0.0
1630046589130668135,1630046589,0,30306,1108.0,1057.0,1135.0,0.0,0.0,0.0,0.0
1630046589220186570,1630046589,0,30306,1106.0,1051.0,1136.0,0.0,0.0,0.0,0.0
1630046589331173829,1630046589,0,30306,1106.0,1045.0,1142.0,0.0,0.0,0.0,0.0
1630046589420419086,1630046589,0,30306,1111.0,1046.0,1138.0,0.0,0.0,0.0,0.0
1630046589531013528,1630046589,0,30306,1121.0,1046.0,1142.0,0.0,0.0,0.0,0.0
1630046589621500640,1630046589,0,30306,1123.0,1042.0,1152.0,0.0,0.0,0.0,0.0
1630046589730061082,1630046589,0,30306,1103.0,1049.0,1152.0,0.0,0.0,0.0,0.0
1630046589829865370,1630046589,0,30306,1089.0,1056.0,1147.0,0.0,0.0,0.0,0.0
1630046589931519787,1630046589,0,30306,1078.0,1063.0,1151.0,0.0,0.0,0.0,0.0
1630046590031797817,1630046590,0,30306,1074.0,1070.0,1142.0,0.0,0.0,0.0,0.0
1630046590142976503,1630046590,0,30306,1067.0,1078.0,1124.0,0.0,0.0,0.0,0.0
1630046590230029028,1630046590,0,30306,1063.0,1085.0,1118.0,0.0,0.0,0.0,0.0
1630046590321801265,1630046590,0,30306,1061.0,1098.0,1113.0,0.0,0.0,0.0,0.0
1630046590431832077,1630046590,0,30306,1060.0,1106.0,1107.0,0.0,0.0,0.0,0.0
1630046590521562994,1630046590,0,30306,1067.0,1109.0,1105.0,0.0,0.0,0.0,0.0
1630046590632778330,1630046590,0,30306,1078.0,1113.0,1105.0,0.0,0.0,0.0,0.0
1630046590721034346,1630046590,0,30306,1085.0,1115.0,1112.0,0.0,0.0,0.0,0.0
1630046590830892638,1630046590,0,30306,1090.0,1111.0,1122.0,0.0,0.0,0.0,0.0
1630046590930913233,1630046590,0,30306,1104.0,1110.0,1134.0,0.0,0.0,0.0,0.0
1630046591030719631,1630046591,0,30306,1117.0,1107.0,1151.0,0.0,0.0,0.0,0.0
1630046591121587043,1630046591,0,30306,1134.0,1108.0,1169.0,0.0,0.0,0.0,0.0
1630046591231408488,1630046591,0,30306,1150.0,1111.0,1185.0,0.0,0.0,0.0,0.0
1630046591328942652,1630046591,0,30306,1163.0,1100.0,1187.0,0.0,0.0,0.0,0.0
1630046591430492563,1630046591,0,30306,1189.0,1107.0,1196.0,0.0,0.0,0.0,0.0
1630046591531000157,1630046591,0,30306,1213.0,1110.0,1203.0,0.0,0.0,0.0,0.0
1630046591630877394,1630046591,0,30306,1231.0,1111.0,1214.0,0.0,0.0,0.0,0.0
1630046591731327020,1630046591,0,30306,1220.0,1124.0,1206.0,0.0,0.0,0.0,0.0
1630046591831186804,1630046591,0,30306,1202.0,1134.0,1197.0,0.0,0.0,0.0,0.0
1630046591931356549,1630046591,0,30306,1191.0,1145.0,1189.0,0.0,0.0,0.0,0.0
1630046592040793871,1630046592,0,30306,1195.0,1154.0,1183.0,0.0,0.0,0.0,0.0
1630046592131517448,1630046592,0,30306,1194.0,1164.0,1177.0,0.0,0.0,0.0,0.0
1630046592219298599,1630046592,0,30306,1195.0,1175.0,1173.0,0.0,0.0,0.0,0.0
1630046592329090832,1630046592,0,30306,1202.0,1181.0,1171.0,0.0,0.0,0.0,0.0
1630046592428375579,1630046592,0,30306,1199.0,1189.0,1168.0,0.0,0.0,0.0,0.0
1630046592530096818,1630046592,0,30306,1198.0,1201.0,1164.0,0.0,0.0,0.0,0.0
1630046592630756021,1630046592,0,30306,1199.0,1214.0,1169.0,0.0,0.0,0.0,0.0
1630046592741055650,1630046592,0,30306,1162.0,1184.0,1157.0,0.0,0.0,0.0,0.0
1630046592830467306,1630046592,0,30306,1136.0,1158.0,1145.0,0.0,0.0,0.0,0.0
1630046592918048717,1630046592,0,30306,1122.0,1147.0,1134.0,0.0,0.0,0.0,0.0
1630046593030563817,1630046593,0,30306,1111.0,1144.0,1113.0,0.0,0.0,0.0,0.0
1630046593120624258,1630046593,0,30306,1100.0,1141.0,1110.0,0.0,0.0,0.0,0.0
1630046593228733009,1630046593,0,30306,1100.0,1147.0,1114.0,0.0,0.0,0.0,0.0
1630046593330133569,1630046593,0,30306,1096.0,1158.0,1120.0,0.0,0.0,0.0,0.0
1630046593429145983,1630046593,0,30306,1095.0,1169.0,1123.0,0.0,0.0,0.0,0.0
1630046593529319470,1630046593,0,30306,1100.0,1178.0,1125.0,0.0,0.0,0.0,0.0
1630046593628670306,1630046593,0,30306,1104.0,1191.0,1130.0,0.0,0.0,0.0,0.0
1630046593726281858,1630046593,0,30306,1090.0,1157.0,1143.0,0.0,0.0,0.0,0.0
1630046593837349814,1630046593,0,30306,1084.0,1134.0,1150.0,0.0,0.0,0.0,0.0
1630046593929459940,1630046593,0,30306,1073.0,1115.0,1159.0,0.0,0.0,0.0,0.0
1630046594018908514,1630046594,0,30306,1062.0,1101.0,1162.0,0.0,0.0,0.0,0.0
1630046594128922047,1630046594,0,30306,1052.0,1093.0,1169.0,0.0,0.0,0.0,0.0
1630046594228061757,1630046594,0,30306,1043.0,1096.0,1170.0,0.0,0.0,0.0,0.0
1630046594328583054,1630046594,0,30306,1043.0,1097.0,1180.0,0.0,0.0,0.0,0.0
1630046594428588888,1630046594,0,30306,1040.0,1098.0,1197.0,0.0,0.0,0.0,0.0
1630046594539726950,1630046594,0,30306,1038.0,1101.0,1210.0,0.0,0.0,0.0,0.0
1630046594629073354,1630046594,0,30306,1030.0,1105.0,1221.0,0.0,0.0,0.0,0.0
1630046594717361844,1630046594,0,30306,1037.0,1091.0,1219.0,0.0,0.0,0.0,0.0
1630046594829130360,1630046594,0,30306,1048.0,1078.0,1230.0,0.0,0.0,0.0,0.0
1630046594928380914,1630046594,0,30306,1056.0,1077.0,1241.0,0.0,0.0,0.0,0.0
1630046595029639196,1630046595,0,30306,1057.0,1074.0,1254.0,0.0,0.0,0.0,0.0
1630046595129635280,1630046595,0,30306,1053.0,1070.0,1272.0,0.0,0.0,0.0,0.0
1630046595229606765,1630046595,0,30306,1052.0,1073.0,1288.0,0.0,0.0,0.0,0.0
1630046595329147847,1630046595,0,30306,1039.0,1077.0,1306.0,0.0,0.0,0.0,0.0
1630046595439390754,1630046595,0,30306,1028.0,1071.0,1321.0,0.0,0.0,0.0,0.0
1630046595531112313,1630046595,0,30306,1018.0,1074.0,1336.0,0.0,0.0,0.0,0.0
1630046595619910915,1630046595,0,30306,1008.0,1073.0,1361.0,0.0,0.0,0.0,0.0
1630046595728005342,1630046595,0,30306,1002.0,1071.0,1342.0,0.0,0.0,0.0,0.0
1630046595830257415,1630046595,0,30306,999.0,1073.0,1321.0,0.0,0.0,0.0,0.0
1630046595937710257,1630046595,0,30306,995.0,1076.0,1311.0,0.0,0.0,0.0,0.0
1630046596029449307,1630046596,0,30306,987.0,1074.0,1297.0,0.0,0.0,0.0,0.0
1630046596139454281,1630046596,0,30306,975.0,1076.0,1293.0,0.0,0.0,0.0,0.0
1630046596229892539,1630046596,0,30306,952.0,1076.0,1303.0,0.0,0.0,0.0,0.0
1630046596340436178,1630046596,0,30306,933.0,1078.0,1305.0,0.0,0.0,0.0,0.0
1630046596430570211,1630046596,0,30306,910.0,1078.0,1313.0,0.0,0.0,0.0,0.0
1630046596520338470,1630046596,0,30306,903.0,1075.0,1313.0,0.0,0.0,0.0,0.0
1630046596630785680,1630046596,0,30306,882.0,1079.0,1323.0,0.0,0.0,0.0,0.0
1630046596730955860,1630046596,0,30306,908.0,1068.0,1306.0,0.0,0.0,0.0,0.0
1630046596840575790,1630046596,0,30306,933.0,1060.0,1282.0,0.0,0.0,0.0,0.0
1630046596930166045,1630046596,0,30306,953.0,1057.0,1261.0,0.0,0.0,0.0,0.0
1630046597018291499,1630046597,0,30306,964.0,1056.0,1243.0,0.0,0.0,0.0,0.0
1630046597129478866,1630046597,0,30306,964.0,1063.0,1235.0,0.0,0.0,0.0,0.0
1630046597230206895,1630046597,0,30306,962.0,1072.0,1228.0,0.0,0.0,0.0,0.0
1630046597331428974,1630046597,0,30306,955.0,1075.0,1228.0,0.0,0.0,0.0,0.0
1630046597430745334,1630046597,0,30306,950.0,1083.0,1230.0,0.0,0.0,0.0,0.0
1630046597541083565,1630046597,0,30306,939.0,1092.0,1240.0,0.0,0.0,0.0,0.0
1630046597630022231,1630046597,0,30306,926.0,1096.0,1245.0,0.0,0.0,0.0,0.0
1630046597720670787,1630046597,0,30306,958.0,1089.0,1234.0,0.0,0.0,0.0,0.0
1630046597829956603,1630046597,0,30306,985.0,1082.0,1230.0,0.0,0.0,0.0,0.0
1630046597920073115,1630046597,0,30306,998.0,1072.0,1227.0,0.0,0.0,0.0,0.0
1630046598040311560,1630046598,0,30306,1009.0,1064.0,1225.0,0.0,0.0,0.0,0.0
1630046598129577528,1630046598,0,30306,1017.0,1058.0,1228.0,0.0,0.0,0.0,0.0
1630046598218251396,1630046598,0,30306,1023.0,1048.0,1227.0,0.0,0.0,0.0,0.0
1630046598328396298,1630046598,0,30306,1019.0,1039.0,1226.0,0.0,0.0,0.0,0.0
1630046598418245047,1630046598,0,30306,1016.0,1027.0,1231.0,0.0,0.0,0.0,0.0
1630046598529174812,1630046598,0,30306,1016.0,1019.0,1225.0,0.0,0.0,0.0,0.0
1630046598629492285,1630046598,0,30306,1008.0,1014.0,1227.0,0.0,0.0,0.0,0.0
1630046598728026265,1630046598,0,30306,1038.0,1021.0,1201.0,0.0,0.0,0.0,0.0
1630046598828898283,1630046598,0,30306,1062.0,1021.0,1167.0,0.0,0.0,0.0,0.0
1630046598939839816,1630046598,0,30306,1082.0,1024.0,1133.0,0.0,0.0,0.0,0.0
1630046599028491785,1630046599,0,30306,1108.0,1025.0,1102.0,0.0,0.0,0.0,0.0
1630046599138728651,1630046599,0,30306,1126.0,1021.0,1075.0,0.0,0.0,0.0,0.0
1630046599229202060,1630046599,0,30306,1141.0,1009.0,1054.0,0.0,0.0,0.0,0.0
1630046599338472333,1630046599,0,30306,1146.0,996.0,1045.0,0.0,0.0,0.0,0.0
1630046599427668613,1630046599,0,30306,1151.0,990.0,1033.0,0.0,0.0,0.0,0.0
1630046599528235270,1630046599,0,30306,1156.0,976.0,1024.0,0.0,0.0,0.0,0.0
1630046599628820029,1630046599,0,30306,1159.0,969.0,1016.0,0.0,0.0,0.0,0.0
1630046599728299099,1630046599,0,30306,1134.0,995.0,1041.0,0.0,0.0,0.0,0.0
1630046599836712661,1630046599,0,30306,1113.0,1020.0,1048.0,0.0,0.0,0.0,0.0
1630046599928994387,1630046599,0,30306,1104.0,1035.0,1047.0,0.0,0.0,0.0,0.0
1630046600039176185,1630046600,0,30306,1102.0,1048.0,1041.0,0.0,0.0,0.0,0.0
1630046600129183898,1630046600,0,30306,1098.0,1051.0,1025.0,0.0,0.0,0.0,0.0
1630046600217835430,1630046600,0,30306,1097.0,1054.0,1011.0,0.0,0.0,0.0,0.0
1630046600329125158,1630046600,0,30306,1096.0,1053.0,990.0,0.0,0.0,0.0,0.0
1630046600428366900,1630046600,0,30306,1102.0,1045.0,974.0,0.0,0.0,0.0,0.0
1630046600528363428,1630046600,0,30306,1114.0,1030.0,960.0,0.0,0.0,0.0,0.0
1630046600628394533,1630046600,0,30306,1129.0,1011.0,941.0,0.0,0.0,0.0,0.0
1630046600738929929,1630046600,0,30306,1140.0,1023.0,949.0,0.0,0.0,0.0,0.0
1630046600828386087,1630046600,0,30306,1153.0,1025.0,954.0,0.0,0.0,0.0,0.0
1630046600938067851,1630046600,0,30306,1168.0,1032.0,943.0,0.0,0.0,0.0,0.0
1630046601026812411,1630046601,0,30306,1175.0,1033.0,919.0,0.0,0.0,0.0,0.0
1630046601118246153,1630046601,0,30306,1194.0,1033.0,889.0,0.0,0.0,0.0,0.0
1630046601229347227,1630046601,0,30306,1206.0,1036.0,846.0,0.0,0.0,0.0,0.0
1630046601329239281,1630046601,0,30306,1216.0,1036.0,802.0,0.0,0.0,0.0,0.0
1630046601429189945,1630046601,0,30306,1231.0,1037.0,759.0,0.0,0.0,0.0,0.0
1630046601527407180,1630046601,0,30306,1236.0,1032.0,721.0,0.0,0.0,0.0,0.0
1630046601628876187,1630046601,0,30306,1241.0,1029.0,690.0,0.0,0.0,0.0,0.0
1630046601727468390,1630046601,0,30306,1209.0,1046.0,769.0,0.0,0.0,0.0,0.0
1630046601837016887,1630046601,0,30306,1185.0,1058.0,833.0,0.0,0.0,0.0,0.0
1630046601928273766,1630046601,0,30306,1164.0,1073.0,887.0,0.0,0.0,0.0,0.0
1630046602038935594,1630046602,0,30306,1142.0,1079.0,947.0,0.0,0.0,0.0,0.0
1630046602128520684,1630046602,0,30306,1123.0,1087.0,985.0,0.0,0.0,0.0,0.0
1630046602217863109,1630046602,0,30306,1100.0,1095.0,1020.0,0.0,0.0,0.0,0.0
1630046602327929987,1630046602,0,30306,1085.0,1102.0,1040.0,0.0,0.0,0.0,0.0
1630046602417951939,1630046602,0,30306,1066.0,1115.0,1058.0,0.0,0.0,0.0,0.0
1630046602527538540,1630046602,0,30306,1048.0,1126.0,1081.0,0.0,0.0,0.0,0.0
1630046602617729235,1630046602,0,30306,1032.0,1135.0,1104.0,0.0,0.0,0.0,0.0
1630046602727626707,1630046602,0,30306,1036.0,1119.0,1140.0,0.0,0.0,0.0,0.0
1630046602827091482,1630046602,0,30306,1030.0,1110.0,1174.0,0.0,0.0,0.0,0.0
1630046602938231898,1630046602,0,30306,1024.0,1106.0,1202.0,0.0,0.0,0.0,0.0
1630046603027728926,1630046603,0,30306,1017.0,1107.0,1225.0,0.0,0.0,0.0,0.0
1630046603138228607,1630046603,0,30306,1015.0,1111.0,1243.0,0.0,0.0,0.0,0.0
1630046603225711636,1630046603,0,30306,1012.0,1116.0,1259.0,0.0,0.0,0.0,0.0
1630046603335018196,1630046603,0,30306,1010.0,1118.0,1278.0,0.0,0.0,0.0,0.0
1630046603422710834,1630046603,0,30306,1005.0,1122.0,1280.0,0.0,0.0,0.0,0.0
1630046603536155737,1630046603,0,30306,997.0,1128.0,1286.0,0.0,0.0,0.0,0.0
1630046603626299344,1630046603,0,30306,994.0,1132.0,1271.0,0.0,0.0,0.0,0.0
1630046603737177716,1630046603,0,30306,1013.0,1113.0,1253.0,0.0,0.0,0.0,0.0
1630046603826384903,1630046603,0,30306,1026.0,1096.0,1236.0,0.0,0.0,0.0,0.0
1630046603926672652,1630046603,0,30306,1039.0,1081.0,1227.0,0.0,0.0,0.0,0.0
1630046604036828236,1630046604,0,30306,1052.0,1073.0,1222.0,0.0,0.0,0.0,0.0
1630046604126347052,1630046604,0,30306,1059.0,1066.0,1212.0,0.0,0.0,0.0,0.0
1630046604237057908,1630046604,0,30306,1070.0,1063.0,1210.0,0.0,0.0,0.0,0.0
1630046604324990147,1630046604,0,30306,1078.0,1059.0,1204.0,0.0,0.0,0.0,0.0
1630046604436060502,1630046604,0,30306,1088.0,1057.0,1200.0,0.0,0.0,0.0,0.0
1630046604526420566,1630046604,0,30306,1089.0,1051.0,1210.0,0.0,0.0,0.0,0.0
1630046604642107520,1630046604,0,30306,1094.0,1056.0,1220.0,0.0,0.0,0.0,0.0
1630046604727831523,1630046604,0,30306,1095.0,1058.0,1205.0,0.0,0.0,0.0,0.0
1630046604830856523,1630046604,0,30306,1086.0,1060.0,1195.0,0.0,0.0,0.0,0.0
1630046604930893332,1630046604,0,30306,1077.0,1060.0,1187.0,0.0,0.0,0.0,0.0
1630046605031179825,1630046605,0,30306,1067.0,1056.0,1194.0,0.0,0.0,0.0,0.0
1630046605131460069,1630046605,0,30306,1063.0,1053.0,1204.0,0.0,0.0,0.0,0.0
1630046605231415796,1630046605,0,30306,1051.0,1047.0,1220.0,0.0,0.0,0.0,0.0
1630046605331275063,1630046605,0,30306,1037.0,1042.0,1226.0,0.0,0.0,0.0,0.0
1630046605431274385,1630046605,0,30306,1024.0,1038.0,1240.0,0.0,0.0,0.0,0.0
1630046605540512861,1630046605,0,30306,1013.0,1036.0,1251.0,0.0,0.0,0.0,0.0
1630046605630332774,1630046605,0,30306,1001.0,1035.0,1271.0,0.0,0.0,0.0,0.0
1630046605721107848,1630046605,0,30306,997.0,1039.0,1262.0,0.0,0.0,0.0,0.0
1630046605830527804,1630046605,0,30306,995.0,1044.0,1253.0,0.0,0.0,0.0,0.0
1630046605931137983,1630046605,0,30306,992.0,1050.0,1243.0,0.0,0.0,0.0,0.0
1630046606028962067,1630046606,0,30306,996.0,1058.0,1237.0,0.0,0.0,0.0,0.0
1630046606130091998,1630046606,0,30306,994.0,1060.0,1237.0,0.0,0.0,0.0,0.0
1630046606219330682,1630046606,0,30306,996.0,1064.0,1230.0,0.0,0.0,0.0,0.0
1630046606328287578,1630046606,0,30306,995.0,1067.0,1228.0,0.0,0.0,0.0,0.0
1630046606429470447,1630046606,0,30306,993.0,1073.0,1224.0,0.0,0.0,0.0,0.0
1630046606540114478,1630046606,0,30306,997.0,1080.0,1217.0,0.0,0.0,0.0,0.0
1630046606628817406,1630046606,0,30306,1001.0,1082.0,1215.0,0.0,0.0,0.0,0.0
1630046606737681969,1630046606,0,30306,1034.0,1084.0,1202.0,0.0,0.0,0.0,0.0
1630046606829278950,1630046606,0,30306,1063.0,1083.0,1184.0,0.0,0.0,0.0,0.0
1630046606918057631,1630046606,0,30306,1092.0,1083.0,1165.0,0.0,0.0,0.0,0.0
1630046607028241878,1630046607,0,30306,1108.0,1083.0,1148.0,0.0,0.0,0.0,0.0
1630046607128455083,1630046607,0,30306,1128.0,1085.0,1124.0,0.0,0.0,0.0,0.0
1630046607229529417,1630046607,0,30306,1145.0,1085.0,1108.0,0.0,0.0,0.0,0.0
1630046607328021107,1630046607,0,30306,1155.0,1086.0,1083.0,0.0,0.0,0.0,0.0
1630046607439700810,1630046607,0,30306,1173.0,1085.0,1061.0,0.0,0.0,0.0,0.0
1630046607528962375,1630046607,0,30306,1185.0,1082.0,1047.0,0.0,0.0,0.0,0.0
1630046607638131859,1630046607,0,30306,1197.0,1085.0,1034.0,0.0,0.0,0.0,0.0
1630046607729607494,1630046607,0,30306,1182.0,1087.0,1031.0,0.0,0.0,0.0,0.0
1630046607819714764,1630046607,0,30306,1177.0,1091.0,1018.0,0.0,0.0,0.0,0.0
1630046607930279578,1630046607,0,30306,1179.0,1094.0,1010.0,0.0,0.0,0.0,0.0
1630046608028635264,1630046608,0,30306,1183.0,1093.0,1002.0,0.0,0.0,0.0,0.0
1630046608139304135,1630046608,0,30306,1191.0,1095.0,998.0,0.0,0.0,0.0,0.0
1630046608229525509,1630046608,0,30306,1196.0,1094.0,999.0,0.0,0.0,0.0,0.0
1630046608326313519,1630046608,0,30306,1204.0,1090.0,1008.0,0.0,0.0,0.0,0.0
1630046608435786367,1630046608,0,30306,1212.0,1093.0,993.0,0.0,0.0,0.0,0.0
1630046608526461067,1630046608,0,30306,1222.0,1089.0,987.0,0.0,0.0,0.0,0.0
1630046608636370165,1630046608,0,30306,1228.0,1095.0,974.0,0.0,0.0,0.0,0.0
1630046608725374773,1630046608,0,30306,1191.0,1090.0,1004.0,0.0,0.0,0.0,0.0
1630046608837852002,1630046608,0,30306,1167.0,1093.0,1024.0,0.0,0.0,0.0,0.0
1630046608926548657,1630046608,0,30306,1154.0,1096.0,1028.0,0.0,0.0,0.0,0.0
1630046609036027656,1630046609,0,30306,1140.0,1090.0,1042.0,0.0,0.0,0.0,0.0
1630046609126627050,1630046609,0,30306,1135.0,1092.0,1050.0,0.0,0.0,0.0,0.0
1630046609226330839,1630046609,0,30306,1135.0,1091.0,1054.0,0.0,0.0,0.0,0.0
1630046609336330889,1630046609,0,30306,1138.0,1086.0,1053.0,0.0,0.0,0.0,0.0
1630046609425584808,1630046609,0,30306,1137.0,1087.0,1051.0,0.0,0.0,0.0,0.0
1630046609535818514,1630046609,0,30306,1141.0,1088.0,1039.0,0.0,0.0,0.0,0.0
1630046609626152923,1630046609,0,30306,1147.0,1087.0,1031.0,0.0,0.0,0.0,0.0
1630046609736636397,1630046609,0,30306,1125.0,1084.0,1066.0,0.0,0.0,0.0,0.0
1630046609825380985,1630046609,0,30306,1106.0,1078.0,1085.0,0.0,0.0,0.0,0.0
1630046609937046126,1630046609,0,30306,1100.0,1068.0,1095.0,0.0,0.0,0.0,0.0
1630046610025885189,1630046610,0,30306,1095.0,1066.0,1088.0,0.0,0.0,0.0,0.0
1630046610136044521,1630046610,0,30306,1094.0,1060.0,1083.0,0.0,0.0,0.0,0.0
1630046610226010403,1630046610,0,30306,1095.0,1056.0,1073.0,0.0,0.0,0.0,0.0
1630046610326760249,1630046610,0,30306,1101.0,1053.0,1049.0,0.0,0.0,0.0,0.0
1630046610437122050,1630046610,0,30306,1104.0,1047.0,1024.0,0.0,0.0,0.0,0.0
1630046610525163339,1630046610,0,30306,1115.0,1042.0,996.0,0.0,0.0,0.0,0.0
1630046610636223939,1630046610,0,30306,1123.0,1035.0,955.0,0.0,0.0,0.0,0.0
1630046610724056458,1630046610,0,30306,1124.0,1037.0,969.0,0.0,0.0,0.0,0.0
1630046610835472796,1630046610,0,30306,1122.0,1035.0,967.0,0.0,0.0,0.0,0.0
1630046610925336762,1630046610,0,30306,1123.0,1031.0,960.0,0.0,0.0,0.0,0.0
1630046611035437209,1630046611,0,30306,1129.0,1031.0,944.0,0.0,0.0,0.0,0.0
1630046611125129681,1630046611,0,30306,1136.0,1030.0,911.0,0.0,0.0,0.0,0.0
1630046611233922832,1630046611,0,30306,1147.0,1030.0,870.0,0.0,0.0,0.0,0.0
1630046611322970608,1630046611,0,30306,1155.0,1033.0,829.0,0.0,0.0,0.0,0.0
1630046611435643248,1630046611,0,30306,1164.0,1036.0,785.0,0.0,0.0,0.0,0.0
1630046611524977100,1630046611,0,30306,1173.0,1037.0,741.0,0.0,0.0,0.0,0.0
1630046611624344286,1630046611,0,30306,1184.0,1042.0,702.0,0.0,0.0,0.0,0.0
1630046611732678447,1630046611,0,30306,1175.0,1057.0,771.0,0.0,0.0,0.0,0.0
1630046611823604856,1630046611,0,30306,1168.0,1067.0,837.0,0.0,0.0,0.0,0.0
1630046611934870684,1630046611,0,30306,1157.0,1073.0,885.0,0.0,0.0,0.0,0.0
1630046612025534330,1630046612,0,30306,1157.0,1075.0,919.0,0.0,0.0,0.0,0.0
1630046612136457470,1630046612,0,30306,1153.0,1076.0,935.0,0.0,0.0,0.0,0.0
1630046612225517822,1630046612,0,30306,1149.0,1082.0,951.0,0.0,0.0,0.0,0.0
1630046612334201591,1630046612,0,30306,1135.0,1086.0,968.0,0.0,0.0,0.0,0.0
1630046612425736403,1630046612,0,30306,1136.0,1092.0,971.0,0.0,0.0,0.0,0.0
1630046612534792374,1630046612,0,30306,1129.0,1098.0,964.0,0.0,0.0,0.0,0.0
1630046612634940493,1630046612,0,30306,1127.0,1104.0,961.0,0.0,0.0,0.0,0.0
1630046612723387666,1630046612,0,30306,1122.0,1106.0,1001.0,0.0,0.0,0.0,0.0
1630046612834913627,1630046612,0,30306,1120.0,1110.0,1038.0,0.0,0.0,0.0,0.0
1630046612923786452,1630046612,0,30306,1121.0,1107.0,1071.0,0.0,0.0,0.0,0.0
1630046613035221460,1630046613,0,30306,1115.0,1104.0,1095.0,0.0,0.0,0.0,0.0
1630046613124276760,1630046613,0,30306,1117.0,1093.0,1123.0,0.0,0.0,0.0,0.0
1630046613234692073,1630046613,0,30306,1117.0,1086.0,1135.0,0.0,0.0,0.0,0.0
1630046613323825679,1630046613,0,30306,1115.0,1078.0,1173.0,0.0,0.0,0.0,0.0
1630046613434411861,1630046613,0,30306,1110.0,1069.0,1201.0,0.0,0.0,0.0,0.0
1630046613533046607,1630046613,0,30306,1106.0,1062.0,1228.0,0.0,0.0,0.0,0.0
1630046613624247162,1630046613,0,30306,1112.0,1056.0,1241.0,0.0,0.0,0.0,0.0
1630046613734115500,1630046613,0,30306,1095.0,1047.0,1251.0,0.0,0.0,0.0,0.0
1630046613824101050,1630046613,0,30306,1076.0,1039.0,1265.0,0.0,0.0,0.0,0.0
1630046613935956817,1630046613,0,30306,1065.0,1025.0,1279.0,0.0,0.0,0.0,0.0
1630046614025163501,1630046614,0,30306,1059.0,1016.0,1287.0,0.0,0.0,0.0,0.0
1630046614135029450,1630046614,0,30306,1060.0,1009.0,1294.0,0.0,0.0,0.0,0.0
1630046614225375842,1630046614,0,30306,1056.0,1001.0,1302.0,0.0,0.0,0.0,0.0
1630046614336095353,1630046614,0,30306,1052.0,988.0,1320.0,0.0,0.0,0.0,0.0
1630046614424872576,1630046614,0,30306,1043.0,983.0,1341.0,0.0,0.0,0.0,0.0
1630046614535398393,1630046614,0,30306,1035.0,979.0,1352.0,0.0,0.0,0.0,0.0
1630046614624577766,1630046614,0,30306,1025.0,981.0,1372.0,0.0,0.0,0.0,0.0
1630046614725298046,1630046614,0,30306,1025.0,1006.0,1339.0,0.0,0.0,0.0,0.0
1630046614835521533,1630046614,0,30306,1023.0,1023.0,1321.0,0.0,0.0,0.0,0.0
1630046614925216846,1630046614,0,30306,1023.0,1039.0,1301.0,0.0,0.0,0.0,0.0
1630046615035416249,1630046615,0,30306,1018.0,1052.0,1283.0,0.0,0.0,0.0,0.0
1630046615124707684,1630046615,0,30306,1016.0,1058.0,1279.0,0.0,0.0,0.0,0.0
1630046615234346259,1630046615,0,30306,1012.0,1069.0,1280.0,0.0,0.0,0.0,0.0
1630046615323632543,1630046615,0,30306,1012.0,1070.0,1290.0,0.0,0.0,0.0,0.0
1630046615422763168,1630046615,0,30306,1006.0,1074.0,1302.0,0.0,0.0,0.0,0.0
1630046615534364481,1630046615,0,30306,999.0,1075.0,1315.0,0.0,0.0,0.0,0.0
1630046615625814687,1630046615,0,30306,993.0,1077.0,1337.0,0.0,0.0,0.0,0.0
1630046615740879738,1630046615,0,30306,1005.0,1077.0,1318.0,0.0,0.0,0.0,0.0
1630046615823736067,1630046615,0,30306,1016.0,1075.0,1300.0,0.0,0.0,0.0,0.0
1630046615934220763,1630046615,0,30306,1020.0,1074.0,1300.0,0.0,0.0,0.0,0.0
1630046616034888307,1630046616,0,30306,1012.0,1074.0,1293.0,0.0,0.0,0.0,0.0
1630046616125663633,1630046616,0,30306,999.0,1077.0,1295.0,0.0,0.0,0.0,0.0
1630046616235511112,1630046616,0,30306,989.0,1079.0,1298.0,0.0,0.0,0.0,0.0
1630046616322023796,1630046616,0,30306,986.0,1079.0,1308.0,0.0,0.0,0.0,0.0
1630046616435773464,1630046616,0,30306,979.0,1080.0,1306.0,0.0,0.0,0.0,0.0
1630046616523057649,1630046616,0,30306,970.0,1084.0,1325.0,0.0,0.0,0.0,0.0
1630046616634033548,1630046616,0,30306,961.0,1087.0,1334.0,0.0,0.0,0.0,0.0
1630046616722407644,1630046616,0,30306,979.0,1090.0,1304.0,0.0,0.0,0.0,0.0
1630046616834560671,1630046616,0,30306,990.0,1089.0,1281.0,0.0,0.0,0.0,0.0
1630046616934342390,1630046616,0,30306,996.0,1092.0,1260.0,0.0,0.0,0.0,0.0
1630046617046079578,1630046617,0,30306,998.0,1087.0,1256.0,0.0,0.0,0.0,0.0
1630046617134949104,1630046617,0,30306,1008.0,1087.0,1250.0,0.0,0.0,0.0,0.0
1630046617223361262,1630046617,0,30306,1016.0,1097.0,1235.0,0.0,0.0,0.0,0.0
1630046617335294043,1630046617,0,30306,1020.0,1106.0,1227.0,0.0,0.0,0.0,0.0
1630046617424614878,1630046617,0,30306,1026.0,1113.0,1215.0,0.0,0.0,0.0,0.0
1630046617535419073,1630046617,0,30306,1034.0,1122.0,1204.0,0.0,0.0,0.0,0.0
1630046617623991403,1630046617,0,30306,1040.0,1122.0,1203.0,0.0,0.0,0.0,0.0
1630046617735013944,1630046617,0,30306,1058.0,1112.0,1178.0,0.0,0.0,0.0,0.0
1630046617833979406,1630046617,0,30306,1075.0,1095.0,1165.0,0.0,0.0,0.0,0.0
1630046617923082272,1630046617,0,30306,1090.0,1085.0,1151.0,0.0,0.0,0.0,0.0
1630046618033331340,1630046618,0,30306,1103.0,1074.0,1134.0,0.0,0.0,0.0,0.0
1630046618123440262,1630046618,0,30306,1114.0,1063.0,1125.0,0.0,0.0,0.0,0.0
1630046618233026804,1630046618,0,30306,1122.0,1057.0,1106.0,0.0,0.0,0.0,0.0
1630046618323371773,1630046618,0,30306,1124.0,1044.0,1102.0,0.0,0.0,0.0,0.0
1630046618434088638,1630046618,0,30306,1122.0,1037.0,1102.0,0.0,0.0,0.0,0.0
1630046618524115078,1630046618,0,30306,1121.0,1032.0,1100.0,0.0,0.0,0.0,0.0
1630046618634432018,1630046618,0,30306,1116.0,1029.0,1095.0,0.0,0.0,0.0,0.0
1630046618733953431,1630046618,0,30306,1107.0,1029.0,1100.0,0.0,0.0,0.0,0.0
1630046618822049831,1630046618,0,30306,1105.0,1028.0,1106.0,0.0,0.0,0.0,0.0
1630046618933318630,1630046618,0,30306,1105.0,1026.0,1101.0,0.0,0.0,0.0,0.0
1630046619020179244,1630046619,0,30306,1109.0,1022.0,1090.0,0.0,0.0,0.0,0.0
1630046619132725804,1630046619,0,30306,1121.0,1021.0,1082.0,0.0,0.0,0.0,0.0
1630046619222532262,1630046619,0,30306,1137.0,1019.0,1074.0,0.0,0.0,0.0,0.0
1630046619332584125,1630046619,0,30306,1154.0,1018.0,1049.0,0.0,0.0,0.0,0.0
1630046619419880977,1630046619,0,30306,1168.0,1014.0,1034.0,0.0,0.0,0.0,0.0
1630046619531415880,1630046619,0,30306,1185.0,1013.0,1015.0,0.0,0.0,0.0,0.0
1630046619621308083,1630046619,0,30306,1196.0,1013.0,998.0,0.0,0.0,0.0,0.0
1630046619730044832,1630046619,0,30306,1188.0,1040.0,991.0,0.0,0.0,0.0,0.0
1630046619821650955,1630046619,0,30306,1186.0,1055.0,970.0,0.0,0.0,0.0,0.0
1630046619932785381,1630046619,0,30306,1184.0,1068.0,957.0,0.0,0.0,0.0,0.0
1630046620031564875,1630046620,0,30306,1183.0,1074.0,947.0,0.0,0.0,0.0,0.0
1630046620131734066,1630046620,0,30306,1182.0,1078.0,937.0,0.0,0.0,0.0,0.0
1630046620232019659,1630046620,0,30306,1188.0,1083.0,929.0,0.0,0.0,0.0,0.0
1630046620329002571,1630046620,0,30306,1191.0,1084.0,912.0,0.0,0.0,0.0,0.0
1630046620430664320,1630046620,0,30306,1190.0,1086.0,901.0,0.0,0.0,0.0,0.0
1630046620530172759,1630046620,0,30306,1190.0,1095.0,885.0,0.0,0.0,0.0,0.0
1630046620629989339,1630046620,0,30306,1191.0,1099.0,872.0,0.0,0.0,0.0,0.0
1630046620738805387,1630046620,0,30306,1160.0,1098.0,910.0,0.0,0.0,0.0,0.0
1630046620828241098,1630046620,0,30306,1134.0,1096.0,941.0,0.0,0.0,0.0,0.0
1630046620939121364,1630046620,0,30306,1110.0,1089.0,972.0,0.0,0.0,0.0,0.0
1630046621028244281,1630046621,0,30306,1089.0,1083.0,1005.0,0.0,0.0,0.0,0.0
1630046621138611779,1630046621,0,30306,1069.0,1083.0,1020.0,0.0,0.0,0.0,0.0
1630046621225384679,1630046621,0,30306,1049.0,1078.0,1029.0,0.0,0.0,0.0,0.0
1630046621337481885,1630046621,0,30306,1036.0,1071.0,1033.0,0.0,0.0,0.0,0.0
1630046621426769078,1630046621,0,30306,1025.0,1069.0,1032.0,0.0,0.0,0.0,0.0
1630046621537905424,1630046621,0,30306,1016.0,1060.0,1039.0,0.0,0.0,0.0,0.0
1630046621625549065,1630046621,0,30306,1002.0,1058.0,1048.0,0.0,0.0,0.0,0.0
1630046621736978592,1630046621,0,30306,1000.0,1053.0,1082.0,0.0,0.0,0.0,0.0
1630046621825481304,1630046621,0,30306,1002.0,1048.0,1099.0,0.0,0.0,0.0,0.0
1630046621936895533,1630046621,0,30306,996.0,1037.0,1110.0,0.0,0.0,0.0,0.0
1630046622035638942,1630046622,0,30306,990.0,1032.0,1118.0,0.0,0.0,0.0,0.0
1630046622125777363,1630046622,0,30306,981.0,1036.0,1123.0,0.0,0.0,0.0,0.0
1630046622236052297,1630046622,0,30306,979.0,1038.0,1117.0,0.0,0.0,0.0,0.0
1630046622324497549,1630046622,0,30306,971.0,1032.0,1121.0,0.0,0.0,0.0,0.0
1630046622435255705,1630046622,0,30306,966.0,1033.0,1118.0,0.0,0.0,0.0,0.0
1630046622524817699,1630046622,0,30306,959.0,1029.0,1118.0,0.0,0.0,0.0,0.0
1630046622635929208,1630046622,0,30306,950.0,1027.0,1117.0,0.0,0.0,0.0,0.0
1630046622723513919,1630046622,0,30306,981.0,1036.0,1124.0,0.0,0.0,0.0,0.0
1630046622834941571,1630046622,0,30306,1007.0,1046.0,1137.0,0.0,0.0,0.0,0.0
1630046622923779836,1630046622,0,30306,1028.0,1055.0,1146.0,0.0,0.0,0.0,0.0
1630046623034975916,1630046623,0,30306,1042.0,1058.0,1143.0,0.0,0.0,0.0,0.0
1630046623124079193,1630046623,0,30306,1049.0,1058.0,1135.0,0.0,0.0,0.0,0.0
1630046623224627726,1630046623,0,30306,1052.0,1056.0,1132.0,0.0,0.0,0.0,0.0
1630046623335619828,1630046623,0,30306,1057.0,1055.0,1123.0,0.0,0.0,0.0,0.0
1630046623442551817,1630046623,0,30306,1054.0,1048.0,1121.0,0.0,0.0,0.0,0.0
1630046623532356028,1630046623,0,30306,1059.0,1042.0,1115.0,0.0,0.0,0.0,0.0
1630046623622305020,1630046623,0,30306,1056.0,1040.0,1110.0,0.0,0.0,0.0,0.0
1630046623731805899,1630046623,0,30306,1073.0,1056.0,1109.0,0.0,0.0,0.0,0.0
1630046623831968012,1630046623,0,30306,1083.0,1070.0,1105.0,0.0,0.0,0.0,0.0
1630046623934464362,1630046623,0,30306,1096.0,1083.0,1109.0,0.0,0.0,0.0,0.0
1630046624033225419,1630046624,0,30306,1103.0,1094.0,1123.0,0.0,0.0,0.0,0.0
1630046624121750604,1630046624,0,30306,1110.0,1100.0,1129.0,0.0,0.0,0.0,0.0
1630046624232278711,1630046624,0,30306,1117.0,1109.0,1131.0,0.0,0.0,0.0,0.0
1630046624322905935,1630046624,0,30306,1116.0,1121.0,1137.0,0.0,0.0,0.0,0.0
1630046624433232550,1630046624,0,30306,1120.0,1129.0,1148.0,0.0,0.0,0.0,0.0
1630046624534641422,1630046624,0,30306,1124.0,1144.0,1147.0,0.0,0.0,0.0,0.0
1630046624622824342,1630046624,0,30306,1133.0,1153.0,1155.0,0.0,0.0,0.0,0.0
1630046624734278060,1630046624,0,30306,1119.0,1133.0,1162.0,0.0,0.0,0.0,0.0
1630046624825678304,1630046624,0,30306,1106.0,1117.0,1170.0,0.0,0.0,0.0,0.0
1630046624934759547,1630046624,0,30306,1097.0,1106.0,1169.0,0.0,0.0,0.0,0.0
1630046625024782594,1630046625,0,30306,1085.0,1093.0,1172.0,0.0,0.0,0.0,0.0
1630046625125274296,1630046625,0,30306,1076.0,1084.0,1190.0,0.0,0.0,0.0,0.0
1630046625235019878,1630046625,0,30306,1082.0,1079.0,1214.0,0.0,0.0,0.0,0.0
1630046625325966874,1630046625,0,30306,1082.0,1069.0,1245.0,0.0,0.0,0.0,0.0
1630046625435151892,1630046625,0,30306,1076.0,1067.0,1274.0,0.0,0.0,0.0,0.0
1630046625525398204,1630046625,0,30306,1065.0,1069.0,1298.0,0.0,0.0,0.0,0.0
1630046625636112000,1630046625,0,30306,1058.0,1064.0,1326.0,0.0,0.0,0.0,0.0
1630046625725081220,1630046625,0,30306,1049.0,1058.0,1312.0,0.0,0.0,0.0,0.0
1630046625837304063,1630046625,0,30306,1042.0,1050.0,1305.0,0.0,0.0,0.0,0.0
1630046625925888076,1630046625,0,30306,1038.0,1042.0,1303.0,0.0,0.0,0.0,0.0
1630046626037146628,1630046626,0,30306,1029.0,1029.0,1309.0,0.0,0.0,0.0,0.0
