%time,field.data0.header.seq,field.data0.header.stamp,field.data0.header.frame_id,field.data0.pose.position.x,field.data0.pose.position.y,field.data0.pose.position.z,field.data0.pose.orientation.x,field.data0.pose.orientation.y,field.data0.pose.orientation.z,field.data0.pose.orientation.w
1630051791130269916,1630051791,0,30306,308.0,623.0,514.0,0.0,0.0,0.0,0.0
1630051791220146494,1630051791,0,30306,320.0,622.0,500.0,0.0,0.0,0.0,0.0
1630051791329852903,1630051791,0,30306,321.0,622.0,501.0,0.0,0.0,0.0,0.0
1630051791419739666,1630051791,0,30306,321.0,625.0,489.0,0.0,0.0,0.0,0.0
1630051791528151798,1630051791,0,30306,324.0,629.0,479.0,0.0,0.0,0.0,0.0
1630051791617594349,1630051791,0,30306,326.0,634.0,476.0,0.0,0.0,0.0,0.0
1630051791728202001,1630051791,0,30306,329.0,642.0,470.0,0.0,0.0,0.0,0.0
1630051791827919395,1630051791,0,30306,325.0,627.0,471.0,0.0,0.0,0.0,0.0
1630051791917928512,1630051791,0,30306,330.0,617.0,471.0,0.0,0.0,0.0,0.0
1630051792028465153,1630051791,0,30306,333.0,607.0,471.0,0.0,0.0,0.0,0.0
1630051792118362829,1630051792,0,30306,330.0,607.0,480.0,0.0,0.0,0.0,0.0
1630051792227878756,1630051792,0,30306,324.0,608.0,500.0,0.0,0.0,0.0,0.0
1630051792317460804,1630051792,0,30306,308.0,602.0,526.0,0.0,0.0,0.0,0.0
1630051792426460795,1630051792,0,30306,303.0,595.0,543.0,0.0,0.0,0.0,0.0
1630051792515938834,1630051792,0,30306,281.0,596.0,575.0,0.0,0.0,0.0,0.0
1630051792627129503,1630051792,0,30306,256.0,602.0,605.0,0.0,0.0,0.0,0.0
1630051792714812346,1630051792,0,30306,238.0,602.0,622.0,0.0,0.0,0.0,0.0
1630051792826227226,1630051792,0,30306,231.0,599.0,623.0,0.0,0.0,0.0,0.0
1630051792926208050,1630051792,0,30306,221.0,597.0,643.0,0.0,0.0,0.0,0.0
1630051793015517048,1630051792,0,30306,201.0,596.0,669.0,0.0,0.0,0.0,0.0
1630051793126045387,1630051793,0,30306,190.0,587.0,690.0,0.0,0.0,0.0,0.0
1630051793216325195,1630051793,0,30306,181.0,575.0,708.0,0.0,0.0,0.0,0.0
1630051793326213983,1630051793,0,30306,169.0,568.0,733.0,0.0,0.0,0.0,0.0
1630051793416138819,1630051793,0,30306,159.0,564.0,753.0,0.0,0.0,0.0,0.0
1630051793526586717,1630051793,0,30306,138.0,555.0,779.0,0.0,0.0,0.0,0.0
1630051793615740153,1630051793,0,30306,121.0,546.0,799.0,0.0,0.0,0.0,0.0
1630051793725413502,1630051793,0,30306,106.0,540.0,835.0,0.0,0.0,0.0,0.0
1630051793824812306,1630051793,0,30306,121.0,563.0,820.0,0.0,0.0,0.0,0.0
1630051793915312486,1630051793,0,30306,128.0,583.0,814.0,0.0,0.0,0.0,0.0
1630051794024609887,1630051793,0,30306,137.0,592.0,809.0,0.0,0.0,0.0,0.0
1630051794113337485,1630051794,0,30306,152.0,599.0,787.0,0.0,0.0,0.0,0.0
1630051794224496745,1630051794,0,30306,154.0,601.0,781.0,0.0,0.0,0.0,0.0
1630051794323633267,1630051794,0,30306,140.0,596.0,780.0,0.0,0.0,0.0,0.0
1630051794414306232,1630051794,0,30306,133.0,590.0,777.0,0.0,0.0,0.0,0.0
1630051794524035871,1630051794,0,30306,139.0,583.0,773.0,0.0,0.0,0.0,0.0
1630051794613013062,1630051794,0,30306,141.0,570.0,771.0,0.0,0.0,0.0,0.0
1630051794723243788,1630051794,0,30306,148.0,552.0,770.0,0.0,0.0,0.0,0.0
1630051794821756021,1630051794,0,30306,191.0,562.0,709.0,0.0,0.0,0.0,0.0
1630051794944739751,1630051794,0,30306,225.0,569.0,659.0,0.0,0.0,0.0,0.0
1630051795022371259,1630051794,0,30306,253.0,569.0,611.0,0.0,0.0,0.0,0.0
1630051795111420928,1630051795,0,30306,269.0,564.0,569.0,0.0,0.0,0.0,0.0
1630051795220664909,1630051795,0,30306,282.0,561.0,533.0,0.0,0.0,0.0,0.0
1630051795310514612,1630051795,0,30306,291.0,550.0,506.0,0.0,0.0,0.0,0.0
1630051795421000976,1630051795,0,30306,297.0,542.0,500.0,0.0,0.0,0.0,0.0
1630051795520351121,1630051795,0,30306,320.0,528.0,482.0,0.0,0.0,0.0,0.0
1630051795631080924,1630051795,0,30306,334.0,510.0,473.0,0.0,0.0,0.0,0.0
1630051795721982179,1630051795,0,30306,357.0,508.0,473.0,0.0,0.0,0.0,0.0
1630051795831652586,1630051795,0,30306,413.0,551.0,446.0,0.0,0.0,0.0,0.0
1630051795921362744,1630051795,0,30306,451.0,580.0,413.0,0.0,0.0,0.0,0.0
1630051796010289404,1630051795,0,30306,478.0,591.0,382.0,0.0,0.0,0.0,0.0
1630051796121394288,1630051796,0,30306,493.0,595.0,349.0,0.0,0.0,0.0,0.0
1630051796210131478,1630051796,0,30306,501.0,603.0,335.0,0.0,0.0,0.0,0.0
1630051796320128610,1630051796,0,30306,507.0,605.0,315.0,0.0,0.0,0.0,0.0
1630051796420672420,1630051796,0,30306,507.0,610.0,292.0,0.0,0.0,0.0,0.0
1630051796531433917,1630051796,0,30306,499.0,613.0,262.0,0.0,0.0,0.0,0.0
1630051796620021612,1630051796,0,30306,493.0,601.0,234.0,0.0,0.0,0.0,0.0
1630051796709620698,1630051796,0,30306,490.0,602.0,205.0,0.0,0.0,0.0,0.0
1630051796982438239,1630051796,0,30306,480.0,596.0,243.0,0.0,0.0,0.0,0.0
1630051796983938390,1630051796,0,30306,476.0,586.0,271.0,0.0,0.0,0.0,0.0
1630051797018437044,1630051796,0,30306,462.0,581.0,290.0,0.0,0.0,0.0,0.0
1630051797185963859,1630051797,0,30306,454.0,584.0,292.0,0.0,0.0,0.0,0.0
1630051797229026599,1630051797,0,30306,456.0,581.0,285.0,0.0,0.0,0.0,0.0
1630051797319472550,1630051797,0,30306,459.0,583.0,283.0,0.0,0.0,0.0,0.0
1630051797408182299,1630051797,0,30306,455.0,583.0,269.0,0.0,0.0,0.0,0.0
1630051797519315721,1630051797,0,30306,456.0,587.0,247.0,0.0,0.0,0.0,0.0
1630051797609273914,1630051797,0,30306,451.0,592.0,230.0,0.0,0.0,0.0,0.0
1630051797718876588,1630051797,0,30306,448.0,599.0,219.0,0.0,0.0,0.0,0.0
1630051797807850757,1630051797,0,30306,439.0,596.0,292.0,0.0,0.0,0.0,0.0
1630051797918360338,1630051797,0,30306,432.0,597.0,334.0,0.0,0.0,0.0,0.0
1630051798016855569,1630051797,0,30306,423.0,608.0,380.0,0.0,0.0,0.0,0.0
1630051798126404036,1630051798,0,30306,414.0,623.0,435.0,0.0,0.0,0.0,0.0
1630051798216922709,1630051798,0,30306,397.0,644.0,481.0,0.0,0.0,0.0,0.0
1630051798327078617,1630051798,0,30306,375.0,662.0,518.0,0.0,0.0,0.0,0.0
1630051798417066529,1630051798,0,30306,346.0,677.0,542.0,0.0,0.0,0.0,0.0
1630051798526818891,1630051798,0,30306,326.0,685.0,545.0,0.0,0.0,0.0,0.0
1630051798616483095,1630051798,0,30306,306.0,686.0,530.0,0.0,0.0,0.0,0.0
1630051798716000513,1630051798,0,30306,291.0,691.0,516.0,0.0,0.0,0.0,0.0
1630051798814381599,1630051798,0,30306,299.0,664.0,563.0,0.0,0.0,0.0,0.0
1630051798915487723,1630051798,0,30306,305.0,647.0,598.0,0.0,0.0,0.0,0.0
1630051799024876948,1630051798,0,30306,305.0,634.0,617.0,0.0,0.0,0.0,0.0
1630051799113659331,1630051799,0,30306,300.0,621.0,638.0,0.0,0.0,0.0,0.0
1630051799214129068,1630051799,0,30306,292.0,619.0,670.0,0.0,0.0,0.0,0.0
1630051799324722049,1630051799,0,30306,288.0,611.0,681.0,0.0,0.0,0.0,0.0
1630051799414054248,1630051799,0,30306,290.0,611.0,685.0,0.0,0.0,0.0,0.0
1630051799524574536,1630051799,0,30306,292.0,613.0,683.0,0.0,0.0,0.0,0.0
1630051799615155919,1630051799,0,30306,301.0,607.0,687.0,0.0,0.0,0.0,0.0
1630051799726330544,1630051799,0,30306,308.0,598.0,686.0,0.0,0.0,0.0,0.0
1630051799815080603,1630051799,0,30306,345.0,580.0,636.0,0.0,0.0,0.0,0.0
1630051799924497729,1630051799,0,30306,371.0,567.0,588.0,0.0,0.0,0.0,0.0
1630051800013599085,1630051799,0,30306,398.0,560.0,554.0,0.0,0.0,0.0,0.0
1630051800114368822,1630051800,0,30306,407.0,547.0,517.0,0.0,0.0,0.0,0.0
1630051800224452682,1630051800,0,30306,427.0,534.0,483.0,0.0,0.0,0.0,0.0
1630051800314261053,1630051800,0,30306,439.0,524.0,454.0,0.0,0.0,0.0,0.0
1630051800424908605,1630051800,0,30306,454.0,510.0,428.0,0.0,0.0,0.0,0.0
1630051800513526212,1630051800,0,30306,472.0,502.0,401.0,0.0,0.0,0.0,0.0
1630051800623809972,1630051800,0,30306,485.0,497.0,370.0,0.0,0.0,0.0,0.0
1630051800713731028,1630051800,0,30306,491.0,494.0,347.0,0.0,0.0,0.0,0.0
1630051800822980645,1630051800,0,30306,450.0,504.0,381.0,0.0,0.0,0.0,0.0
1630051800912382762,1630051800,0,30306,415.0,508.0,410.0,0.0,0.0,0.0,0.0
1630051801013941790,1630051800,0,30306,405.0,515.0,396.0,0.0,0.0,0.0,0.0
1630051801122863242,1630051801,0,30306,410.0,533.0,363.0,0.0,0.0,0.0,0.0
1630051801212854232,1630051801,0,30306,404.0,551.0,362.0,0.0,0.0,0.0,0.0
1630051801322995278,1630051801,0,30306,372.0,566.0,379.0,0.0,0.0,0.0,0.0
1630051801411852836,1630051801,0,30306,389.0,553.0,333.0,0.0,0.0,0.0,0.0
1630051801523019934,1630051801,0,30306,391.0,564.0,345.0,0.0,0.0,0.0,0.0
1630051801611354970,1630051801,0,30306,392.0,561.0,368.0,0.0,0.0,0.0,0.0
1630051801724667456,1630051801,0,30306,412.0,565.0,382.0,0.0,0.0,0.0,0.0
1630051801812853527,1630051801,0,30306,410.0,575.0,442.0,0.0,0.0,0.0,0.0
1630051801913191395,1630051801,0,30306,421.0,569.0,465.0,0.0,0.0,0.0,0.0
1630051802022710572,1630051801,0,30306,441.0,556.0,480.0,0.0,0.0,0.0,0.0
1630051802114134483,1630051802,0,30306,434.0,537.0,477.0,0.0,0.0,0.0,0.0
1630051802223121233,1630051802,0,30306,433.0,531.0,463.0,0.0,0.0,0.0,0.0
1630051802313496007,1630051802,0,30306,436.0,521.0,458.0,0.0,0.0,0.0,0.0
1630051802413819311,1630051802,0,30306,450.0,514.0,455.0,0.0,0.0,0.0,0.0
1630051802512053493,1630051802,0,30306,473.0,504.0,449.0,0.0,0.0,0.0,0.0
1630051802612475634,1630051802,0,30306,512.0,494.0,422.0,0.0,0.0,0.0,0.0
1630051802723589058,1630051802,0,30306,554.0,482.0,403.0,0.0,0.0,0.0,0.0
1630051802812476719,1630051802,0,30306,545.0,480.0,461.0,0.0,0.0,0.0,0.0
1630051802923041324,1630051802,0,30306,529.0,484.0,522.0,0.0,0.0,0.0,0.0
1630051803013135164,1630051802,0,30306,511.0,489.0,569.0,0.0,0.0,0.0,0.0
1630051803123600553,1630051803,0,30306,501.0,491.0,591.0,0.0,0.0,0.0,0.0
1630051803213133483,1630051803,0,30306,489.0,499.0,621.0,0.0,0.0,0.0,0.0
1630051803323115664,1630051803,0,30306,477.0,507.0,650.0,0.0,0.0,0.0,0.0
1630051803413032766,1630051803,0,30306,472.0,503.0,658.0,0.0,0.0,0.0,0.0
1630051803513233718,1630051803,0,30306,479.0,488.0,655.0,0.0,0.0,0.0,0.0
1630051803621994397,1630051803,0,30306,504.0,496.0,686.0,0.0,0.0,0.0,0.0
1630051803711819795,1630051803,0,30306,519.0,498.0,687.0,0.0,0.0,0.0,0.0
1630051803822392844,1630051803,0,30306,522.0,522.0,700.0,0.0,0.0,0.0,0.0
1630051803911649894,1630051803,0,30306,525.0,548.0,720.0,0.0,0.0,0.0,0.0
1630051804021156484,1630051803,0,30306,540.0,562.0,725.0,0.0,0.0,0.0,0.0
1630051804111326676,1630051804,0,30306,550.0,577.0,758.0,0.0,0.0,0.0,0.0
1630051804211795012,1630051804,0,30306,537.0,543.0,704.0,0.0,0.0,0.0,0.0
1630051804320782481,1630051804,0,30306,500.0,494.0,641.0,0.0,0.0,0.0,0.0
1630051804410909976,1630051804,0,30306,527.0,522.0,686.0,0.0,0.0,0.0,0.0
1630051804520972545,1630051804,0,30306,534.0,533.0,702.0,0.0,0.0,0.0,0.0
1630051804611032126,1630051804,0,30306,533.0,528.0,720.0,0.0,0.0,0.0,0.0
1630051804723315279,1630051804,0,30306,529.0,518.0,755.0,0.0,0.0,0.0,0.0
1630051804812399841,1630051804,0,30306,510.0,532.0,840.0,0.0,0.0,0.0,0.0
1630051804938133782,1630051804,0,30306,497.0,535.0,869.0,0.0,0.0,0.0,0.0
1630051805010190462,1630051804,0,30306,497.0,528.0,883.0,0.0,0.0,0.0,0.0
1630051805110831555,1630051805,0,30306,491.0,524.0,891.0,0.0,0.0,0.0,0.0
1630051805222014581,1630051805,0,30306,495.0,511.0,887.0,0.0,0.0,0.0,0.0
1630051805310911888,1630051805,0,30306,505.0,489.0,906.0,0.0,0.0,0.0,0.0
1630051805420821216,1630051805,0,30306,513.0,483.0,955.0,0.0,0.0,0.0,0.0
1630051805509368705,1630051805,0,30306,522.0,468.0,977.0,0.0,0.0,0.0,0.0
1630051805619534282,1630051805,0,30306,538.0,475.0,1025.0,0.0,0.0,0.0,0.0
1630051805710115631,1630051805,0,30306,555.0,486.0,1101.0,0.0,0.0,0.0,0.0
1630051805819794746,1630051805,0,30306,524.0,487.0,1102.0,0.0,0.0,0.0,0.0
1630051805919543330,1630051805,0,30306,496.0,481.0,1062.0,0.0,0.0,0.0,0.0
1630051806008604155,1630051805,0,30306,481.0,463.0,1036.0,0.0,0.0,0.0,0.0
1630051806119112891,1630051806,0,30306,462.0,455.0,1033.0,0.0,0.0,0.0,0.0
1630051806208087722,1630051806,0,30306,458.0,438.0,1032.0,0.0,0.0,0.0,0.0
1630051806318259137,1630051806,0,30306,469.0,417.0,990.0,0.0,0.0,0.0,0.0
1630051806409249212,1630051806,0,30306,514.0,437.0,1085.0,0.0,0.0,0.0,0.0
1630051806509144547,1630051806,0,30306,521.0,451.0,1120.0,0.0,0.0,0.0,0.0
1630051806618346912,1630051806,0,30306,517.0,446.0,1124.0,0.0,0.0,0.0,0.0
1630051806709093429,1630051806,0,30306,513.0,428.0,1117.0,0.0,0.0,0.0,0.0
1630051806816968277,1630051806,0,30306,510.0,427.0,1131.0,0.0,0.0,0.0,0.0
1630051806907663935,1630051806,0,30306,523.0,431.0,1139.0,0.0,0.0,0.0,0.0
1630051807022571432,1630051806,0,30306,550.0,419.0,1130.0,0.0,0.0,0.0,0.0
1630051807115493525,1630051807,0,30306,563.0,413.0,1146.0,0.0,0.0,0.0,0.0
1630051807215868921,1630051807,0,30306,566.0,401.0,1120.0,0.0,0.0,0.0,0.0
1630051807317086933,1630051807,0,30306,572.0,418.0,1200.0,0.0,0.0,0.0,0.0
1630051807405084051,1630051807,0,30306,575.0,414.0,1227.0,0.0,0.0,0.0,0.0
1630051807514825404,1630051807,0,30306,575.0,407.0,1244.0,0.0,0.0,0.0,0.0
1630051807615214270,1630051807,0,30306,580.0,401.0,1259.0,0.0,0.0,0.0,0.0
1630051807716420818,1630051807,0,30306,586.0,395.0,1272.0,0.0,0.0,0.0,0.0
1630051807815623675,1630051807,0,30306,585.0,413.0,1256.0,0.0,0.0,0.0,0.0
1630051807904828280,1630051807,0,30306,570.0,447.0,1278.0,0.0,0.0,0.0,0.0
1630051808015866174,1630051807,0,30306,554.0,479.0,1310.0,0.0,0.0,0.0,0.0
1630051808105790695,1630051808,0,30306,548.0,492.0,1320.0,0.0,0.0,0.0,0.0
1630051808216029794,1630051808,0,30306,549.0,491.0,1315.0,0.0,0.0,0.0,0.0
1630051808315775755,1630051808,0,30306,545.0,493.0,1299.0,0.0,0.0,0.0,0.0
1630051808405539796,1630051808,0,30306,544.0,508.0,1303.0,0.0,0.0,0.0,0.0
1630051808515744735,1630051808,0,30306,543.0,516.0,1320.0,0.0,0.0,0.0,0.0
1630051808604446382,1630051808,0,30306,540.0,526.0,1326.0,0.0,0.0,0.0,0.0
1630051808714809028,1630051808,0,30306,538.0,530.0,1343.0,0.0,0.0,0.0,0.0
1630051808804222989,1630051808,0,30306,513.0,508.0,1336.0,0.0,0.0,0.0,0.0
1630051808914111467,1630051808,0,30306,499.0,497.0,1335.0,0.0,0.0,0.0,0.0
1630051809014945066,1630051808,0,30306,486.0,495.0,1324.0,0.0,0.0,0.0,0.0
1630051809103749288,1630051809,0,30306,465.0,498.0,1331.0,0.0,0.0,0.0,0.0
1630051809214693854,1630051809,0,30306,445.0,511.0,1345.0,0.0,0.0,0.0,0.0
1630051809304071630,1630051809,0,30306,427.0,527.0,1374.0,0.0,0.0,0.0,0.0
1630051809415166798,1630051809,0,30306,405.0,534.0,1395.0,0.0,0.0,0.0,0.0
1630051809512906672,1630051809,0,30306,380.0,538.0,1424.0,0.0,0.0,0.0,0.0
1630051809604328989,1630051809,0,30306,361.0,540.0,1464.0,0.0,0.0,0.0,0.0
1630051809713619794,1630051809,0,30306,343.0,529.0,1494.0,0.0,0.0,0.0,0.0
1630051809804304226,1630051809,0,30306,355.0,516.0,1511.0,0.0,0.0,0.0,0.0
1630051809913677257,1630051809,0,30306,364.0,499.0,1514.0,0.0,0.0,0.0,0.0
1630051810014045732,1630051809,0,30306,375.0,491.0,1521.0,0.0,0.0,0.0,0.0
1630051810113880424,1630051810,0,30306,379.0,492.0,1545.0,0.0,0.0,0.0,0.0
1630051810214046977,1630051810,0,30306,380.0,488.0,1574.0,0.0,0.0,0.0,0.0
1630051810303510638,1630051810,0,30306,378.0,493.0,1599.0,0.0,0.0,0.0,0.0
1630051810413285436,1630051810,0,30306,385.0,494.0,1635.0,0.0,0.0,0.0,0.0
1630051812742483604,1630051812,0,30306,577.0,112.0,1408.0,0.0,0.0,0.0,0.0
1630051812810578141,1630051812,0,30306,541.0,224.0,1469.0,0.0,0.0,0.0,0.0
1630051812901866819,1630051812,0,30306,520.0,236.0,1483.0,0.0,0.0,0.0,0.0
1630051813012024200,1630051812,0,30306,506.0,243.0,1490.0,0.0,0.0,0.0,0.0
1630051813101950542,1630051813,0,30306,491.0,256.0,1506.0,0.0,0.0,0.0,0.0
1630051813211611593,1630051813,0,30306,501.0,226.0,1521.0,0.0,0.0,0.0,0.0
1630051813310903585,1630051813,0,30306,484.0,262.0,1531.0,0.0,0.0,0.0,0.0
1630051813422170002,1630051813,0,30306,450.0,301.0,1537.0,0.0,0.0,0.0,0.0
1630051813510390290,1630051813,0,30306,423.0,349.0,1544.0,0.0,0.0,0.0,0.0
1630051813599522056,1630051813,0,30306,404.0,388.0,1562.0,0.0,0.0,0.0,0.0
1630051813709557512,1630051813,0,30306,386.0,416.0,1585.0,0.0,0.0,0.0,0.0
1630051813799164942,1630051813,0,30306,397.0,434.0,1599.0,0.0,0.0,0.0,0.0
1630051813910293995,1630051813,0,30306,408.0,452.0,1628.0,0.0,0.0,0.0,0.0
1630051814009208377,1630051813,0,30306,417.0,474.0,1646.0,0.0,0.0,0.0,0.0
1630051814110621084,1630051814,0,30306,423.0,474.0,1674.0,0.0,0.0,0.0,0.0
1630051814210271167,1630051814,0,30306,426.0,477.0,1694.0,0.0,0.0,0.0,0.0
1630051814321254466,1630051814,0,30306,430.0,473.0,1698.0,0.0,0.0,0.0,0.0
1630051814410159645,1630051814,0,30306,451.0,476.0,1704.0,0.0,0.0,0.0,0.0
1630051814499965873,1630051814,0,30306,458.0,483.0,1726.0,0.0,0.0,0.0,0.0
1630051814610166147,1630051814,0,30306,456.0,484.0,1745.0,0.0,0.0,0.0,0.0
1630051814710928443,1630051814,0,30306,445.0,484.0,1747.0,0.0,0.0,0.0,0.0
1630051814809981301,1630051814,0,30306,457.0,473.0,1762.0,0.0,0.0,0.0,0.0
1630051814932859211,1630051814,0,30306,462.0,467.0,1773.0,0.0,0.0,0.0,0.0
1630051814998644898,1630051814,0,30306,460.0,455.0,1777.0,0.0,0.0,0.0,0.0
1630051815108505558,1630051815,0,30306,457.0,440.0,1768.0,0.0,0.0,0.0,0.0
1630051815201689615,1630051815,0,30306,462.0,424.0,1749.0,0.0,0.0,0.0,0.0
1630051815308329231,1630051815,0,30306,484.0,438.0,1812.0,0.0,0.0,0.0,0.0
1630051815408235629,1630051815,0,30306,501.0,446.0,1870.0,0.0,0.0,0.0,0.0
1630051815518242014,1630051815,0,30306,516.0,458.0,1936.0,0.0,0.0,0.0,0.0
1630051815607735409,1630051815,0,30306,519.0,469.0,1970.0,0.0,0.0,0.0,0.0
1630051815706755893,1630051815,0,30306,514.0,478.0,1991.0,0.0,0.0,0.0,0.0
1630051815817055900,1630051815,0,30306,506.0,474.0,2007.0,0.0,0.0,0.0,0.0
1630051815907667907,1630051815,0,30306,493.0,464.0,1968.0,0.0,0.0,0.0,0.0
1630051816018566183,1630051815,0,30306,474.0,454.0,1946.0,0.0,0.0,0.0,0.0
1630051816106869552,1630051816,0,30306,453.0,447.0,1928.0,0.0,0.0,0.0,0.0
1630051816216908610,1630051816,0,30306,444.0,435.0,1922.0,0.0,0.0,0.0,0.0
1630051816307612296,1630051816,0,30306,439.0,428.0,1910.0,0.0,0.0,0.0,0.0
1630051816396450378,1630051816,0,30306,437.0,422.0,1917.0,0.0,0.0,0.0,0.0
1630051816506431695,1630051816,0,30306,448.0,415.0,1962.0,0.0,0.0,0.0,0.0
1630051816596306301,1630051816,0,30306,444.0,400.0,1945.0,0.0,0.0,0.0,0.0
1630051816706676954,1630051816,0,30306,440.0,387.0,1926.0,0.0,0.0,0.0,0.0
1630051816805916213,1630051816,0,30306,448.0,382.0,1936.0,0.0,0.0,0.0,0.0
1630051816915761958,1630051816,0,30306,458.0,372.0,1928.0,0.0,0.0,0.0,0.0
1630051817004844374,1630051816,0,30306,462.0,367.0,1927.0,0.0,0.0,0.0,0.0
1630051817116425564,1630051817,0,30306,464.0,371.0,1925.0,0.0,0.0,0.0,0.0
1630051817205374644,1630051817,0,30306,463.0,368.0,1919.0,0.0,0.0,0.0,0.0
1630051817315243395,1630051817,0,30306,466.0,364.0,1907.0,0.0,0.0,0.0,0.0
1630051817404491310,1630051817,0,30306,457.0,354.0,1904.0,0.0,0.0,0.0,0.0
1630051817504165335,1630051817,0,30306,443.0,339.0,1904.0,0.0,0.0,0.0,0.0
1630051817614274305,1630051817,0,30306,435.0,323.0,1917.0,0.0,0.0,0.0,0.0
1630051817704257661,1630051817,0,30306,430.0,307.0,1923.0,0.0,0.0,0.0,0.0
1630051817814076304,1630051817,0,30306,416.0,307.0,1923.0,0.0,0.0,0.0,0.0
1630051817905020370,1630051817,0,30306,402.0,306.0,1932.0,0.0,0.0,0.0,0.0
1630051818014537515,1630051817,0,30306,394.0,306.0,1944.0,0.0,0.0,0.0,0.0
1630051818104654927,1630051818,0,30306,394.0,315.0,1942.0,0.0,0.0,0.0,0.0
1630051818204020881,1630051818,0,30306,399.0,314.0,1949.0,0.0,0.0,0.0,0.0
1630051818312836610,1630051818,0,30306,420.0,316.0,1941.0,0.0,0.0,0.0,0.0
1630051818403544306,1630051818,0,30306,453.0,323.0,1934.0,0.0,0.0,0.0,0.0
1630051818502386203,1630051818,0,30306,483.0,327.0,1954.0,0.0,0.0,0.0,0.0
1630051818612837253,1630051818,0,30306,518.0,338.0,1980.0,0.0,0.0,0.0,0.0
1630051818702937726,1630051818,0,30306,551.0,351.0,2016.0,0.0,0.0,0.0,0.0
1630051818812514063,1630051818,0,30306,573.0,365.0,2044.0,0.0,0.0,0.0,0.0
1630051818900681108,1630051818,0,30306,593.0,380.0,2091.0,0.0,0.0,0.0,0.0
1630051819000980008,1630051818,0,30306,603.0,376.0,2043.0,0.0,0.0,0.0,0.0
1630051819112297201,1630051819,0,30306,617.0,378.0,2013.0,0.0,0.0,0.0,0.0
1630051819201078013,1630051819,0,30306,640.0,381.0,1997.0,0.0,0.0,0.0,0.0
1630051819311319254,1630051819,0,30306,669.0,378.0,1973.0,0.0,0.0,0.0,0.0
1630051819399983487,1630051819,0,30306,615.0,355.0,2031.0,0.0,0.0,0.0,0.0
1630051819511244471,1630051819,0,30306,567.0,336.0,2073.0,0.0,0.0,0.0,0.0
1630051819601590183,1630051819,0,30306,552.0,348.0,2072.0,0.0,0.0,0.0,0.0
1630051819711547185,1630051819,0,30306,538.0,359.0,2065.0,0.0,0.0,0.0,0.0
1630051819809770301,1630051819,0,30306,541.0,364.0,2038.0,0.0,0.0,0.0,0.0
1630051819898906304,1630051819,0,30306,589.0,363.0,1998.0,0.0,0.0,0.0,0.0
1630051820010741914,1630051819,0,30306,640.0,381.0,1962.0,0.0,0.0,0.0,0.0
1630051820109085701,1630051820,0,30306,681.0,398.0,1933.0,0.0,0.0,0.0,0.0
1630051820210496631,1630051820,0,30306,730.0,420.0,1898.0,0.0,0.0,0.0,0.0
1630051820309533124,1630051820,0,30306,776.0,453.0,1867.0,0.0,0.0,0.0,0.0
1630051820399254746,1630051820,0,30306,799.0,489.0,1848.0,0.0,0.0,0.0,0.0
1630051820508653841,1630051820,0,30306,820.0,536.0,1831.0,0.0,0.0,0.0,0.0
1630051820598346281,1630051820,0,30306,847.0,574.0,1827.0,0.0,0.0,0.0,0.0
1630051820709798672,1630051820,0,30306,887.0,601.0,1830.0,0.0,0.0,0.0,0.0
1630051820807781573,1630051820,0,30306,967.0,620.0,1794.0,0.0,0.0,0.0,0.0
1630051820898396858,1630051820,0,30306,1044.0,622.0,1775.0,0.0,0.0,0.0,0.0
1630051821007971471,1630051820,0,30306,1123.0,605.0,1765.0,0.0,0.0,0.0,0.0
1630051821096931740,1630051821,0,30306,1195.0,581.0,1748.0,0.0,0.0,0.0,0.0
1630051821207094607,1630051821,0,30306,1265.0,552.0,1737.0,0.0,0.0,0.0,0.0
1630051821307263162,1630051821,0,30306,1326.0,527.0,1714.0,0.0,0.0,0.0,0.0
1630051821406993249,1630051821,0,30306,1363.0,489.0,1760.0,0.0,0.0,0.0,0.0
1630051821507605470,1630051821,0,30306,1404.0,467.0,1782.0,0.0,0.0,0.0,0.0
1630051821616925336,1630051821,0,30306,1435.0,453.0,1765.0,0.0,0.0,0.0,0.0
1630051821706218861,1630051821,0,30306,1493.0,462.0,1802.0,0.0,0.0,0.0,0.0
1630051821794961636,1630051821,0,30306,1578.0,512.0,1905.0,0.0,0.0,0.0,0.0
1630051821905319167,1630051821,0,30306,1629.0,536.0,1989.0,0.0,0.0,0.0,0.0
1630051822005208748,1630051821,0,30306,1685.0,566.0,2017.0,0.0,0.0,0.0,0.0
1630051822115950614,1630051822,0,30306,1747.0,599.0,2004.0,0.0,0.0,0.0,0.0
1630051822204650136,1630051822,0,30306,1809.0,613.0,1979.0,0.0,0.0,0.0,0.0
1630051822294537848,1630051822,0,30306,1861.0,626.0,1954.0,0.0,0.0,0.0,0.0
1630051822404654771,1630051822,0,30306,1915.0,651.0,1936.0,0.0,0.0,0.0,0.0
1630051822504843433,1630051822,0,30306,1962.0,665.0,1910.0,0.0,0.0,0.0,0.0
1630051822603967590,1630051822,0,30306,1995.0,664.0,1894.0,0.0,0.0,0.0,0.0
1630051822694746781,1630051822,0,30306,2027.0,638.0,1886.0,0.0,0.0,0.0,0.0
1630051822802966428,1630051822,0,30306,2048.0,610.0,1887.0,0.0,0.0,0.0,0.0
1630051822903136630,1630051822,0,30306,2082.0,582.0,1900.0,0.0,0.0,0.0,0.0
1630051823009978994,1630051822,0,30306,2129.0,561.0,1918.0,0.0,0.0,0.0,0.0
1630051823099235300,1630051823,0,30306,2196.0,537.0,1909.0,0.0,0.0,0.0,0.0
1630051823210561729,1630051823,0,30306,2257.0,526.0,1890.0,0.0,0.0,0.0,0.0
1630051823299700716,1630051823,0,30306,2298.0,525.0,1874.0,0.0,0.0,0.0,0.0
1630051823410727043,1630051823,0,30306,2336.0,531.0,1855.0,0.0,0.0,0.0,0.0
1630051823509526352,1630051823,0,30306,2358.0,536.0,1814.0,0.0,0.0,0.0,0.0
1630051823599703568,1630051823,0,30306,2386.0,533.0,1771.0,0.0,0.0,0.0,0.0
1630051823710012647,1630051823,0,30306,2407.0,525.0,1740.0,0.0,0.0,0.0,0.0
1630051823799640906,1630051823,0,30306,2411.0,522.0,1777.0,0.0,0.0,0.0,0.0
1630051823909272907,1630051823,0,30306,2407.0,538.0,1791.0,0.0,0.0,0.0,0.0
1630051823999971559,1630051823,0,30306,2397.0,559.0,1814.0,0.0,0.0,0.0,0.0
1630051824100140881,1630051824,0,30306,2439.0,603.0,1865.0,0.0,0.0,0.0,0.0
1630051824208871174,1630051824,0,30306,2480.0,651.0,1887.0,0.0,0.0,0.0,0.0
1630051824298780398,1630051824,0,30306,2503.0,637.0,1853.0,0.0,0.0,0.0,0.0
1630051824408633459,1630051824,0,30306,2534.0,632.0,1854.0,0.0,0.0,0.0,0.0
1630051824497118587,1630051824,0,30306,2571.0,620.0,1868.0,0.0,0.0,0.0,0.0
1630051824606870792,1630051824,0,30306,2608.0,628.0,1894.0,0.0,0.0,0.0,0.0
1630051824697725507,1630051824,0,30306,2637.0,653.0,1954.0,0.0,0.0,0.0,0.0
1630051824805962497,1630051824,0,30306,2651.0,649.0,1943.0,0.0,0.0,0.0,0.0
1630051824927717942,1630051824,0,30306,2662.0,644.0,1929.0,0.0,0.0,0.0,0.0
1630051824995347242,1630051824,0,30306,2685.0,643.0,1930.0,0.0,0.0,0.0,0.0
1630051825106196069,1630051825,0,30306,2701.0,642.0,1937.0,0.0,0.0,0.0,0.0
1630051825205410834,1630051825,0,30306,2727.0,634.0,1947.0,0.0,0.0,0.0,0.0
1630051825305592075,1630051825,0,30306,2748.0,612.0,1962.0,0.0,0.0,0.0,0.0
1630051825405610116,1630051825,0,30306,2774.0,594.0,1974.0,0.0,0.0,0.0,0.0
1630051825505321383,1630051825,0,30306,2799.0,586.0,1979.0,0.0,0.0,0.0,0.0
1630051825604019744,1630051825,0,30306,2824.0,581.0,1974.0,0.0,0.0,0.0,0.0
1630051825706061192,1630051825,0,30306,2844.0,568.0,1981.0,0.0,0.0,0.0,0.0
1630051825804074968,1630051825,0,30306,2856.0,537.0,1977.0,0.0,0.0,0.0,0.0
1630051825914995413,1630051825,0,30306,2857.0,519.0,1995.0,0.0,0.0,0.0,0.0
1630051826003938929,1630051825,0,30306,2848.0,499.0,2028.0,0.0,0.0,0.0,0.0
1630051826093308177,1630051826,0,30306,2845.0,489.0,2057.0,0.0,0.0,0.0,0.0
1630051826203344425,1630051826,0,30306,2852.0,500.0,2065.0,0.0,0.0,0.0,0.0
1630051826293233000,1630051826,0,30306,2865.0,526.0,2057.0,0.0,0.0,0.0,0.0
1630051826403156910,1630051826,0,30306,2877.0,538.0,2035.0,0.0,0.0,0.0,0.0
1630051826504503319,1630051826,0,30306,2902.0,562.0,2016.0,0.0,0.0,0.0,0.0
1630051826614038814,1630051826,0,30306,2919.0,572.0,2017.0,0.0,0.0,0.0,0.0
1630051826704543425,1630051826,0,30306,2937.0,590.0,2001.0,0.0,0.0,0.0,0.0
1630051826793150862,1630051826,0,30306,2975.0,602.0,1939.0,0.0,0.0,0.0,0.0
1630051826903737714,1630051826,0,30306,3017.0,616.0,1901.0,0.0,0.0,0.0,0.0
1630051826993860292,1630051826,0,30306,3055.0,609.0,1904.0,0.0,0.0,0.0,0.0
1630051827105489682,1630051827,0,30306,3056.0,573.0,1996.0,0.0,0.0,0.0,0.0
1630051827193044310,1630051827,0,30306,3040.0,561.0,2092.0,0.0,0.0,0.0,0.0
1630051827303439740,1630051827,0,30306,3009.0,540.0,2232.0,0.0,0.0,0.0,0.0
1630051827404715585,1630051827,0,30306,2990.0,523.0,2367.0,0.0,0.0,0.0,0.0
1630051827493339591,1630051827,0,30306,2981.0,525.0,2484.0,0.0,0.0,0.0,0.0
1630051827603554352,1630051827,0,30306,3020.0,540.0,2499.0,0.0,0.0,0.0,0.0
1630051827693058355,1630051827,0,30306,3101.0,567.0,2421.0,0.0,0.0,0.0,0.0
1630051827802384438,1630051827,0,30306,3158.0,603.0,2311.0,0.0,0.0,0.0,0.0
1630051827902455143,1630051827,0,30306,3126.0,582.0,2403.0,0.0,0.0,0.0,0.0
1630051828014259469,1630051827,0,30306,3093.0,546.0,2507.0,0.0,0.0,0.0,0.0
1630051828103003909,1630051828,0,30306,3171.0,565.0,2416.0,0.0,0.0,0.0,0.0
1630051828191942961,1630051828,0,30306,3259.0,577.0,2306.0,0.0,0.0,0.0,0.0
1630051828302228099,1630051828,0,30306,3348.0,591.0,2220.0,0.0,0.0,0.0,0.0
1630051828391733911,1630051828,0,30306,3442.0,617.0,2124.0,0.0,0.0,0.0,0.0
1630051828502850579,1630051828,0,30306,3520.0,633.0,2044.0,0.0,0.0,0.0,0.0
1630051828603216599,1630051828,0,30306,3585.0,641.0,2002.0,0.0,0.0,0.0,0.0
1630051828714563369,1630051828,0,30306,3649.0,636.0,1950.0,0.0,0.0,0.0,0.0
1630051828802725851,1630051828,0,30306,3668.0,637.0,1850.0,0.0,0.0,0.0,0.0
1630051828893612723,1630051828,0,30306,3689.0,640.0,1787.0,0.0,0.0,0.0,0.0
1630051829003143479,1630051828,0,30306,3688.0,633.0,1728.0,0.0,0.0,0.0,0.0
1630051829103622221,1630051829,0,30306,3688.0,631.0,1681.0,0.0,0.0,0.0,0.0
1630051829213246418,1630051829,0,30306,3697.0,637.0,1653.0,0.0,0.0,0.0,0.0
1630051829301595293,1630051829,0,30306,3708.0,660.0,1665.0,0.0,0.0,0.0,0.0
1630051829412685765,1630051829,0,30306,3716.0,657.0,1643.0,0.0,0.0,0.0,0.0
1630051829502041793,1630051829,0,30306,3715.0,615.0,1595.0,0.0,0.0,0.0,0.0
1630051829591087999,1630051829,0,30306,3718.0,607.0,1578.0,0.0,0.0,0.0,0.0
1630051829702024199,1630051829,0,30306,3720.0,592.0,1559.0,0.0,0.0,0.0,0.0
1630051829801228135,1630051829,0,30306,3732.0,604.0,1590.0,0.0,0.0,0.0,0.0
1630051829901159929,1630051829,0,30306,3747.0,605.0,1613.0,0.0,0.0,0.0,0.0
1630051829999900448,1630051829,0,30306,3766.0,650.0,1664.0,0.0,0.0,0.0,0.0
1630051830100743921,1630051830,0,30306,3771.0,695.0,1688.0,0.0,0.0,0.0,0.0
1630051830200813324,1630051830,0,30306,3786.0,754.0,1690.0,0.0,0.0,0.0,0.0
1630051830309708800,1630051830,0,30306,3801.0,804.0,1692.0,0.0,0.0,0.0,0.0
1630051830398270196,1630051830,0,30306,3812.0,843.0,1695.0,0.0,0.0,0.0,0.0
1630051830509796161,1630051830,0,30306,3820.0,874.0,1686.0,0.0,0.0,0.0,0.0
1630051830598782170,1630051830,0,30306,3838.0,893.0,1678.0,0.0,0.0,0.0,0.0
1630051830687889430,1630051830,0,30306,3858.0,905.0,1655.0,0.0,0.0,0.0,0.0
1630051830798412868,1630051830,0,30306,3881.0,900.0,1639.0,0.0,0.0,0.0,0.0
1630051830898822112,1630051830,0,30306,3899.0,921.0,1662.0,0.0,0.0,0.0,0.0
1630051831007894438,1630051830,0,30306,3946.0,964.0,1723.0,0.0,0.0,0.0,0.0
1630051831098316664,1630051831,0,30306,3992.0,993.0,1786.0,0.0,0.0,0.0,0.0
1630051831206898460,1630051831,0,30306,4032.0,990.0,1803.0,0.0,0.0,0.0,0.0
1630051831297267737,1630051831,0,30306,4070.0,1014.0,1868.0,0.0,0.0,0.0,0.0
1630051831397023225,1630051831,0,30306,4102.0,984.0,1854.0,0.0,0.0,0.0,0.0
1630051831506645560,1630051831,0,30306,4132.0,952.0,1846.0,0.0,0.0,0.0,0.0
1630051831597744208,1630051831,0,30306,4166.0,931.0,1865.0,0.0,0.0,0.0,0.0
1630051831709555891,1630051831,0,30306,4193.0,924.0,1884.0,0.0,0.0,0.0,0.0
1630051831797374239,1630051831,0,30306,4216.0,912.0,1890.0,0.0,0.0,0.0,0.0
1630051831908900128,1630051831,0,30306,4226.0,896.0,1884.0,0.0,0.0,0.0,0.0
1630051831997178016,1630051831,0,30306,4240.0,890.0,1882.0,0.0,0.0,0.0,0.0
1630051832107415680,1630051832,0,30306,4255.0,871.0,1870.0,0.0,0.0,0.0,0.0
1630051832196912403,1630051832,0,30306,4277.0,857.0,1830.0,0.0,0.0,0.0,0.0
1630051832297481093,1630051832,0,30306,4287.0,846.0,1795.0,0.0,0.0,0.0,0.0
1630051832398557058,1630051832,0,30306,4283.0,842.0,1778.0,0.0,0.0,0.0,0.0
1630051832498202537,1630051832,0,30306,4287.0,833.0,1773.0,0.0,0.0,0.0,0.0
1630051832608739733,1630051832,0,30306,4289.0,838.0,1789.0,0.0,0.0,0.0,0.0
1630051832699103873,1630051832,0,30306,4315.0,841.0,1769.0,0.0,0.0,0.0,0.0
1630051832807240053,1630051832,0,30306,4344.0,879.0,1773.0,0.0,0.0,0.0,0.0
1630051832896557838,1630051832,0,30306,4368.0,925.0,1789.0,0.0,0.0,0.0,0.0
1630051833006677740,1630051832,0,30306,4388.0,934.0,1749.0,0.0,0.0,0.0,0.0
1630051833095699416,1630051833,0,30306,4409.0,950.0,1721.0,0.0,0.0,0.0,0.0
1630051833205082741,1630051833,0,30306,4429.0,952.0,1698.0,0.0,0.0,0.0,0.0
1630051833297077625,1630051833,0,30306,4467.0,954.0,1654.0,0.0,0.0,0.0,0.0
1630051833406365523,1630051833,0,30306,4491.0,947.0,1630.0,0.0,0.0,0.0,0.0
1630051833495270391,1630051833,0,30306,4508.0,952.0,1624.0,0.0,0.0,0.0,0.0
1630051833605389518,1630051833,0,30306,4542.0,968.0,1616.0,0.0,0.0,0.0,0.0
1630051833706059149,1630051833,0,30306,4584.0,976.0,1594.0,0.0,0.0,0.0,0.0
1630051833796450351,1630051833,0,30306,4646.0,992.0,1537.0,0.0,0.0,0.0,0.0
1630051833904759601,1630051833,0,30306,4677.0,988.0,1511.0,0.0,0.0,0.0,0.0
1630051833996354764,1630051833,0,30306,4708.0,973.0,1466.0,0.0,0.0,0.0,0.0
1630051834107890959,1630051834,0,30306,4746.0,961.0,1423.0,0.0,0.0,0.0,0.0
1630051834194717868,1630051834,0,30306,4780.0,954.0,1415.0,0.0,0.0,0.0,0.0
1630051834294939921,1630051834,0,30306,4801.0,950.0,1364.0,0.0,0.0,0.0,0.0
1630051834403924607,1630051834,0,30306,4830.0,964.0,1265.0,0.0,0.0,0.0,0.0
1630051834493057174,1630051834,0,30306,4856.0,1000.0,1105.0,0.0,0.0,0.0,0.0
1630051834605057563,1630051834,0,30306,4889.0,973.0,1165.0,0.0,0.0,0.0,0.0
1630051834703344344,1630051834,0,30306,4901.0,967.0,1197.0,0.0,0.0,0.0,0.0
1630051834791812309,1630051834,0,30306,4913.0,979.0,1251.0,0.0,0.0,0.0,0.0
1630051834924278371,1630051834,0,30306,4905.0,1020.0,1210.0,0.0,0.0,0.0,0.0
1630051834993829809,1630051834,0,30306,4898.0,1035.0,1160.0,0.0,0.0,0.0,0.0
1630051835101838382,1630051835,0,30306,4896.0,1073.0,1097.0,0.0,0.0,0.0,0.0
1630051835203046904,1630051835,0,30306,4899.0,1098.0,1058.0,0.0,0.0,0.0,0.0
1630051835301098857,1630051835,0,30306,4892.0,1112.0,1042.0,0.0,0.0,0.0,0.0
1630051835400390548,1630051835,0,30306,4901.0,1137.0,1030.0,0.0,0.0,0.0,0.0
1630051835500209580,1630051835,0,30306,4937.0,1149.0,1101.0,0.0,0.0,0.0,0.0
1630051835601429576,1630051835,0,30306,4998.0,1143.0,1179.0,0.0,0.0,0.0,0.0
1630051835690003161,1630051835,0,30306,5032.0,1182.0,1183.0,0.0,0.0,0.0,0.0
1630051835799916176,1630051835,0,30306,5058.0,1194.0,1321.0,0.0,0.0,0.0,0.0
1630051835898055282,1630051835,0,30306,5085.0,1207.0,1462.0,0.0,0.0,0.0,0.0
1630051835999748519,1630051835,0,30306,5079.0,1300.0,1439.0,0.0,0.0,0.0,0.0
1630051836100083740,1630051836,0,30306,5078.0,1376.0,1439.0,0.0,0.0,0.0,0.0
1630051836199382083,1630051836,0,30306,5073.0,1423.0,1474.0,0.0,0.0,0.0,0.0
1630051836300130701,1630051836,0,30306,5068.0,1465.0,1518.0,0.0,0.0,0.0,0.0
1630051836409729542,1630051836,0,30306,5055.0,1514.0,1592.0,0.0,0.0,0.0,0.0
1630051836498732268,1630051836,0,30306,5034.0,1544.0,1682.0,0.0,0.0,0.0,0.0
1630051836588389007,1630051836,0,30306,5015.0,1558.0,1800.0,0.0,0.0,0.0,0.0
1630051836696026961,1630051836,0,30306,5029.0,1580.0,1866.0,0.0,0.0,0.0,0.0
1630051836798054001,1630051836,0,30306,5068.0,1577.0,1863.0,0.0,0.0,0.0,0.0
1630051836907400013,1630051836,0,30306,5117.0,1568.0,1842.0,0.0,0.0,0.0,0.0
1630051836997073299,1630051836,0,30306,5114.0,1554.0,1904.0,0.0,0.0,0.0,0.0
1630051837108595161,1630051837,0,30306,5120.0,1533.0,1969.0,0.0,0.0,0.0,0.0
1630051837197412862,1630051837,0,30306,5136.0,1460.0,1987.0,0.0,0.0,0.0,0.0
1630051837308439611,1630051837,0,30306,5156.0,1407.0,2030.0,0.0,0.0,0.0,0.0
1630051837394605585,1630051837,0,30306,5220.0,1375.0,2021.0,0.0,0.0,0.0,0.0
1630051837505083601,1630051837,0,30306,5290.0,1382.0,1971.0,0.0,0.0,0.0,0.0
1630051837595375315,1630051837,0,30306,5311.0,1384.0,1993.0,0.0,0.0,0.0,0.0
1630051837694454062,1630051837,0,30306,5387.0,1408.0,1899.0,0.0,0.0,0.0,0.0
1630051837803147570,1630051837,0,30306,5416.0,1400.0,1801.0,0.0,0.0,0.0,0.0
1630051837893429884,1630051837,0,30306,5449.0,1401.0,1714.0,0.0,0.0,0.0,0.0
1630051838003531333,1630051837,0,30306,5475.0,1409.0,1662.0,0.0,0.0,0.0,0.0
1630051838092492365,1630051838,0,30306,5503.0,1414.0,1644.0,0.0,0.0,0.0,0.0
1630051838202761651,1630051838,0,30306,5502.0,1421.0,1567.0,0.0,0.0,0.0,0.0
1630051838291019883,1630051838,0,30306,5532.0,1372.0,1528.0,0.0,0.0,0.0,0.0
1630051838399957958,1630051838,0,30306,5533.0,1342.0,1468.0,0.0,0.0,0.0,0.0
1630051838501214924,1630051838,0,30306,5522.0,1322.0,1438.0,0.0,0.0,0.0,0.0
1630051838610421098,1630051838,0,30306,5501.0,1286.0,1359.0,0.0,0.0,0.0,0.0
1630051838699795700,1630051838,0,30306,5449.0,1223.0,1206.0,0.0,0.0,0.0,0.0
1630051838789322472,1630051838,0,30306,5441.0,1309.0,1183.0,0.0,0.0,0.0,0.0
1630051838899617536,1630051838,0,30306,5422.0,1415.0,1165.0,0.0,0.0,0.0,0.0
1630051838988739491,1630051838,0,30306,5413.0,1506.0,1152.0,0.0,0.0,0.0,0.0
1630051839101500941,1630051839,0,30306,5399.0,1573.0,1141.0,0.0,0.0,0.0,0.0
1630051839197503168,1630051839,0,30306,5393.0,1617.0,1136.0,0.0,0.0,0.0,0.0
1630051839289322911,1630051839,0,30306,5413.0,1658.0,1112.0,0.0,0.0,0.0,0.0
1630051839398054451,1630051839,0,30306,5434.0,1673.0,1076.0,0.0,0.0,0.0,0.0
1630051839488993685,1630051839,0,30306,5423.0,1670.0,1096.0,0.0,0.0,0.0,0.0
1630051839598398842,1630051839,0,30306,5369.0,1724.0,1013.0,0.0,0.0,0.0,0.0
1630051839701612613,1630051839,0,30306,5309.0,1780.0,965.0,0.0,0.0,0.0,0.0
1630051839808036749,1630051839,0,30306,5206.0,1859.0,998.0,0.0,0.0,0.0,0.0
1630051839898603531,1630051839,0,30306,5128.0,1939.0,1024.0,0.0,0.0,0.0,0.0
1630051839987375702,1630051839,0,30306,5069.0,2008.0,1039.0,0.0,0.0,0.0,0.0
1630051840097444531,1630051840,0,30306,5055.0,2009.0,1131.0,0.0,0.0,0.0,0.0
1630051840197169171,1630051840,0,30306,5052.0,2008.0,1213.0,0.0,0.0,0.0,0.0
1630051840287390117,1630051840,0,30306,5065.0,2024.0,1268.0,0.0,0.0,0.0,0.0
1630051840397772673,1630051840,0,30306,5072.0,2044.0,1330.0,0.0,0.0,0.0,0.0
1630051840486287782,1630051840,0,30306,5081.0,2071.0,1398.0,0.0,0.0,0.0,0.0
1630051840597200343,1630051840,0,30306,5088.0,2062.0,1496.0,0.0,0.0,0.0,0.0
1630051840687225636,1630051840,0,30306,5100.0,2065.0,1551.0,0.0,0.0,0.0,0.0
1630051840796781349,1630051840,0,30306,5114.0,2141.0,1587.0,0.0,0.0,0.0,0.0
1630051840896724129,1630051840,0,30306,5125.0,2214.0,1621.0,0.0,0.0,0.0,0.0
1630051841006622816,1630051840,0,30306,5179.0,2206.0,1707.0,0.0,0.0,0.0,0.0
1630051841096784730,1630051841,0,30306,5210.0,2221.0,1754.0,0.0,0.0,0.0,0.0
1630051841185740131,1630051841,0,30306,5221.0,2262.0,1786.0,0.0,0.0,0.0,0.0
1630051841295267305,1630051841,0,30306,5222.0,2315.0,1792.0,0.0,0.0,0.0,0.0
1630051841395973677,1630051841,0,30306,5200.0,2374.0,1792.0,0.0,0.0,0.0,0.0
1630051841495561659,1630051841,0,30306,5178.0,2424.0,1832.0,0.0,0.0,0.0,0.0
1630051841594946235,1630051841,0,30306,5156.0,2452.0,1861.0,0.0,0.0,0.0,0.0
1630051841705329176,1630051841,0,30306,5131.0,2478.0,1873.0,0.0,0.0,0.0,0.0
1630051841794606104,1630051841,0,30306,5166.0,2485.0,1856.0,0.0,0.0,0.0,0.0
1630051841883658421,1630051841,0,30306,5191.0,2499.0,1824.0,0.0,0.0,0.0,0.0
1630051841994173817,1630051841,0,30306,5207.0,2507.0,1799.0,0.0,0.0,0.0,0.0
1630051842084275850,1630051842,0,30306,5218.0,2504.0,1760.0,0.0,0.0,0.0,0.0
1630051842193607789,1630051842,0,30306,5221.0,2509.0,1729.0,0.0,0.0,0.0,0.0
1630051842294575250,1630051842,0,30306,5236.0,2501.0,1719.0,0.0,0.0,0.0,0.0
1630051842404237530,1630051842,0,30306,5246.0,2473.0,1724.0,0.0,0.0,0.0,0.0
1630051842493833894,1630051842,0,30306,5245.0,2443.0,1747.0,0.0,0.0,0.0,0.0
1630051842604944308,1630051842,0,30306,5244.0,2429.0,1763.0,0.0,0.0,0.0,0.0
1630051842694443328,1630051842,0,30306,5234.0,2427.0,1808.0,0.0,0.0,0.0,0.0
1630051842794141204,1630051842,0,30306,5211.0,2520.0,1812.0,0.0,0.0,0.0,0.0
1630051842892976697,1630051842,0,30306,5209.0,2632.0,1799.0,0.0,0.0,0.0,0.0
1630051842993106195,1630051842,0,30306,5206.0,2685.0,1750.0,0.0,0.0,0.0,0.0
1630051843103998024,1630051843,0,30306,5201.0,2738.0,1707.0,0.0,0.0,0.0,0.0
1630051843193025469,1630051843,0,30306,5174.0,2778.0,1681.0,0.0,0.0,0.0,0.0
1630051843304035617,1630051843,0,30306,5148.0,2812.0,1666.0,0.0,0.0,0.0,0.0
1630051843390661670,1630051843,0,30306,5133.0,2839.0,1653.0,0.0,0.0,0.0,0.0
1630051843491218429,1630051843,0,30306,5125.0,2870.0,1627.0,0.0,0.0,0.0,0.0
1630051843590616058,1630051843,0,30306,5103.0,2898.0,1595.0,0.0,0.0,0.0,0.0
1630051843691485576,1630051843,0,30306,5104.0,2917.0,1548.0,0.0,0.0,0.0,0.0
1630051843801219366,1630051843,0,30306,5122.0,2923.0,1499.0,0.0,0.0,0.0,0.0
1630051843901277785,1630051843,0,30306,5142.0,2942.0,1451.0,0.0,0.0,0.0,0.0
1630051843990227868,1630051843,0,30306,5150.0,2970.0,1403.0,0.0,0.0,0.0,0.0
1630051844100762819,1630051844,0,30306,5165.0,3007.0,1358.0,0.0,0.0,0.0,0.0
1630051844190765507,1630051844,0,30306,5167.0,3050.0,1305.0,0.0,0.0,0.0,0.0
1630051844301600367,1630051844,0,30306,5164.0,3093.0,1261.0,0.0,0.0,0.0,0.0
1630051844391120962,1630051844,0,30306,5168.0,3112.0,1224.0,0.0,0.0,0.0,0.0
1630051844499973394,1630051844,0,30306,5154.0,3157.0,1209.0,0.0,0.0,0.0,0.0
1630051844599226538,1630051844,0,30306,5135.0,3219.0,1190.0,0.0,0.0,0.0,0.0
1630051844689826960,1630051844,0,30306,5139.0,3258.0,1179.0,0.0,0.0,0.0,0.0
1630051844798578815,1630051844,0,30306,5179.0,3233.0,1236.0,0.0,0.0,0.0,0.0
1630051844921665855,1630051844,0,30306,5215.0,3202.0,1271.0,0.0,0.0,0.0,0.0
1630051844998503105,1630051844,0,30306,5247.0,3191.0,1307.0,0.0,0.0,0.0,0.0
1630051845098393404,1630051845,0,30306,5260.0,3209.0,1334.0,0.0,0.0,0.0,0.0
1630051845188625551,1630051845,0,30306,5273.0,3224.0,1364.0,0.0,0.0,0.0,0.0
1630051845298571119,1630051845,0,30306,5266.0,3243.0,1453.0,0.0,0.0,0.0,0.0
1630051845388047909,1630051845,0,30306,5267.0,3266.0,1494.0,0.0,0.0,0.0,0.0
1630051845497243368,1630051845,0,30306,5284.0,3307.0,1451.0,0.0,0.0,0.0,0.0
1630051845588163896,1630051845,0,30306,5292.0,3349.0,1419.0,0.0,0.0,0.0,0.0
1630051845698031377,1630051845,0,30306,5293.0,3395.0,1395.0,0.0,0.0,0.0,0.0
1630051845787528650,1630051845,0,30306,5284.0,3458.0,1446.0,0.0,0.0,0.0,0.0
1630051845896469351,1630051845,0,30306,5266.0,3513.0,1498.0,0.0,0.0,0.0,0.0
1630051845996755739,1630051845,0,30306,5244.0,3534.0,1528.0,0.0,0.0,0.0,0.0
1630051846086433117,1630051846,0,30306,5225.0,3538.0,1537.0,0.0,0.0,0.0,0.0
1630051846196277216,1630051846,0,30306,5210.0,3546.0,1527.0,0.0,0.0,0.0,0.0
1630051846286171040,1630051846,0,30306,5204.0,3562.0,1539.0,0.0,0.0,0.0,0.0
1630051846395751679,1630051846,0,30306,5197.0,3570.0,1562.0,0.0,0.0,0.0,0.0
1630051846485322571,1630051846,0,30306,5180.0,3590.0,1573.0,0.0,0.0,0.0,0.0
1630051846595507520,1630051846,0,30306,5171.0,3626.0,1584.0,0.0,0.0,0.0,0.0
1630051846694801127,1630051846,0,30306,5166.0,3675.0,1589.0,0.0,0.0,0.0,0.0
1630051846784457038,1630051846,0,30306,5157.0,3734.0,1580.0,0.0,0.0,0.0,0.0
1630051846894624339,1630051846,0,30306,5150.0,3778.0,1578.0,0.0,0.0,0.0,0.0
1630051846984373584,1630051846,0,30306,5140.0,3805.0,1592.0,0.0,0.0,0.0,0.0
1630051847094533539,1630051847,0,30306,5118.0,3843.0,1610.0,0.0,0.0,0.0,0.0
1630051847194292822,1630051847,0,30306,5104.0,3883.0,1625.0,0.0,0.0,0.0,0.0
1630051847304286571,1630051847,0,30306,5103.0,3925.0,1661.0,0.0,0.0,0.0,0.0
1630051847393610565,1630051847,0,30306,5102.0,3974.0,1685.0,0.0,0.0,0.0,0.0
1630051847482594296,1630051847,0,30306,5094.0,4015.0,1692.0,0.0,0.0,0.0,0.0
1630051847593662756,1630051847,0,30306,5099.0,4060.0,1703.0,0.0,0.0,0.0,0.0
1630051847693480617,1630051847,0,30306,5104.0,4099.0,1715.0,0.0,0.0,0.0,0.0
1630051847803427907,1630051847,0,30306,5097.0,4126.0,1699.0,0.0,0.0,0.0,0.0
1630051847892984971,1630051847,0,30306,5087.0,4151.0,1650.0,0.0,0.0,0.0,0.0
1630051848002092880,1630051847,0,30306,5075.0,4187.0,1603.0,0.0,0.0,0.0,0.0
1630051848092018245,1630051848,0,30306,5057.0,4232.0,1586.0,0.0,0.0,0.0,0.0
1630051848202488643,1630051848,0,30306,5039.0,4272.0,1579.0,0.0,0.0,0.0,0.0
1630051848292142308,1630051848,0,30306,5041.0,4318.0,1601.0,0.0,0.0,0.0,0.0
1630051848381409290,1630051848,0,30306,4976.0,4365.0,1702.0,0.0,0.0,0.0,0.0
1630051848493666485,1630051848,0,30306,4966.0,4396.0,1653.0,0.0,0.0,0.0,0.0
1630051848583732475,1630051848,0,30306,4942.0,4422.0,1606.0,0.0,0.0,0.0,0.0
1630051848694085715,1630051848,0,30306,4913.0,4456.0,1558.0,0.0,0.0,0.0,0.0
1630051848783663225,1630051848,0,30306,4922.0,4518.0,1541.0,0.0,0.0,0.0,0.0
1630051848893604399,1630051848,0,30306,4918.0,4563.0,1537.0,0.0,0.0,0.0,0.0
1630051848982182908,1630051848,0,30306,4880.0,4576.0,1544.0,0.0,0.0,0.0,0.0
1630051849093901806,1630051849,0,30306,4832.0,4593.0,1595.0,0.0,0.0,0.0,0.0
1630051849193299112,1630051849,0,30306,4827.0,4625.0,1617.0,0.0,0.0,0.0,0.0
1630051849303107930,1630051849,0,30306,4835.0,4665.0,1635.0,0.0,0.0,0.0,0.0
1630051849392854930,1630051849,0,30306,4835.0,4712.0,1669.0,0.0,0.0,0.0,0.0
1630051849481288278,1630051849,0,30306,4861.0,4748.0,1667.0,0.0,0.0,0.0,0.0
1630051849592087743,1630051849,0,30306,4890.0,4779.0,1655.0,0.0,0.0,0.0,0.0
1630051849694087347,1630051849,0,30306,4935.0,4825.0,1640.0,0.0,0.0,0.0,0.0
1630051849802346942,1630051849,0,30306,4974.0,4891.0,1633.0,0.0,0.0,0.0,0.0
1630051849891061731,1630051849,0,30306,4999.0,4955.0,1627.0,0.0,0.0,0.0,0.0
1630051850000898533,1630051849,0,30306,5017.0,5014.0,1599.0,0.0,0.0,0.0,0.0
1630051850090760219,1630051850,0,30306,5017.0,5067.0,1594.0,0.0,0.0,0.0,0.0
1630051850191064613,1630051850,0,30306,4974.0,5117.0,1705.0,0.0,0.0,0.0,0.0
1630051850290374514,1630051850,0,30306,4953.0,5154.0,1724.0,0.0,0.0,0.0,0.0
1630051850390134643,1630051850,0,30306,4942.0,5198.0,1762.0,0.0,0.0,0.0,0.0
1630051850490580625,1630051850,0,30306,4937.0,5242.0,1793.0,0.0,0.0,0.0,0.0
1630051850589326796,1630051850,0,30306,4930.0,5285.0,1807.0,0.0,0.0,0.0,0.0
1630051850690076295,1630051850,0,30306,4914.0,5328.0,1817.0,0.0,0.0,0.0,0.0
1630051850789053136,1630051850,0,30306,4893.0,5364.0,1800.0,0.0,0.0,0.0,0.0
1630051850888965194,1630051850,0,30306,4865.0,5389.0,1775.0,0.0,0.0,0.0,0.0
1630051850987647025,1630051850,0,30306,4847.0,5431.0,1756.0,0.0,0.0,0.0,0.0
1630051851098715682,1630051851,0,30306,4827.0,5475.0,1731.0,0.0,0.0,0.0,0.0
1630051851187127526,1630051851,0,30306,4804.0,5515.0,1700.0,0.0,0.0,0.0,0.0
1630051851297462102,1630051851,0,30306,4780.0,5550.0,1671.0,0.0,0.0,0.0,0.0
1630051851387341447,1630051851,0,30306,4740.0,5592.0,1633.0,0.0,0.0,0.0,0.0
1630051851496650075,1630051851,0,30306,4703.0,5638.0,1610.0,0.0,0.0,0.0,0.0
1630051851595515511,1630051851,0,30306,4682.0,5681.0,1582.0,0.0,0.0,0.0,0.0
1630051851685494616,1630051851,0,30306,4675.0,5727.0,1555.0,0.0,0.0,0.0,0.0
1630051851795189289,1630051851,0,30306,4675.0,5765.0,1505.0,0.0,0.0,0.0,0.0
1630051851883786229,1630051851,0,30306,4679.0,5799.0,1461.0,0.0,0.0,0.0,0.0
1630051851995073001,1630051851,0,30306,4682.0,5850.0,1438.0,0.0,0.0,0.0,0.0
1630051852085118959,1630051852,0,30306,4684.0,5899.0,1413.0,0.0,0.0,0.0,0.0
1630051852195385704,1630051852,0,30306,4679.0,5948.0,1382.0,0.0,0.0,0.0,0.0
1630051852295491803,1630051852,0,30306,4684.0,6004.0,1345.0,0.0,0.0,0.0,0.0
1630051852395520197,1630051852,0,30306,4688.0,6059.0,1291.0,0.0,0.0,0.0,0.0
1630051852494856241,1630051852,0,30306,4699.0,6104.0,1238.0,0.0,0.0,0.0,0.0
1630051852594218672,1630051852,0,30306,4716.0,6142.0,1186.0,0.0,0.0,0.0,0.0
1630051852694605441,1630051852,0,30306,4715.0,6178.0,1156.0,0.0,0.0,0.0,0.0
1630051852792780702,1630051852,0,30306,4735.0,6191.0,1156.0,0.0,0.0,0.0,0.0
1630051852893752309,1630051852,0,30306,4758.0,6228.0,1163.0,0.0,0.0,0.0,0.0
1630051853002962490,1630051852,0,30306,4771.0,6261.0,1181.0,0.0,0.0,0.0,0.0
1630051853092089428,1630051853,0,30306,4780.0,6278.0,1192.0,0.0,0.0,0.0,0.0
1630051853201906634,1630051853,0,30306,4805.0,6294.0,1193.0,0.0,0.0,0.0,0.0
1630051853291445991,1630051853,0,30306,4839.0,6310.0,1219.0,0.0,0.0,0.0,0.0
1630051853401490293,1630051853,0,30306,4864.0,6356.0,1201.0,0.0,0.0,0.0,0.0
1630051853490793216,1630051853,0,30306,4886.0,6402.0,1167.0,0.0,0.0,0.0,0.0
1630051853599112763,1630051853,0,30306,4906.0,6437.0,1149.0,0.0,0.0,0.0,0.0
1630051853693866457,1630051853,0,30306,4912.0,6463.0,1163.0,0.0,0.0,0.0,0.0
1630051853784149417,1630051853,0,30306,4932.0,6486.0,1247.0,0.0,0.0,0.0,0.0
1630051853894138312,1630051853,0,30306,4952.0,6510.0,1313.0,0.0,0.0,0.0,0.0
1630051853982606782,1630051853,0,30306,4978.0,6541.0,1377.0,0.0,0.0,0.0,0.0
1630051854092388822,1630051854,0,30306,5011.0,6584.0,1422.0,0.0,0.0,0.0,0.0
1630051854182325040,1630051854,0,30306,5056.0,6638.0,1465.0,0.0,0.0,0.0,0.0
1630051854291669460,1630051854,0,30306,5090.0,6677.0,1496.0,0.0,0.0,0.0,0.0
1630051854401122635,1630051854,0,30306,5119.0,6728.0,1509.0,0.0,0.0,0.0,0.0
1630051854490633845,1630051854,0,30306,5147.0,6777.0,1495.0,0.0,0.0,0.0,0.0
1630051854590467753,1630051854,0,30306,5174.0,6828.0,1485.0,0.0,0.0,0.0,0.0
1630051854691330450,1630051854,0,30306,5191.0,6873.0,1450.0,0.0,0.0,0.0,0.0
1630051854782212482,1630051854,0,30306,5153.0,6961.0,1445.0,0.0,0.0,0.0,0.0
1630051854892187171,1630051854,0,30306,5121.0,7036.0,1447.0,0.0,0.0,0.0,0.0
1630051854992095390,1630051854,0,30306,5107.0,7106.0,1428.0,0.0,0.0,0.0,0.0
1630051855092567888,1630051855,0,30306,5106.0,7167.0,1395.0,0.0,0.0,0.0,0.0
1630051855192126878,1630051855,0,30306,5076.0,7204.0,1374.0,0.0,0.0,0.0,0.0
1630051855301104964,1630051855,0,30306,5046.0,7231.0,1346.0,0.0,0.0,0.0,0.0
1630051855390795100,1630051855,0,30306,5019.0,7280.0,1323.0,0.0,0.0,0.0,0.0
1630051855480501846,1630051855,0,30306,5014.0,7332.0,1291.0,0.0,0.0,0.0,0.0
1630051855589453218,1630051855,0,30306,5009.0,7385.0,1259.0,0.0,0.0,0.0,0.0
1630051855689869497,1630051855,0,30306,5005.0,7443.0,1229.0,0.0,0.0,0.0,0.0
1630051855789682774,1630051855,0,30306,4994.0,7505.0,1237.0,0.0,0.0,0.0,0.0
1630051855888620288,1630051855,0,30306,4994.0,7561.0,1263.0,0.0,0.0,0.0,0.0
1630051855989153575,1630051855,0,30306,5000.0,7615.0,1293.0,0.0,0.0,0.0,0.0
1630051856088700434,1630051856,0,30306,4991.0,7665.0,1300.0,0.0,0.0,0.0,0.0
1630051856198957395,1630051856,0,30306,4987.0,7719.0,1309.0,0.0,0.0,0.0,0.0
1630051856287847660,1630051856,0,30306,5001.0,7756.0,1344.0,0.0,0.0,0.0,0.0
1630051856398003039,1630051856,0,30306,5021.0,7787.0,1370.0,0.0,0.0,0.0,0.0
1630051856488503035,1630051856,0,30306,5049.0,7815.0,1400.0,0.0,0.0,0.0,0.0
1630051856586767922,1630051856,0,30306,5064.0,7845.0,1447.0,0.0,0.0,0.0,0.0
1630051856688020098,1630051856,0,30306,5072.0,7875.0,1515.0,0.0,0.0,0.0,0.0
1630051856786596190,1630051856,0,30306,5075.0,7897.0,1583.0,0.0,0.0,0.0,0.0
1630051856887006665,1630051856,0,30306,5088.0,7918.0,1641.0,0.0,0.0,0.0,0.0
1630051856997186253,1630051856,0,30306,5110.0,7954.0,1695.0,0.0,0.0,0.0,0.0
1630051857085411290,1630051857,0,30306,5116.0,8001.0,1752.0,0.0,0.0,0.0,0.0
1630051857196449049,1630051857,0,30306,5132.0,8040.0,1807.0,0.0,0.0,0.0,0.0
1630051857285286840,1630051857,0,30306,5146.0,8088.0,1843.0,0.0,0.0,0.0,0.0
1630051857397002463,1630051857,0,30306,5148.0,8140.0,1865.0,0.0,0.0,0.0,0.0
1630051857484669192,1630051857,0,30306,5157.0,8182.0,1893.0,0.0,0.0,0.0,0.0
1630051857584645876,1630051857,0,30306,5172.0,8227.0,1952.0,0.0,0.0,0.0,0.0
1630051857696591337,1630051857,0,30306,5182.0,8268.0,2024.0,0.0,0.0,0.0,0.0
1630051857784768249,1630051857,0,30306,5130.0,8303.0,1991.0,0.0,0.0,0.0,0.0
1630051857895364094,1630051857,0,30306,5048.0,8366.0,1915.0,0.0,0.0,0.0,0.0
1630051857984358596,1630051857,0,30306,4949.0,8433.0,1831.0,0.0,0.0,0.0,0.0
1630051858084176566,1630051858,0,30306,4871.0,8496.0,1788.0,0.0,0.0,0.0,0.0
1630051858194153287,1630051858,0,30306,4785.0,8554.0,1717.0,0.0,0.0,0.0,0.0
1630051858284664525,1630051858,0,30306,4721.0,8608.0,1661.0,0.0,0.0,0.0,0.0
1630051858393612920,1630051858,0,30306,4665.0,8658.0,1624.0,0.0,0.0,0.0,0.0
1630051858482451007,1630051858,0,30306,4637.0,8703.0,1574.0,0.0,0.0,0.0,0.0
1630051858594507491,1630051858,0,30306,4609.0,8741.0,1543.0,0.0,0.0,0.0,0.0
1630051858682381676,1630051858,0,30306,4583.0,8766.0,1534.0,0.0,0.0,0.0,0.0
1630051858792518166,1630051858,0,30306,4584.0,8793.0,1516.0,0.0,0.0,0.0,0.0
1630051858893347172,1630051858,0,30306,4598.0,8825.0,1502.0,0.0,0.0,0.0,0.0
1630051858981903972,1630051858,0,30306,4630.0,8870.0,1474.0,0.0,0.0,0.0,0.0
1630051859091566812,1630051859,0,30306,4676.0,8917.0,1441.0,0.0,0.0,0.0,0.0
1630051859182418091,1630051859,0,30306,4736.0,8946.0,1436.0,0.0,0.0,0.0,0.0
1630051859292469123,1630051859,0,30306,4793.0,8979.0,1431.0,0.0,0.0,0.0,0.0
1630051859381160458,1630051859,0,30306,4857.0,8985.0,1462.0,0.0,0.0,0.0,0.0
1630051859490790340,1630051859,0,30306,4906.0,8965.0,1522.0,0.0,0.0,0.0,0.0
1630051859580010735,1630051859,0,30306,4923.0,8948.0,1568.0,0.0,0.0,0.0,0.0
1630051859690536263,1630051859,0,30306,4938.0,8941.0,1625.0,0.0,0.0,0.0,0.0
1630051859791238934,1630051859,0,30306,4965.0,8935.0,1678.0,0.0,0.0,0.0,0.0
1630051859890195003,1630051859,0,30306,4968.0,8936.0,1734.0,0.0,0.0,0.0,0.0
1630051859989962907,1630051859,0,30306,4947.0,8964.0,1721.0,0.0,0.0,0.0,0.0
1630051860090014050,1630051860,0,30306,4878.0,8995.0,1714.0,0.0,0.0,0.0,0.0
1630051860189706916,1630051860,0,30306,4824.0,9022.0,1715.0,0.0,0.0,0.0,0.0
1630051860301003532,1630051860,0,30306,4834.0,9061.0,1704.0,0.0,0.0,0.0,0.0
1630051860390401647,1630051860,0,30306,4830.0,9102.0,1686.0,0.0,0.0,0.0,0.0
1630051860479955643,1630051860,0,30306,4792.0,9109.0,1699.0,0.0,0.0,0.0,0.0
1630051860590041071,1630051860,0,30306,4773.0,9116.0,1711.0,0.0,0.0,0.0,0.0
1630051860690621074,1630051860,0,30306,4738.0,9095.0,1771.0,0.0,0.0,0.0,0.0
1630051860798297009,1630051860,0,30306,4686.0,9112.0,1891.0,0.0,0.0,0.0,0.0
1630051860888871103,1630051860,0,30306,4640.0,9098.0,2018.0,0.0,0.0,0.0,0.0
1630051860999014609,1630051860,0,30306,4619.0,9101.0,2123.0,0.0,0.0,0.0,0.0
1630051861088359591,1630051861,0,30306,4647.0,9115.0,2145.0,0.0,0.0,0.0,0.0
1630051861187899093,1630051861,0,30306,4660.0,9140.0,2161.0,0.0,0.0,0.0,0.0
1630051861298578277,1630051861,0,30306,4677.0,9175.0,2127.0,0.0,0.0,0.0,0.0
1630051861387333299,1630051861,0,30306,4685.0,9202.0,2099.0,0.0,0.0,0.0,0.0
1630051861499371630,1630051861,0,30306,4677.0,9222.0,2068.0,0.0,0.0,0.0,0.0
1630051861587511743,1630051861,0,30306,4656.0,9236.0,2040.0,0.0,0.0,0.0,0.0
1630051861685946654,1630051861,0,30306,4618.0,9245.0,2005.0,0.0,0.0,0.0,0.0
1630051861795705162,1630051861,0,30306,4581.0,9294.0,1998.0,0.0,0.0,0.0,0.0
1630051861885057168,1630051861,0,30306,4536.0,9346.0,2005.0,0.0,0.0,0.0,0.0
1630051861995772203,1630051861,0,30306,4510.0,9385.0,1986.0,0.0,0.0,0.0,0.0
1630051862085391067,1630051862,0,30306,4496.0,9405.0,1953.0,0.0,0.0,0.0,0.0
1630051862195197473,1630051862,0,30306,4487.0,9398.0,1942.0,0.0,0.0,0.0,0.0
1630051862283567778,1630051862,0,30306,4485.0,9389.0,1939.0,0.0,0.0,0.0,0.0
1630051862384187131,1630051862,0,30306,4459.0,9378.0,1934.0,0.0,0.0,0.0,0.0
1630051862495255790,1630051862,0,30306,4423.0,9367.0,1945.0,0.0,0.0,0.0,0.0
1630051862582861028,1630051862,0,30306,4371.0,9358.0,1971.0,0.0,0.0,0.0,0.0
1630051862694168726,1630051862,0,30306,4309.0,9343.0,1996.0,0.0,0.0,0.0,0.0
1630051862782797825,1630051862,0,30306,4284.0,9342.0,1980.0,0.0,0.0,0.0,0.0
1630051862893625101,1630051862,0,30306,4253.0,9338.0,1968.0,0.0,0.0,0.0,0.0
1630051862982789310,1630051862,0,30306,4222.0,9336.0,1962.0,0.0,0.0,0.0,0.0
1630051863093154003,1630051863,0,30306,4177.0,9323.0,1972.0,0.0,0.0,0.0,0.0
1630051863193396845,1630051863,0,30306,4129.0,9308.0,1981.0,0.0,0.0,0.0,0.0
1630051863283394824,1630051863,0,30306,4084.0,9298.0,1982.0,0.0,0.0,0.0,0.0
1630051863392433104,1630051863,0,30306,4057.0,9278.0,1996.0,0.0,0.0,0.0,0.0
1630051863482335983,1630051863,0,30306,4035.0,9264.0,2021.0,0.0,0.0,0.0,0.0
1630051863592983811,1630051863,0,30306,4019.0,9260.0,2022.0,0.0,0.0,0.0,0.0
1630051863684893114,1630051863,0,30306,4010.0,9286.0,2005.0,0.0,0.0,0.0,0.0
1630051863792967683,1630051863,0,30306,4014.0,9313.0,1935.0,0.0,0.0,0.0,0.0
1630051863892527102,1630051863,0,30306,3987.0,9303.0,1848.0,0.0,0.0,0.0,0.0
1630051863982855753,1630051863,0,30306,3949.0,9315.0,1793.0,0.0,0.0,0.0,0.0
1630051864091780427,1630051864,0,30306,3906.0,9319.0,1763.0,0.0,0.0,0.0,0.0
1630051864181932456,1630051864,0,30306,3874.0,9315.0,1785.0,0.0,0.0,0.0,0.0
1630051864292812521,1630051864,0,30306,3865.0,9351.0,1772.0,0.0,0.0,0.0,0.0
1630051864380608470,1630051864,0,30306,3838.0,9394.0,1751.0,0.0,0.0,0.0,0.0
1630051864491240247,1630051864,0,30306,3807.0,9430.0,1731.0,0.0,0.0,0.0,0.0
1630051864591364120,1630051864,0,30306,3794.0,9460.0,1708.0,0.0,0.0,0.0,0.0
1630051864680790087,1630051864,0,30306,3779.0,9466.0,1689.0,0.0,0.0,0.0,0.0
1630051864790367730,1630051864,0,30306,3769.0,9467.0,1642.0,0.0,0.0,0.0,0.0
1630051864914893926,1630051864,0,30306,3727.0,9394.0,1695.0,0.0,0.0,0.0,0.0
1630051864991466866,1630051864,0,30306,3708.0,9318.0,1756.0,0.0,0.0,0.0,0.0
1630051865080755334,1630051865,0,30306,3722.0,9274.0,1778.0,0.0,0.0,0.0,0.0
1630051865190366730,1630051865,0,30306,3708.0,9298.0,1713.0,0.0,0.0,0.0,0.0
1630051865290486002,1630051865,0,30306,3675.0,9320.0,1679.0,0.0,0.0,0.0,0.0
1630051865390647185,1630051865,0,30306,3638.0,9306.0,1675.0,0.0,0.0,0.0,0.0
1630051865490649545,1630051865,0,30306,3607.0,9302.0,1651.0,0.0,0.0,0.0,0.0
1630051865580749526,1630051865,0,30306,3568.0,9289.0,1628.0,0.0,0.0,0.0,0.0
1630051865691130926,1630051865,0,30306,3537.0,9286.0,1596.0,0.0,0.0,0.0,0.0
1630051865780291521,1630051865,0,30306,3464.0,9243.0,1598.0,0.0,0.0,0.0,0.0
1630051865889513831,1630051865,0,30306,3399.0,9222.0,1622.0,0.0,0.0,0.0,0.0
1630051865979735630,1630051865,0,30306,3328.0,9219.0,1644.0,0.0,0.0,0.0,0.0
1630051866089540831,1630051866,0,30306,3269.0,9218.0,1669.0,0.0,0.0,0.0,0.0
1630051866190980402,1630051866,0,30306,3255.0,9253.0,1651.0,0.0,0.0,0.0,0.0
1630051866280141742,1630051866,0,30306,3232.0,9287.0,1648.0,0.0,0.0,0.0,0.0
1630051866389721280,1630051866,0,30306,3209.0,9294.0,1672.0,0.0,0.0,0.0,0.0
1630051866480536331,1630051866,0,30306,3205.0,9289.0,1700.0,0.0,0.0,0.0,0.0
1630051866589769235,1630051866,0,30306,3192.0,9262.0,1748.0,0.0,0.0,0.0,0.0
1630051866690322892,1630051866,0,30306,3151.0,9252.0,1775.0,0.0,0.0,0.0,0.0
1630051866790133549,1630051866,0,30306,3062.0,9236.0,1783.0,0.0,0.0,0.0,0.0
1630051866890797154,1630051866,0,30306,2990.0,9229.0,1787.0,0.0,0.0,0.0,0.0
1630051866980119753,1630051866,0,30306,2891.0,9179.0,1817.0,0.0,0.0,0.0,0.0
1630051867090110451,1630051867,0,30306,2842.0,9150.0,1782.0,0.0,0.0,0.0,0.0
1630051867198296461,1630051867,0,30306,2795.0,9132.0,1738.0,0.0,0.0,0.0,0.0
1630051867288790419,1630051867,0,30306,2732.0,9135.0,1661.0,0.0,0.0,0.0,0.0
1630051867387889967,1630051867,0,30306,2694.0,9109.0,1660.0,0.0,0.0,0.0,0.0
1630051867488358410,1630051867,0,30306,2658.0,9065.0,1661.0,0.0,0.0,0.0,0.0
1630051867588660070,1630051867,0,30306,2626.0,9027.0,1661.0,0.0,0.0,0.0,0.0
1630051867699362419,1630051867,0,30306,2597.0,9005.0,1650.0,0.0,0.0,0.0,0.0
1630051867787669397,1630051867,0,30306,2544.0,8998.0,1633.0,0.0,0.0,0.0,0.0
1630051867878560750,1630051867,0,30306,2496.0,8998.0,1645.0,0.0,0.0,0.0,0.0
1630051867988263191,1630051867,0,30306,2437.0,8999.0,1639.0,0.0,0.0,0.0,0.0
1630051868077727596,1630051868,0,30306,2396.0,9016.0,1634.0,0.0,0.0,0.0,0.0
1630051868188814669,1630051868,0,30306,2362.0,9042.0,1613.0,0.0,0.0,0.0,0.0
1630051868277927821,1630051868,0,30306,2319.0,9084.0,1579.0,0.0,0.0,0.0,0.0
1630051868386983956,1630051868,0,30306,2281.0,9116.0,1539.0,0.0,0.0,0.0,0.0
1630051868476934398,1630051868,0,30306,2251.0,9137.0,1535.0,0.0,0.0,0.0,0.0
1630051868587530165,1630051868,0,30306,2227.0,9156.0,1555.0,0.0,0.0,0.0,0.0
1630051868687435795,1630051868,0,30306,2231.0,9206.0,1567.0,0.0,0.0,0.0,0.0
1630051868775838220,1630051868,0,30306,2231.0,9257.0,1558.0,0.0,0.0,0.0,0.0
1630051868884361298,1630051868,0,30306,2220.0,9295.0,1571.0,0.0,0.0,0.0,0.0
1630051868984220373,1630051868,0,30306,2198.0,9322.0,1561.0,0.0,0.0,0.0,0.0
1630051869095416463,1630051869,0,30306,2164.0,9336.0,1529.0,0.0,0.0,0.0,0.0
1630051869184349014,1630051869,0,30306,2108.0,9334.0,1538.0,0.0,0.0,0.0,0.0
1630051869293882157,1630051869,0,30306,2038.0,9295.0,1528.0,0.0,0.0,0.0,0.0
1630051869384097727,1630051869,0,30306,1990.0,9285.0,1509.0,0.0,0.0,0.0,0.0
1630051869493555212,1630051869,0,30306,1950.0,9284.0,1490.0,0.0,0.0,0.0,0.0
1630051869583531758,1630051869,0,30306,1905.0,9255.0,1434.0,0.0,0.0,0.0,0.0
1630051869683685222,1630051869,0,30306,1880.0,9232.0,1347.0,0.0,0.0,0.0,0.0
1630051869793359672,1630051869,0,30306,1860.0,9240.0,1268.0,0.0,0.0,0.0,0.0
1630051869883402791,1630051869,0,30306,1850.0,9220.0,1239.0,0.0,0.0,0.0,0.0
1630051869993159049,1630051869,0,30306,1815.0,9174.0,1278.0,0.0,0.0,0.0,0.0
1630051870082606703,1630051870,0,30306,1742.0,9178.0,1247.0,0.0,0.0,0.0,0.0
1630051870183228748,1630051870,0,30306,1703.0,9186.0,1179.0,0.0,0.0,0.0,0.0
1630051870282586327,1630051870,0,30306,1661.0,9182.0,1149.0,0.0,0.0,0.0,0.0
1630051870381274308,1630051870,0,30306,1616.0,9146.0,1154.0,0.0,0.0,0.0,0.0
1630051870492529121,1630051870,0,30306,1612.0,9191.0,1172.0,0.0,0.0,0.0,0.0
1630051870581276203,1630051870,0,30306,1583.0,9262.0,1171.0,0.0,0.0,0.0,0.0
1630051870692542503,1630051870,0,30306,1595.0,9322.0,1146.0,0.0,0.0,0.0,0.0
1630051870781536177,1630051870,0,30306,1554.0,9364.0,1148.0,0.0,0.0,0.0,0.0
1630051870879966455,1630051870,0,30306,1526.0,9391.0,1172.0,0.0,0.0,0.0,0.0
1630051870992748586,1630051870,0,30306,1439.0,9364.0,1284.0,0.0,0.0,0.0,0.0
1630051871079903517,1630051871,0,30306,1349.0,9354.0,1435.0,0.0,0.0,0.0,0.0
1630051871190273382,1630051871,0,30306,1266.0,9350.0,1557.0,0.0,0.0,0.0,0.0
1630051871280091236,1630051871,0,30306,1190.0,9355.0,1659.0,0.0,0.0,0.0,0.0
1630051871380887958,1630051871,0,30306,1144.0,9366.0,1718.0,0.0,0.0,0.0,0.0
1630051871481955315,1630051871,0,30306,1094.0,9373.0,1760.0,0.0,0.0,0.0,0.0
1630051871581103298,1630051871,0,30306,1054.0,9380.0,1767.0,0.0,0.0,0.0,0.0
1630051871692389423,1630051871,0,30306,984.0,9360.0,1803.0,0.0,0.0,0.0,0.0
1630051871782928997,1630051871,0,30306,956.0,9358.0,1776.0,0.0,0.0,0.0,0.0
1630051871891808213,1630051871,0,30306,941.0,9374.0,1768.0,0.0,0.0,0.0,0.0
1630051871980845510,1630051871,0,30306,905.0,9353.0,1778.0,0.0,0.0,0.0,0.0
1630051872080344455,1630051872,0,30306,867.0,9348.0,1754.0,0.0,0.0,0.0,0.0
1630051872191293494,1630051872,0,30306,836.0,9319.0,1733.0,0.0,0.0,0.0,0.0
1630051872280405343,1630051872,0,30306,797.0,9287.0,1703.0,0.0,0.0,0.0,0.0
1630051872389798433,1630051872,0,30306,744.0,9241.0,1698.0,0.0,0.0,0.0,0.0
1630051872489950411,1630051872,0,30306,681.0,9188.0,1686.0,0.0,0.0,0.0,0.0
1630051872589642502,1630051872,0,30306,592.0,9134.0,1676.0,0.0,0.0,0.0,0.0
1630051872678926212,1630051872,0,30306,510.0,9094.0,1674.0,0.0,0.0,0.0,0.0
1630051872789585283,1630051872,0,30306,478.0,9084.0,1675.0,0.0,0.0,0.0,0.0
