%time,field.data0.header.seq,field.data0.header.stamp,field.data0.header.frame_id,field.data0.pose.position.x,field.data0.pose.position.y,field.data0.pose.position.z,field.data0.pose.orientation.x,field.data0.pose.orientation.y,field.data0.pose.orientation.z,field.data0.pose.orientation.w
1630063066263355411,1630063066,0,vb6b0001,1459.0,3265.0,1501.0,0.0,0.0,0.0,0.0
1630063066269463072,1630063066,0,vb6b0001,1459.0,3266.0,1498.0,0.0,0.0,0.0,0.0
1630063066280561430,1630063066,0,vb6b0001,1459.0,3267.0,1498.0,0.0,0.0,0.0,0.0
1630063066287878704,0,0,,54321.0,54321.0,54321.0,0.0,0.0,0.0,0.0
1630063066298582146,1630063066,0,vb6b0001,1458.0,3269.0,1492.0,0.0,0.0,0.0,0.0
1630063066300832617,1630063066,0,vb6b0001,1458.0,3269.0,1492.0,0.0,0.0,0.0,0.0
1630063066310779555,1630063066,0,vb6b0001,1458.0,3270.0,1490.0,0.0,0.0,0.0,0.0
1630063066316525020,1630063066,0,vb6b0001,1458.0,3271.0,1487.0,0.0,0.0,0.0,0.0
1630063066328978524,1630063066,0,vb6b0001,1461.0,3272.0,1485.0,0.0,0.0,0.0,0.0
1630063066331247800,1630063066,0,vb6b0001,1463.0,3272.0,1485.0,0.0,0.0,0.0,0.0
1630063066337673738,1630063066,0,vb6b0001,1463.0,3271.0,1482.0,0.0,0.0,0.0,0.0
1630063066344543931,1630063066,0,vb6b0001,1463.0,3271.0,1482.0,0.0,0.0,0.0,0.0
1630063066355454390,1630063066,0,vb6b0001,1464.0,3270.0,1478.0,0.0,0.0,0.0,0.0
1630063066362000830,1630063066,0,vb6b0001,1465.0,3271.0,1477.0,0.0,0.0,0.0,0.0
1630063066368830726,1630063066,0,vb6b0001,1465.0,3274.0,1471.0,0.0,0.0,0.0,0.0
1630063066380419741,1630063066,0,vb6b0001,1466.0,3275.0,1469.0,0.0,0.0,0.0,0.0
1630063066386122435,1630063066,0,vb6b0001,1466.0,3276.0,1467.0,0.0,0.0,0.0,0.0
1630063066392553905,1630063066,0,vb6b0001,1465.0,3277.0,1466.0,0.0,0.0,0.0,0.0
1630063066400478404,1630063066,0,vb6b0001,1466.0,3278.0,1463.0,0.0,0.0,0.0,0.0
1630063066410379588,1630063066,0,vb6b0001,1466.0,3280.0,1460.0,0.0,0.0,0.0,0.0
1630063066417147744,1630063066,0,vb6b0001,1466.0,3280.0,1460.0,0.0,0.0,0.0,0.0
1630063066419172513,0,0,,54321.0,54321.0,54321.0,0.0,0.0,0.0,0.0
1630063066428530992,1630063066,0,vb6b0001,1467.0,3282.0,1458.0,0.0,0.0,0.0,0.0
1630063066431333571,1630063066,0,vb6b0001,1467.0,3282.0,1457.0,0.0,0.0,0.0,0.0
1630063066439719349,0,0,,54321.0,54321.0,54321.0,0.0,0.0,0.0,0.0
1630063066442049028,1630063066,0,vb6b0001,1467.0,3284.0,1451.0,0.0,0.0,0.0,0.0
1630063066450483463,1630063066,0,vb6b0001,1467.0,3284.0,1449.0,0.0,0.0,0.0,0.0
1630063066456993606,1630063066,0,vb6b0001,1467.0,3285.0,1450.0,0.0,0.0,0.0,0.0
1630063066466017824,1630063066,0,vb6b0001,1468.0,3284.0,1449.0,0.0,0.0,0.0,0.0
1630063066472705198,1630063066,0,vb6b0001,1469.0,3283.0,1451.0,0.0,0.0,0.0,0.0
1630063066483522514,1630063066,0,vb6b0001,1470.0,3281.0,1453.0,0.0,0.0,0.0,0.0
1630063066489976651,1630063066,0,vb6b0001,1470.0,3281.0,1452.0,0.0,0.0,0.0,0.0
1630063066492020136,0,0,,54321.0,54321.0,54321.0,0.0,0.0,0.0,0.0
1630063066504677404,1630063066,0,vb6b0001,1469.0,3279.0,1451.0,0.0,0.0,0.0,0.0
1630063066506954596,1630063066,0,vb6b0001,1470.0,3278.0,1451.0,0.0,0.0,0.0,0.0
1630063066510875512,1630063066,0,vb6b0001,1469.0,3276.0,1451.0,0.0,0.0,0.0,0.0
1630063066519242817,1630063066,0,vb6b0001,1469.0,3274.0,1451.0,0.0,0.0,0.0,0.0
1630063066529285777,1630063066,0,vb6b0001,1467.0,3272.0,1450.0,0.0,0.0,0.0,0.0
1630063066536020322,1630063066,0,vb6b0001,1467.0,3271.0,1450.0,0.0,0.0,0.0,0.0
1630063066543145183,1630063066,0,vb6b0001,1467.0,3270.0,1449.0,0.0,0.0,0.0,0.0
1630063066549798674,1630063066,0,vb6b0001,1467.0,3270.0,1448.0,0.0,0.0,0.0,0.0
1630063066556302423,1630063066,0,vb6b0001,1467.0,3269.0,1447.0,0.0,0.0,0.0,0.0
1630063066562750690,1630063066,0,vb6b0001,1468.0,3269.0,1446.0,0.0,0.0,0.0,0.0
1630063066570776674,1630063066,0,vb6b0001,1467.0,3268.0,1449.0,0.0,0.0,0.0,0.0
1630063066580808914,1630063066,0,vb6b0001,1467.0,3268.0,1450.0,0.0,0.0,0.0,0.0
1630063066586733173,1630063066,0,vb6b0001,1466.0,3267.0,1450.0,0.0,0.0,0.0,0.0
1630063066594278191,1630063066,0,vb6b0001,1467.0,3265.0,1450.0,0.0,0.0,0.0,0.0
1630063066601014785,1630063066,0,vb6b0001,1466.0,3265.0,1449.0,0.0,0.0,0.0,0.0
1630063066611794987,1630063066,0,vb6b0001,1466.0,3265.0,1450.0,0.0,0.0,0.0,0.0
1630063066619371957,1630063066,0,vb6b0001,1466.0,3266.0,1448.0,0.0,0.0,0.0,0.0
1630063066621513599,0,0,,54321.0,54321.0,54321.0,0.0,0.0,0.0,0.0
1630063066632009139,1630063066,0,vb6b0001,1465.0,3265.0,1448.0,0.0,0.0,0.0,0.0
1630063066634744435,1630063066,0,vb6b0001,1465.0,3266.0,1449.0,0.0,0.0,0.0,0.0
1630063066641543381,1630063066,0,vb6b0001,1465.0,3265.0,1449.0,0.0,0.0,0.0,0.0
1630063066650114357,1630063066,0,vb6b0001,1466.0,3264.0,1451.0,0.0,0.0,0.0,0.0
1630063066661146184,1630063066,0,vb6b0001,1467.0,3264.0,1454.0,0.0,0.0,0.0,0.0
1630063066663759551,1630063066,0,vb6b0001,1467.0,3263.0,1454.0,0.0,0.0,0.0,0.0
1630063066670944602,1630063066,0,vb6b0001,1467.0,3262.0,1456.0,0.0,0.0,0.0,0.0
1630063066678870247,1630063066,0,vb6b0001,1467.0,3261.0,1455.0,0.0,0.0,0.0,0.0
1630063066688948616,1630063066,0,vb6b0001,1468.0,3261.0,1456.0,0.0,0.0,0.0,0.0
1630063066694011169,1630063066,0,vb6b0001,1468.0,3261.0,1456.0,0.0,0.0,0.0,0.0
1630063066699742509,1630063066,0,vb6b0001,1468.0,3261.0,1455.0,0.0,0.0,0.0,0.0
1630063066709864374,1630063066,0,vb6b0001,1468.0,3259.0,1455.0,0.0,0.0,0.0,0.0
1630063066717435311,1630063066,0,vb6b0001,1469.0,3258.0,1454.0,0.0,0.0,0.0,0.0
1630063066723366941,1630063066,0,vb6b0001,1470.0,3257.0,1455.0,0.0,0.0,0.0,0.0
1630063066729906095,1630063066,0,vb6b0001,1471.0,3258.0,1454.0,0.0,0.0,0.0,0.0
1630063066740103841,1630063066,0,vb6b0001,1472.0,3257.0,1455.0,0.0,0.0,0.0,0.0
1630063066747527214,1630063066,0,vb6b0001,1474.0,3256.0,1456.0,0.0,0.0,0.0,0.0
1630063066749506175,0,0,,54321.0,54321.0,54321.0,0.0,0.0,0.0,0.0
1630063066757845288,1630063066,0,vb6b0001,1475.0,3255.0,1454.0,0.0,0.0,0.0,0.0
1630063066761011823,1630063066,0,vb6b0001,1476.0,3256.0,1454.0,0.0,0.0,0.0,0.0
1630063066768904677,1630063066,0,vb6b0001,1477.0,3257.0,1453.0,0.0,0.0,0.0,0.0
1630063066775523375,1630063066,0,vb6b0001,1479.0,3255.0,1456.0,0.0,0.0,0.0,0.0
1630063066787611275,1630063066,0,vb6b0001,1480.0,3254.0,1459.0,0.0,0.0,0.0,0.0
1630063066795211538,1630063066,0,vb6b0001,1480.0,3253.0,1459.0,0.0,0.0,0.0,0.0
1630063066801662198,1630063066,0,vb6b0001,1482.0,3253.0,1459.0,0.0,0.0,0.0,0.0
1630063066813196311,1630063066,0,vb6b0001,1484.0,3253.0,1459.0,0.0,0.0,0.0,0.0
1630063066819223153,1630063066,0,vb6b0001,1485.0,3252.0,1459.0,0.0,0.0,0.0,0.0
1630063066825343006,1630063066,0,vb6b0001,1485.0,3252.0,1458.0,0.0,0.0,0.0,0.0
1630063066836770706,1630063066,0,vb6b0001,1486.0,3254.0,1456.0,0.0,0.0,0.0,0.0
1630063066843873378,1630063066,0,vb6b0001,1487.0,3255.0,1456.0,0.0,0.0,0.0,0.0
1630063066849504941,1630063066,0,vb6b0001,1488.0,3256.0,1454.0,0.0,0.0,0.0,0.0
1630063066857051544,1630063066,0,vb6b0001,1488.0,3257.0,1455.0,0.0,0.0,0.0,0.0
1630063066866039865,1630063066,0,vb6b0001,1491.0,3257.0,1451.0,0.0,0.0,0.0,0.0
1630063066872769313,1630063066,0,vb6b0001,1492.0,3256.0,1451.0,0.0,0.0,0.0,0.0
1630063066875178352,0,0,,54321.0,54321.0,54321.0,0.0,0.0,0.0,0.0
1630063066885640154,1630063066,0,vb6b0001,1492.0,3256.0,1447.0,0.0,0.0,0.0,0.0
1630063066888173779,1630063066,0,vb6b0001,1493.0,3256.0,1447.0,0.0,0.0,0.0,0.0
1630063066895399923,1630063066,0,vb6b0001,1494.0,3257.0,1447.0,0.0,0.0,0.0,0.0
1630063066903177872,1630063066,0,vb6b0001,1496.0,3259.0,1446.0,0.0,0.0,0.0,0.0
1630063066915131575,1630063066,0,vb6b0001,1500.0,3260.0,1441.0,0.0,0.0,0.0,0.0
1630063066916926034,1630063066,0,vb6b0001,1500.0,3261.0,1440.0,0.0,0.0,0.0,0.0
1630063066926355695,1630063066,0,vb6b0001,1501.0,3262.0,1439.0,0.0,0.0,0.0,0.0
1630063066933038428,1630063066,0,vb6b0001,1502.0,3262.0,1439.0,0.0,0.0,0.0,0.0
1630063066942307934,1630063066,0,vb6b0001,1502.0,3261.0,1437.0,0.0,0.0,0.0,0.0
1630063066949752130,1630063066,0,vb6b0001,1503.0,3263.0,1437.0,0.0,0.0,0.0,0.0
1630063066956323049,1630063066,0,vb6b0001,1502.0,3264.0,1437.0,0.0,0.0,0.0,0.0
1630063066968880891,1630063066,0,vb6b0001,1505.0,3264.0,1436.0,0.0,0.0,0.0,0.0
1630063066975468410,1630063066,0,vb6b0001,1506.0,3264.0,1435.0,0.0,0.0,0.0,0.0
1630063066983133057,1630063066,0,vb6b0001,1506.0,3263.0,1431.0,0.0,0.0,0.0,0.0
1630063066989836504,1630063066,0,vb6b0001,1508.0,3264.0,1430.0,0.0,0.0,0.0,0.0
1630063067001755189,1630063066,0,vb6b0001,1510.0,3264.0,1428.0,0.0,0.0,0.0,0.0
1630063067004458831,0,0,,54321.0,54321.0,54321.0,0.0,0.0,0.0,0.0
1630063067006781092,1630063066,0,vb6b0001,1511.0,3264.0,1426.0,0.0,0.0,0.0,0.0
1630063067012310395,1630063066,0,vb6b0001,1510.0,3265.0,1426.0,0.0,0.0,0.0,0.0
1630063067026868526,1630063066,0,vb6b0001,1511.0,3266.0,1424.0,0.0,0.0,0.0,0.0
1630063067029246610,1630063066,0,vb6b0001,1511.0,3266.0,1421.0,0.0,0.0,0.0,0.0
1630063067036821082,1630063066,0,vb6b0001,1512.0,3267.0,1419.0,0.0,0.0,0.0,0.0
1630063067043520321,1630063066,0,vb6b0001,1513.0,3269.0,1416.0,0.0,0.0,0.0,0.0
1630063067055491461,1630063066,0,vb6b0001,1513.0,3270.0,1411.0,0.0,0.0,0.0,0.0
1630063067057730855,1630063066,0,vb6b0001,1514.0,3270.0,1411.0,0.0,0.0,0.0,0.0
1630063067064451112,1630063066,0,vb6b0001,1514.0,3270.0,1409.0,0.0,0.0,0.0,0.0
1630063067072334350,1630063066,0,vb6b0001,1516.0,3271.0,1407.0,0.0,0.0,0.0,0.0
1630063067082068887,1630063066,0,vb6b0001,1518.0,3271.0,1406.0,0.0,0.0,0.0,0.0
1630063067088876417,1630063067,0,vb6b0001,1519.0,3270.0,1402.0,0.0,0.0,0.0,0.0
1630063067095707678,1630063067,0,vb6b0001,1519.0,3272.0,1400.0,0.0,0.0,0.0,0.0
1630063067106602618,1630063067,0,vb6b0001,1520.0,3273.0,1397.0,0.0,0.0,0.0,0.0
1630063067112306690,1630063067,0,vb6b0001,1520.0,3273.0,1395.0,0.0,0.0,0.0,0.0
1630063067119527183,1630063067,0,vb6b0001,1521.0,3273.0,1391.0,0.0,0.0,0.0,0.0
1630063067127270539,1630063067,0,vb6b0001,1520.0,3274.0,1388.0,0.0,0.0,0.0,0.0
1630063067137237125,1630063067,0,vb6b0001,1522.0,3274.0,1388.0,0.0,0.0,0.0,0.0
1630063067145695123,0,0,,54321.0,54321.0,54321.0,0.0,0.0,0.0,0.0
1630063067158200852,1630063067,0,vb6b0001,1523.0,3273.0,1387.0,0.0,0.0,0.0,0.0
1630063067160377117,1630063067,0,vb6b0001,1524.0,3273.0,1386.0,0.0,0.0,0.0,0.0
1630063067164319607,1630063067,0,vb6b0001,1523.0,3273.0,1386.0,0.0,0.0,0.0,0.0
1630063067170542830,1630063067,0,vb6b0001,1524.0,3271.0,1389.0,0.0,0.0,0.0,0.0
1630063067180618407,1630063067,0,vb6b0001,1523.0,3270.0,1389.0,0.0,0.0,0.0,0.0
1630063067192687525,1630063067,0,vb6b0001,1522.0,3269.0,1390.0,0.0,0.0,0.0,0.0
1630063067198926455,1630063067,0,vb6b0001,1523.0,3267.0,1391.0,0.0,0.0,0.0,0.0
1630063067202432873,1630063067,0,vb6b0001,1523.0,3265.0,1390.0,0.0,0.0,0.0,0.0
1630063067212821513,1630063067,0,vb6b0001,1521.0,3264.0,1391.0,0.0,0.0,0.0,0.0
1630063067220462202,1630063067,0,vb6b0001,1522.0,3263.0,1393.0,0.0,0.0,0.0,0.0
1630063067222257535,0,0,,54321.0,54321.0,54321.0,0.0,0.0,0.0,0.0
1630063067231374281,1630063067,0,vb6b0001,1522.0,3260.0,1393.0,0.0,0.0,0.0,0.0
1630063067234019297,1630063067,0,vb6b0001,1521.0,3260.0,1394.0,0.0,0.0,0.0,0.0
1630063067241933771,1630063067,0,vb6b0001,1522.0,3259.0,1394.0,0.0,0.0,0.0,0.0
1630063067248549028,1630063067,0,vb6b0001,1522.0,3258.0,1395.0,0.0,0.0,0.0,0.0
1630063067258668658,1630063067,0,vb6b0001,1521.0,3255.0,1396.0,0.0,0.0,0.0,0.0
1630063067261482229,1630063067,0,vb6b0001,1520.0,3255.0,1397.0,0.0,0.0,0.0,0.0
1630063067268445898,1630063067,0,vb6b0001,1520.0,3253.0,1401.0,0.0,0.0,0.0,0.0
1630063067277761596,1630063067,0,vb6b0001,1519.0,3252.0,1401.0,0.0,0.0,0.0,0.0
1630063067286409056,1630063067,0,vb6b0001,1518.0,3251.0,1403.0,0.0,0.0,0.0,0.0
1630063067293750962,1630063067,0,vb6b0001,1517.0,3251.0,1403.0,0.0,0.0,0.0,0.0
1630063067301618922,1630063067,0,vb6b0001,1518.0,3250.0,1405.0,0.0,0.0,0.0,0.0
1630063067310863901,1630063067,0,vb6b0001,1516.0,3246.0,1405.0,0.0,0.0,0.0,0.0
1630063067318610608,1630063067,0,vb6b0001,1517.0,3245.0,1406.0,0.0,0.0,0.0,0.0
1630063067327672205,1630063067,0,vb6b0001,1518.0,3246.0,1407.0,0.0,0.0,0.0,0.0
1630063067340759377,1630063067,0,vb6b0001,1517.0,3248.0,1412.0,0.0,0.0,0.0,0.0
1630063067347193221,1630063067,0,vb6b0001,1515.0,3249.0,1412.0,0.0,0.0,0.0,0.0
1630063067349270582,0,0,,54321.0,54321.0,54321.0,0.0,0.0,0.0,0.0
1630063067358359701,1630063067,0,vb6b0001,1511.0,3247.0,1413.0,0.0,0.0,0.0,0.0
1630063067361193577,1630063067,0,vb6b0001,1510.0,3247.0,1415.0,0.0,0.0,0.0,0.0
1630063067370533170,1630063067,0,vb6b0001,1508.0,3247.0,1417.0,0.0,0.0,0.0,0.0
1630063067376223183,1630063067,0,vb6b0001,1506.0,3247.0,1419.0,0.0,0.0,0.0,0.0
1630063067387583128,1630063067,0,vb6b0001,1503.0,3247.0,1423.0,0.0,0.0,0.0,0.0
1630063067393932589,1630063067,0,vb6b0001,1502.0,3248.0,1423.0,0.0,0.0,0.0,0.0
1630063067400661864,1630063067,0,vb6b0001,1500.0,3247.0,1425.0,0.0,0.0,0.0,0.0
1630063067411026762,1630063067,0,vb6b0001,1498.0,3247.0,1431.0,0.0,0.0,0.0,0.0
1630063067417451665,1630063067,0,vb6b0001,1496.0,3248.0,1434.0,0.0,0.0,0.0,0.0
1630063067425538681,1630063067,0,vb6b0001,1495.0,3247.0,1436.0,0.0,0.0,0.0,0.0
1630063067434382215,1630063067,0,vb6b0001,1492.0,3249.0,1436.0,0.0,0.0,0.0,0.0
1630063067441872590,1630063067,0,vb6b0001,1492.0,3248.0,1440.0,0.0,0.0,0.0,0.0
1630063067448435930,1630063067,0,vb6b0001,1490.0,3248.0,1441.0,0.0,0.0,0.0,0.0
1630063067456099100,1630063067,0,vb6b0001,1488.0,3247.0,1443.0,0.0,0.0,0.0,0.0
1630063067466426019,1630063067,0,vb6b0001,1486.0,3247.0,1448.0,0.0,0.0,0.0,0.0
1630063067472751194,1630063067,0,vb6b0001,1485.0,3249.0,1449.0,0.0,0.0,0.0,0.0
1630063067474741569,0,0,,54321.0,54321.0,54321.0,0.0,0.0,0.0,0.0
1630063067483073872,1630063067,0,vb6b0001,1484.0,3249.0,1453.0,0.0,0.0,0.0,0.0
1630063067487157571,1630063067,0,vb6b0001,1483.0,3249.0,1454.0,0.0,0.0,0.0,0.0
1630063067494344933,1630063067,0,vb6b0001,1481.0,3249.0,1455.0,0.0,0.0,0.0,0.0
1630063067503883866,1630063067,0,vb6b0001,1479.0,3249.0,1458.0,0.0,0.0,0.0,0.0
1630063067514986229,1630063067,0,vb6b0001,1477.0,3247.0,1463.0,0.0,0.0,0.0,0.0
1630063067520539420,1630063067,0,vb6b0001,1477.0,3248.0,1462.0,0.0,0.0,0.0,0.0
1630063067531272543,1630063067,0,vb6b0001,1475.0,3246.0,1463.0,0.0,0.0,0.0,0.0
1630063067537227953,1630063067,0,vb6b0001,1474.0,3247.0,1463.0,0.0,0.0,0.0,0.0
1630063067545522300,1630063067,0,vb6b0001,1473.0,3246.0,1463.0,0.0,0.0,0.0,0.0
1630063067552219358,1630063067,0,vb6b0001,1473.0,3246.0,1463.0,0.0,0.0,0.0,0.0
1630063067559026958,1630063067,0,vb6b0001,1470.0,3246.0,1464.0,0.0,0.0,0.0,0.0
1630063067570401468,1630063067,0,vb6b0001,1469.0,3246.0,1464.0,0.0,0.0,0.0,0.0
1630063067575983152,1630063067,0,vb6b0001,1469.0,3246.0,1466.0,0.0,0.0,0.0,0.0
1630063067582952689,1630063067,0,vb6b0001,1468.0,3247.0,1466.0,0.0,0.0,0.0,0.0
1630063067590695678,1630063067,0,vb6b0001,1467.0,3248.0,1465.0,0.0,0.0,0.0,0.0
1630063067603462848,0,0,,54321.0,54321.0,54321.0,0.0,0.0,0.0,0.0
1630063067605896850,1630063067,0,vb6b0001,1465.0,3249.0,1466.0,0.0,0.0,0.0,0.0
1630063067613538077,1630063067,0,vb6b0001,1464.0,3249.0,1466.0,0.0,0.0,0.0,0.0
1630063067623629749,1630063067,0,vb6b0001,1462.0,3250.0,1467.0,0.0,0.0,0.0,0.0
1630063067626074183,1630063067,0,vb6b0001,1461.0,3251.0,1468.0,0.0,0.0,0.0,0.0
1630063067634769698,1630063067,0,vb6b0001,1462.0,3251.0,1467.0,0.0,0.0,0.0,0.0
1630063067641786710,1630063067,0,vb6b0001,1461.0,3252.0,1469.0,0.0,0.0,0.0,0.0
1630063067652834565,1630063067,0,vb6b0001,1462.0,3251.0,1472.0,0.0,0.0,0.0,0.0
1630063067655214045,1630063067,0,vb6b0001,1461.0,3252.0,1470.0,0.0,0.0,0.0,0.0
1630063067661522898,1630063067,0,vb6b0001,1460.0,3253.0,1471.0,0.0,0.0,0.0,0.0
1630063067670547556,1630063067,0,vb6b0001,1460.0,3253.0,1470.0,0.0,0.0,0.0,0.0
1630063067680331357,1630063067,0,vb6b0001,1460.0,3253.0,1472.0,0.0,0.0,0.0,0.0
1630063067687209418,1630063067,0,vb6b0001,1459.0,3254.0,1471.0,0.0,0.0,0.0,0.0
1630063067693754165,1630063067,0,vb6b0001,1458.0,3254.0,1472.0,0.0,0.0,0.0,0.0
1630063067705143009,1630063067,0,vb6b0001,1456.0,3254.0,1473.0,0.0,0.0,0.0,0.0
1630063067710586335,1630063067,0,vb6b0001,1456.0,3255.0,1472.0,0.0,0.0,0.0,0.0
1630063067718490629,1630063067,0,vb6b0001,1456.0,3255.0,1474.0,0.0,0.0,0.0,0.0
1630063067725385065,1630063067,0,vb6b0001,1457.0,3256.0,1475.0,0.0,0.0,0.0,0.0
1630063067731660956,1630063067,0,vb6b0001,1456.0,3256.0,1476.0,0.0,0.0,0.0,0.0
1630063067742512866,1630063067,0,vb6b0001,1458.0,3256.0,1478.0,0.0,0.0,0.0,0.0
1630063067756279308,1630063067,0,vb6b0001,1458.0,3256.0,1481.0,0.0,0.0,0.0,0.0
1630063067761738936,1630063067,0,vb6b0001,1458.0,3256.0,1482.0,0.0,0.0,0.0,0.0
1630063067768250521,1630063067,0,vb6b0001,1457.0,3255.0,1482.0,0.0,0.0,0.0,0.0
1630063067775191558,1630063067,0,vb6b0001,1457.0,3255.0,1482.0,0.0,0.0,0.0,0.0
1630063067786133429,1630063067,0,vb6b0001,1458.0,3255.0,1482.0,0.0,0.0,0.0,0.0
1630063067791300283,1630063067,0,vb6b0001,1459.0,3256.0,1482.0,0.0,0.0,0.0,0.0
1630063067793335084,0,0,,54321.0,54321.0,54321.0,0.0,0.0,0.0,0.0
1630063067804490944,1630063067,0,vb6b0001,1460.0,3256.0,1486.0,0.0,0.0,0.0,0.0
1630063067810602574,1630063067,0,vb6b0001,1460.0,3256.0,1488.0,0.0,0.0,0.0,0.0
1630063067816498395,1630063067,0,vb6b0001,1459.0,3257.0,1489.0,0.0,0.0,0.0,0.0
1630063067827803502,1630063067,0,vb6b0001,1459.0,3259.0,1485.0,0.0,0.0,0.0,0.0
1630063067835385215,1630063067,0,vb6b0001,1461.0,3259.0,1484.0,0.0,0.0,0.0,0.0
1630063067842057274,1630063067,0,vb6b0001,1461.0,3260.0,1483.0,0.0,0.0,0.0,0.0
1630063067849753339,1630063067,0,vb6b0001,1461.0,3261.0,1484.0,0.0,0.0,0.0,0.0
1630063067856106547,1630063067,0,vb6b0001,1462.0,3261.0,1486.0,0.0,0.0,0.0,0.0
1630063067866436656,1630063067,0,vb6b0001,1462.0,3261.0,1486.0,0.0,0.0,0.0,0.0
1630063067875707987,1630063067,0,vb6b0001,1463.0,3261.0,1488.0,0.0,0.0,0.0,0.0
1630063067885317694,1630063067,0,vb6b0001,1465.0,3261.0,1488.0,0.0,0.0,0.0,0.0
1630063067891886430,1630063067,0,vb6b0001,1465.0,3262.0,1489.0,0.0,0.0,0.0,0.0
1630063067899449169,1630063067,0,vb6b0001,1466.0,3261.0,1489.0,0.0,0.0,0.0,0.0
1630063067910578565,1630063067,0,vb6b0001,1465.0,3262.0,1492.0,0.0,0.0,0.0,0.0
1630063067915929073,1630063067,0,vb6b0001,1464.0,3262.0,1491.0,0.0,0.0,0.0,0.0
1630063067922451654,1630063067,0,vb6b0001,1464.0,3262.0,1491.0,0.0,0.0,0.0,0.0
1630063067932017483,1630063067,0,vb6b0001,1463.0,3262.0,1490.0,0.0,0.0,0.0,0.0
1630063067938366671,1630063067,0,vb6b0001,1462.0,3262.0,1489.0,0.0,0.0,0.0,0.0
1630063067945764606,1630063067,0,vb6b0001,1461.0,3262.0,1490.0,0.0,0.0,0.0,0.0
1630063067952898929,1630063067,0,vb6b0001,1461.0,3262.0,1490.0,0.0,0.0,0.0,0.0
1630063067962967996,1630063067,0,vb6b0001,1460.0,3264.0,1491.0,0.0,0.0,0.0,0.0
1630063067969216859,1630063067,0,vb6b0001,1459.0,3263.0,1491.0,0.0,0.0,0.0,0.0
1630063067979496831,1630063067,0,vb6b0001,1460.0,3263.0,1492.0,0.0,0.0,0.0,0.0
1630063067985838149,1630063067,0,vb6b0001,1462.0,3263.0,1493.0,0.0,0.0,0.0,0.0
1630063067996105223,1630063067,0,vb6b0001,1463.0,3263.0,1495.0,0.0,0.0,0.0,0.0
1630063068002665416,1630063067,0,vb6b0001,1463.0,3263.0,1495.0,0.0,0.0,0.0,0.0
1630063068010403114,1630063067,0,vb6b0001,1464.0,3263.0,1494.0,0.0,0.0,0.0,0.0
1630063068016961287,1630063067,0,vb6b0001,1465.0,3262.0,1494.0,0.0,0.0,0.0,0.0
1630063068024633547,1630063067,0,vb6b0001,1466.0,3262.0,1494.0,0.0,0.0,0.0,0.0
1630063068031656432,1630063067,0,vb6b0001,1465.0,3262.0,1493.0,0.0,0.0,0.0,0.0
1630063068038991457,1630063067,0,vb6b0001,1464.0,3262.0,1491.0,0.0,0.0,0.0,0.0
1630063068048424709,1630063067,0,vb6b0001,1465.0,3264.0,1492.0,0.0,0.0,0.0,0.0
1630063068055655373,1630063067,0,vb6b0001,1465.0,3264.0,1491.0,0.0,0.0,0.0,0.0
1630063068062626755,1630063067,0,vb6b0001,1466.0,3264.0,1493.0,0.0,0.0,0.0,0.0
1630063068069974854,1630063067,0,vb6b0001,1466.0,3264.0,1495.0,0.0,0.0,0.0,0.0
1630063068080326873,1630063067,0,vb6b0001,1466.0,3265.0,1495.0,0.0,0.0,0.0,0.0
1630063068086775963,1630063067,0,vb6b0001,1467.0,3265.0,1494.0,0.0,0.0,0.0,0.0
1630063068088658085,0,0,,54321.0,54321.0,54321.0,0.0,0.0,0.0,0.0
1630063068097097877,1630063067,0,vb6b0001,1467.0,3266.0,1492.0,0.0,0.0,0.0,0.0
1630063068101302618,1630063067,0,vb6b0001,1467.0,3265.0,1492.0,0.0,0.0,0.0,0.0
1630063068109462449,1630063067,0,vb6b0001,1468.0,3265.0,1494.0,0.0,0.0,0.0,0.0
1630063068114882459,1630063067,0,vb6b0001,1467.0,3266.0,1494.0,0.0,0.0,0.0,0.0
1630063068126020209,1630063067,0,vb6b0001,1467.0,3267.0,1491.0,0.0,0.0,0.0,0.0
1630063068133028464,1630063068,0,vb6b0001,1467.0,3266.0,1491.0,0.0,0.0,0.0,0.0
1630063068139357662,1630063068,0,vb6b0001,1466.0,3267.0,1488.0,0.0,0.0,0.0,0.0
1630063068146921917,1630063068,0,vb6b0001,1465.0,3267.0,1489.0,0.0,0.0,0.0,0.0
1630063068153757657,1630063068,0,vb6b0001,1466.0,3267.0,1489.0,0.0,0.0,0.0,0.0
1630063068163865614,1630063068,0,vb6b0001,1464.0,3267.0,1489.0,0.0,0.0,0.0,0.0
1630063068170507764,1630063068,0,vb6b0001,1464.0,3266.0,1490.0,0.0,0.0,0.0,0.0
1630063068181982688,1630063068,0,vb6b0001,1465.0,3265.0,1493.0,0.0,0.0,0.0,0.0
1630063068184267015,1630063068,0,vb6b0001,1465.0,3265.0,1494.0,0.0,0.0,0.0,0.0
1630063068192237686,1630063068,0,vb6b0001,1466.0,3265.0,1494.0,0.0,0.0,0.0,0.0
1630063068198746657,1630063068,0,vb6b0001,1465.0,3265.0,1494.0,0.0,0.0,0.0,0.0
1630063068206602724,1630063068,0,vb6b0001,1464.0,3265.0,1494.0,0.0,0.0,0.0,0.0
1630063068213042758,1630063068,0,vb6b0001,1465.0,3267.0,1495.0,0.0,0.0,0.0,0.0
1630063068220868241,1630063068,0,vb6b0001,1463.0,3268.0,1492.0,0.0,0.0,0.0,0.0
1630063068233590802,1630063068,0,vb6b0001,1464.0,3269.0,1493.0,0.0,0.0,0.0,0.0
1630063068239990184,1630063068,0,vb6b0001,1463.0,3269.0,1491.0,0.0,0.0,0.0,0.0
1630063068246650653,1630063068,0,vb6b0001,1463.0,3270.0,1491.0,0.0,0.0,0.0,0.0
1630063068253975749,1630063068,0,vb6b0001,1463.0,3270.0,1489.0,0.0,0.0,0.0,0.0
1630063068260555139,1630063068,0,vb6b0001,1465.0,3270.0,1489.0,0.0,0.0,0.0,0.0
1630063068263420748,1630063068,0,vb6b0001,1467.0,3268.0,1491.0,0.0,0.0,0.0,0.0
1630063068271836086,1630063068,0,vb6b0001,1466.0,3269.0,1490.0,0.0,0.0,0.0,0.0
1630063068278547726,1630063068,0,vb6b0001,1466.0,3271.0,1488.0,0.0,0.0,0.0,0.0
1630063068288533838,1630063068,0,vb6b0001,1466.0,3272.0,1485.0,0.0,0.0,0.0,0.0
1630063068295266293,1630063068,0,vb6b0001,1466.0,3272.0,1485.0,0.0,0.0,0.0,0.0
1630063068301928731,1630063068,0,vb6b0001,1468.0,3271.0,1485.0,0.0,0.0,0.0,0.0
1630063068312601642,1630063068,0,vb6b0001,1468.0,3271.0,1484.0,0.0,0.0,0.0,0.0
1630063068319012555,1630063068,0,vb6b0001,1467.0,3271.0,1485.0,0.0,0.0,0.0,0.0
1630063068327524320,1630063068,0,vb6b0001,1467.0,3269.0,1486.0,0.0,0.0,0.0,0.0
1630063068335086231,1630063068,0,vb6b0001,1469.0,3269.0,1487.0,0.0,0.0,0.0,0.0
1630063068342903806,1630063068,0,vb6b0001,1469.0,3270.0,1486.0,0.0,0.0,0.0,0.0
1630063068349106159,1630063068,0,vb6b0001,1469.0,3270.0,1485.0,0.0,0.0,0.0,0.0
1630063068355981220,1630063068,0,vb6b0001,1468.0,3270.0,1484.0,0.0,0.0,0.0,0.0
1630063068368055025,1630063068,0,vb6b0001,1466.0,3268.0,1485.0,0.0,0.0,0.0,0.0
1630063068373640594,1630063068,0,vb6b0001,1466.0,3268.0,1486.0,0.0,0.0,0.0,0.0
1630063068380247557,1630063068,0,vb6b0001,1465.0,3267.0,1486.0,0.0,0.0,0.0,0.0
1630063068387047790,1630063068,0,vb6b0001,1464.0,3268.0,1486.0,0.0,0.0,0.0,0.0
1630063068394933053,1630063068,0,vb6b0001,1464.0,3268.0,1486.0,0.0,0.0,0.0,0.0
1630063068404878717,1630063068,0,vb6b0001,1465.0,3267.0,1486.0,0.0,0.0,0.0,0.0
1630063068414772892,1630063068,0,vb6b0001,1465.0,3267.0,1490.0,0.0,0.0,0.0,0.0
1630063068416946012,1630063068,0,vb6b0001,1466.0,3266.0,1490.0,0.0,0.0,0.0,0.0
1630063068429100881,1630063068,0,vb6b0001,1465.0,3265.0,1489.0,0.0,0.0,0.0,0.0
1630063068434955064,1630063068,0,vb6b0001,1464.0,3264.0,1487.0,0.0,0.0,0.0,0.0
1630063068442598753,1630063068,0,vb6b0001,1464.0,3263.0,1489.0,0.0,0.0,0.0,0.0
1630063068448071522,1630063068,0,vb6b0001,1464.0,3263.0,1488.0,0.0,0.0,0.0,0.0
1630063068456294030,1630063068,0,vb6b0001,1465.0,3263.0,1489.0,0.0,0.0,0.0,0.0
1630063068461284562,1630063068,0,vb6b0001,1466.0,3264.0,1487.0,0.0,0.0,0.0,0.0
1630063068469320101,1630063068,0,vb6b0001,1467.0,3264.0,1487.0,0.0,0.0,0.0,0.0
1630063068475627462,1630063068,0,vb6b0001,1466.0,3264.0,1489.0,0.0,0.0,0.0,0.0
1630063068483588341,1630063068,0,vb6b0001,1467.0,3263.0,1490.0,0.0,0.0,0.0,0.0
1630063068489919566,1630063068,0,vb6b0001,1468.0,3264.0,1489.0,0.0,0.0,0.0,0.0
1630063068496771409,1630063068,0,vb6b0001,1469.0,3262.0,1490.0,0.0,0.0,0.0,0.0
1630063068504644650,1630063068,0,vb6b0001,1468.0,3263.0,1491.0,0.0,0.0,0.0,0.0
1630063068514637060,1630063068,0,vb6b0001,1470.0,3264.0,1491.0,0.0,0.0,0.0,0.0
1630063068521169106,1630063068,0,vb6b0001,1470.0,3265.0,1490.0,0.0,0.0,0.0,0.0
1630063068528675090,1630063068,0,vb6b0001,1471.0,3265.0,1490.0,0.0,0.0,0.0,0.0
1630063068534841911,1630063068,0,vb6b0001,1472.0,3265.0,1492.0,0.0,0.0,0.0,0.0
1630063068541312816,1630063068,0,vb6b0001,1472.0,3265.0,1493.0,0.0,0.0,0.0,0.0
1630063068549091365,1630063068,0,vb6b0001,1473.0,3265.0,1495.0,0.0,0.0,0.0,0.0
1630063068555509609,1630063068,0,vb6b0001,1474.0,3264.0,1494.0,0.0,0.0,0.0,0.0
1630063068563315236,1630063068,0,vb6b0001,1474.0,3265.0,1494.0,0.0,0.0,0.0,0.0
1630063068572210034,1630063068,0,vb6b0001,1476.0,3266.0,1495.0,0.0,0.0,0.0,0.0
1630063068576391526,1630063068,0,vb6b0001,1476.0,3266.0,1496.0,0.0,0.0,0.0,0.0
1630063068583353545,1630063068,0,vb6b0001,1476.0,3267.0,1494.0,0.0,0.0,0.0,0.0
1630063068590183031,1630063068,0,vb6b0001,1478.0,3267.0,1494.0,0.0,0.0,0.0,0.0
1630063068597730607,1630063068,0,vb6b0001,1478.0,3268.0,1492.0,0.0,0.0,0.0,0.0
1630063068605526765,1630063068,0,vb6b0001,1479.0,3269.0,1492.0,0.0,0.0,0.0,0.0
1630063068611767022,1630063068,0,vb6b0001,1480.0,3271.0,1491.0,0.0,0.0,0.0,0.0
1630063068621475405,1630063068,0,vb6b0001,1482.0,3270.0,1491.0,0.0,0.0,0.0,0.0
1630063068625589212,1630063068,0,vb6b0001,1482.0,3269.0,1491.0,0.0,0.0,0.0,0.0
1630063068633529360,1630063068,0,vb6b0001,1481.0,3269.0,1491.0,0.0,0.0,0.0,0.0
1630063068640219501,1630063068,0,vb6b0001,1482.0,3268.0,1489.0,0.0,0.0,0.0,0.0
1630063068646635466,1630063068,0,vb6b0001,1482.0,3267.0,1490.0,0.0,0.0,0.0,0.0
1630063068653325761,1630063068,0,vb6b0001,1482.0,3267.0,1491.0,0.0,0.0,0.0,0.0
1630063068666858345,1630063068,0,vb6b0001,1481.0,3264.0,1491.0,0.0,0.0,0.0,0.0
1630063068669709927,1630063068,0,vb6b0001,1480.0,3263.0,1492.0,0.0,0.0,0.0,0.0
1630063068681494036,1630063068,0,vb6b0001,1479.0,3262.0,1495.0,0.0,0.0,0.0,0.0
1630063068690119783,1630063068,0,vb6b0001,1479.0,3259.0,1497.0,0.0,0.0,0.0,0.0
1630063068697751362,1630063068,0,vb6b0001,1479.0,3257.0,1498.0,0.0,0.0,0.0,0.0
1630063068704353510,1630063068,0,vb6b0001,1478.0,3258.0,1497.0,0.0,0.0,0.0,0.0
1630063068711231158,1630063068,0,vb6b0001,1478.0,3257.0,1498.0,0.0,0.0,0.0,0.0
1630063069234322796,1630063068,0,vb6b0001,1476.0,3257.0,1499.0,0.0,0.0,0.0,0.0
1630063069285859226,1630063068,0,vb6b0001,1474.0,3257.0,1500.0,0.0,0.0,0.0,0.0
1630063069293381812,1630063068,0,vb6b0001,1475.0,3256.0,1500.0,0.0,0.0,0.0,0.0
1630063069303282714,1630063068,0,vb6b0001,1472.0,3252.0,1498.0,0.0,0.0,0.0,0.0
1630063069313455016,1630063068,0,vb6b0001,1472.0,3252.0,1500.0,0.0,0.0,0.0,0.0
1630063069317302397,1630063068,0,vb6b0001,1473.0,3252.0,1501.0,0.0,0.0,0.0,0.0
1630063069328558700,1630063068,0,vb6b0001,1473.0,3250.0,1504.0,0.0,0.0,0.0,0.0
1630063069335852902,1630063068,0,vb6b0001,1472.0,3249.0,1506.0,0.0,0.0,0.0,0.0
1630063069345789700,1630063068,0,vb6b0001,1469.0,3248.0,1509.0,0.0,0.0,0.0,0.0
1630063069351465050,1630063068,0,vb6b0001,1468.0,3246.0,1510.0,0.0,0.0,0.0,0.0
1630063069353854731,1630063068,0,vb6b0001,1467.0,3245.0,1510.0,0.0,0.0,0.0,0.0
1630063069362931236,1630063068,0,vb6b0001,1467.0,3244.0,1512.0,0.0,0.0,0.0,0.0
1630063069363221869,0,0,,54321.0,54321.0,54321.0,0.0,0.0,0.0,0.0
1630063069367872201,1630063068,0,vb6b0001,1467.0,3242.0,1511.0,0.0,0.0,0.0,0.0
1630063069379000924,1630063068,0,vb6b0001,1466.0,3243.0,1509.0,0.0,0.0,0.0,0.0
1630063069385786499,1630063068,0,vb6b0001,1467.0,3242.0,1509.0,0.0,0.0,0.0,0.0
1630063069396800626,1630063068,0,vb6b0001,1464.0,3239.0,1509.0,0.0,0.0,0.0,0.0
1630063069399192741,0,0,,54321.0,54321.0,54321.0,0.0,0.0,0.0,0.0
1630063069404048160,1630063068,0,vb6b0001,1463.0,3239.0,1508.0,0.0,0.0,0.0,0.0
1630063069411222061,1630063068,0,vb6b0001,1462.0,3238.0,1508.0,0.0,0.0,0.0,0.0
1630063069416656509,1630063068,0,vb6b0001,1461.0,3238.0,1508.0,0.0,0.0,0.0,0.0
1630063069424374456,1630063068,0,vb6b0001,1459.0,3238.0,1507.0,0.0,0.0,0.0,0.0
1630063069429840527,1630063068,0,vb6b0001,1457.0,3236.0,1505.0,0.0,0.0,0.0,0.0
1630063069434563711,1630063068,0,vb6b0001,1457.0,3235.0,1505.0,0.0,0.0,0.0,0.0
1630063069440841050,1630063068,0,vb6b0001,1456.0,3236.0,1504.0,0.0,0.0,0.0,0.0
1630063069452191935,1630063068,0,vb6b0001,1457.0,3235.0,1501.0,0.0,0.0,0.0,0.0
1630063069454611962,1630063068,0,vb6b0001,1457.0,3235.0,1502.0,0.0,0.0,0.0,0.0
1630063069461902200,1630063068,0,vb6b0001,1458.0,3233.0,1502.0,0.0,0.0,0.0,0.0
1630063069471474867,1630063068,0,vb6b0001,1457.0,3233.0,1505.0,0.0,0.0,0.0,0.0
1630063069476485915,1630063068,0,vb6b0001,1457.0,3233.0,1504.0,0.0,0.0,0.0,0.0
1630063069478501453,0,0,,54321.0,54321.0,54321.0,0.0,0.0,0.0,0.0
1630063069483968346,1630063068,0,vb6b0001,1457.0,3232.0,1504.0,0.0,0.0,0.0,0.0
1630063069490653104,1630063068,0,vb6b0001,1456.0,3233.0,1504.0,0.0,0.0,0.0,0.0
1630063069496316023,1630063068,0,vb6b0001,1455.0,3233.0,1505.0,0.0,0.0,0.0,0.0
1630063069503972336,1630063068,0,vb6b0001,1456.0,3233.0,1506.0,0.0,0.0,0.0,0.0
1630063069512455671,0,0,,54321.0,54321.0,54321.0,0.0,0.0,0.0,0.0
1630063069518569218,1630063068,0,vb6b0001,1457.0,3232.0,1508.0,0.0,0.0,0.0,0.0
1630063069520670033,0,0,,54321.0,54321.0,54321.0,0.0,0.0,0.0,0.0
1630063069526354630,1630063069,0,vb6b0001,1456.0,3232.0,1508.0,0.0,0.0,0.0,0.0
1630063069534346718,1630063069,0,vb6b0001,1455.0,3233.0,1510.0,0.0,0.0,0.0,0.0
1630063069543760003,1630063069,0,vb6b0001,1453.0,3234.0,1506.0,0.0,0.0,0.0,0.0
1630063069547719872,0,0,,54321.0,54321.0,54321.0,0.0,0.0,0.0,0.0
1630063069548033127,0,0,,54321.0,54321.0,54321.0,0.0,0.0,0.0,0.0
1630063069551027171,1630063069,0,vb6b0001,1453.0,3234.0,1505.0,0.0,0.0,0.0,0.0
1630063069551498081,0,0,,54321.0,54321.0,54321.0,0.0,0.0,0.0,0.0
1630063069556606704,1630063069,0,vb6b0001,1451.0,3233.0,1509.0,0.0,0.0,0.0,0.0
1630063069562304083,1630063069,0,vb6b0001,1451.0,3234.0,1510.0,0.0,0.0,0.0,0.0
1630063069570021813,1630063069,0,vb6b0001,1452.0,3235.0,1511.0,0.0,0.0,0.0,0.0
1630063069576274382,1630063069,0,vb6b0001,1454.0,3237.0,1511.0,0.0,0.0,0.0,0.0
1630063069583988111,1630063069,0,vb6b0001,1455.0,3240.0,1508.0,0.0,0.0,0.0,0.0
1630063069591664534,1630063069,0,vb6b0001,1455.0,3238.0,1509.0,0.0,0.0,0.0,0.0
1630063069593573891,0,0,,54321.0,54321.0,54321.0,0.0,0.0,0.0,0.0
1630063069600726400,1630063069,0,vb6b0001,1455.0,3238.0,1508.0,0.0,0.0,0.0,0.0
1630063069609573810,1630063069,0,vb6b0001,1454.0,3238.0,1509.0,0.0,0.0,0.0,0.0
1630063069616083320,1630063069,0,vb6b0001,1455.0,3239.0,1506.0,0.0,0.0,0.0,0.0
1630063069621865238,1630063069,0,vb6b0001,1455.0,3240.0,1505.0,0.0,0.0,0.0,0.0
1630063069623620642,0,0,,54321.0,54321.0,54321.0,0.0,0.0,0.0,0.0
1630063069631004173,1630063069,0,vb6b0001,1455.0,3241.0,1506.0,0.0,0.0,0.0,0.0
1630063069636271454,1630063069,0,vb6b0001,1457.0,3242.0,1504.0,0.0,0.0,0.0,0.0
1630063069643912116,1630063069,0,vb6b0001,1458.0,3242.0,1509.0,0.0,0.0,0.0,0.0
1630063069650552080,1630063069,0,vb6b0001,1460.0,3243.0,1508.0,0.0,0.0,0.0,0.0
1630063069652677634,0,0,,54321.0,54321.0,54321.0,0.0,0.0,0.0,0.0
1630063069657565801,1630063069,0,vb6b0001,1462.0,3244.0,1506.0,0.0,0.0,0.0,0.0
1630063069667563509,1630063069,0,vb6b0001,1468.0,3243.0,1507.0,0.0,0.0,0.0,0.0
1630063069676162688,1630063069,0,vb6b0001,1468.0,3243.0,1507.0,0.0,0.0,0.0,0.0
1630063069681618804,1630063069,0,vb6b0001,1469.0,3243.0,1508.0,0.0,0.0,0.0,0.0
1630063069688298368,1630063069,0,vb6b0001,1472.0,3244.0,1505.0,0.0,0.0,0.0,0.0
1630063069693583364,0,0,,54321.0,54321.0,54321.0,0.0,0.0,0.0,0.0
1630063069700656722,1630063069,0,vb6b0001,1469.0,3253.0,1505.0,0.0,0.0,0.0,0.0
1630063069708392857,1630063069,0,vb6b0001,1470.0,3255.0,1506.0,0.0,0.0,0.0,0.0
1630063069717550948,1630063069,0,vb6b0001,1459.0,3259.0,1508.0,0.0,0.0,0.0,0.0
1630063069720412260,1630063069,0,vb6b0001,1459.0,3261.0,1507.0,0.0,0.0,0.0,0.0
1630063069722412532,0,0,,54321.0,54321.0,54321.0,0.0,0.0,0.0,0.0
1630063069725408788,1630063069,0,vb6b0001,1457.0,3262.0,1509.0,0.0,0.0,0.0,0.0
1630063069732986003,1630063069,0,vb6b0001,1453.0,3263.0,1509.0,0.0,0.0,0.0,0.0
1630063069734995860,0,0,,54321.0,54321.0,54321.0,0.0,0.0,0.0,0.0
1630063069737449189,1630063069,0,vb6b0001,1452.0,3263.0,1506.0,0.0,0.0,0.0,0.0
1630063069741090745,1630063069,0,vb6b0001,1454.0,3264.0,1503.0,0.0,0.0,0.0,0.0
1630063069743161472,0,0,,54321.0,54321.0,54321.0,0.0,0.0,0.0,0.0
1630063069745887296,0,0,,54321.0,54321.0,54321.0,0.0,0.0,0.0,0.0
1630063069749084081,1630063069,0,vb6b0001,1455.0,3266.0,1501.0,0.0,0.0,0.0,0.0
1630063069752576041,0,0,,54321.0,54321.0,54321.0,0.0,0.0,0.0,0.0
1630063069752624706,0,0,,54321.0,54321.0,54321.0,0.0,0.0,0.0,0.0
1630063069752852426,0,0,,54321.0,54321.0,54321.0,0.0,0.0,0.0,0.0
1630063069753271002,0,0,,54321.0,54321.0,54321.0,0.0,0.0,0.0,0.0
1630063069753944184,0,0,,54321.0,54321.0,54321.0,0.0,0.0,0.0,0.0
1630063069754002848,0,0,,54321.0,54321.0,54321.0,0.0,0.0,0.0,0.0
1630063069754231100,0,0,,54321.0,54321.0,54321.0,0.0,0.0,0.0,0.0
1630063069754512879,0,0,,54321.0,54321.0,54321.0,0.0,0.0,0.0,0.0
1630063069755284958,0,0,,54321.0,54321.0,54321.0,0.0,0.0,0.0,0.0
1630063069761520527,1630063069,0,vb6b0001,1457.0,3269.0,1498.0,0.0,0.0,0.0,0.0
1630063069766836738,1630063069,0,vb6b0001,1458.0,3271.0,1502.0,0.0,0.0,0.0,0.0
1630063069774930123,1630063069,0,vb6b0001,1457.0,3273.0,1503.0,0.0,0.0,0.0,0.0
1630063069782624662,1630063069,0,vb6b0001,1454.0,3273.0,1503.0,0.0,0.0,0.0,0.0
1630063069790117404,1630063069,0,vb6b0001,1457.0,3274.0,1506.0,0.0,0.0,0.0,0.0
1630063069793430348,0,0,,54321.0,54321.0,54321.0,0.0,0.0,0.0,0.0
1630063069798845818,0,0,,54321.0,54321.0,54321.0,0.0,0.0,0.0,0.0
1630063069809389583,1630063069,0,vb6b0001,1459.0,3275.0,1501.0,0.0,0.0,0.0,0.0
1630063069817073888,1630063069,0,vb6b0001,1458.0,3275.0,1504.0,0.0,0.0,0.0,0.0
1630063069822495697,0,0,,54321.0,54321.0,54321.0,0.0,0.0,0.0,0.0
1630063069827798620,1630063069,0,vb6b0001,1455.0,3272.0,1501.0,0.0,0.0,0.0,0.0
1630063069832095634,0,0,,54321.0,54321.0,54321.0,0.0,0.0,0.0,0.0
1630063069839116702,1630063069,0,vb6b0001,1462.0,3273.0,1496.0,0.0,0.0,0.0,0.0
1630063069845622276,1630063069,0,vb6b0001,1464.0,3272.0,1495.0,0.0,0.0,0.0,0.0
1630063069853588119,1630063069,0,vb6b0001,1462.0,3274.0,1496.0,0.0,0.0,0.0,0.0
1630063069856854082,0,0,,54321.0,54321.0,54321.0,0.0,0.0,0.0,0.0
1630063069867948588,1630063069,0,vb6b0001,1463.0,3273.0,1498.0,0.0,0.0,0.0,0.0
1630063069874496333,1630063069,0,vb6b0001,1461.0,3273.0,1501.0,0.0,0.0,0.0,0.0
1630063069881551346,1630063069,0,vb6b0001,1463.0,3272.0,1501.0,0.0,0.0,0.0,0.0
1630063069883238622,0,0,,54321.0,54321.0,54321.0,0.0,0.0,0.0,0.0
1630063069889287878,1630063069,0,vb6b0001,1464.0,3272.0,1501.0,0.0,0.0,0.0,0.0
1630063069896782654,1630063069,0,vb6b0001,1463.0,3273.0,1504.0,0.0,0.0,0.0,0.0
1630063069905445730,1630063069,0,vb6b0001,1460.0,3274.0,1504.0,0.0,0.0,0.0,0.0
1630063069915635588,1630063069,0,vb6b0001,1465.0,3273.0,1500.0,0.0,0.0,0.0,0.0
1630063069927513264,1630063069,0,vb6b0001,1468.0,3271.0,1500.0,0.0,0.0,0.0,0.0
1630063069933038886,0,0,,54321.0,54321.0,54321.0,0.0,0.0,0.0,0.0
1630063069935161938,1630063069,0,vb6b0001,1464.0,3270.0,1501.0,0.0,0.0,0.0,0.0
1630063069938720982,1630063069,0,vb6b0001,1461.0,3269.0,1501.0,0.0,0.0,0.0,0.0
1630063069945882678,1630063069,0,vb6b0001,1459.0,3269.0,1498.0,0.0,0.0,0.0,0.0
1630063069950796673,1630063069,0,vb6b0001,1463.0,3269.0,1498.0,0.0,0.0,0.0,0.0
1630063069953260328,0,0,,54321.0,54321.0,54321.0,0.0,0.0,0.0,0.0
1630063069955776685,0,0,,54321.0,54321.0,54321.0,0.0,0.0,0.0,0.0
1630063069963233553,1630063069,0,vb6b0001,1460.0,3272.0,1497.0,0.0,0.0,0.0,0.0
1630063069969780195,1630063069,0,vb6b0001,1455.0,3271.0,1497.0,0.0,0.0,0.0,0.0
1630063069976176828,1630063069,0,vb6b0001,1454.0,3272.0,1500.0,0.0,0.0,0.0,0.0
1630063069988932826,1630063069,0,vb6b0001,1454.0,3269.0,1490.0,0.0,0.0,0.0,0.0
1630063069991235232,1630063069,0,vb6b0001,1453.0,3269.0,1490.0,0.0,0.0,0.0,0.0
1630063069999257367,1630063069,0,vb6b0001,1455.0,3268.0,1487.0,0.0,0.0,0.0,0.0
1630063070005723320,1630063069,0,vb6b0001,1453.0,3270.0,1483.0,0.0,0.0,0.0,0.0
1630063070012409286,1630063069,0,vb6b0001,1456.0,3270.0,1483.0,0.0,0.0,0.0,0.0
1630063070019981719,1630063069,0,vb6b0001,1454.0,3273.0,1482.0,0.0,0.0,0.0,0.0
1630063070032613466,1630063069,0,vb6b0001,1455.0,3273.0,1482.0,0.0,0.0,0.0,0.0
1630063070036057703,1630063069,0,vb6b0001,1458.0,3272.0,1479.0,0.0,0.0,0.0,0.0
1630063070040878290,1630063069,0,vb6b0001,1458.0,3271.0,1476.0,0.0,0.0,0.0,0.0
1630063070053118138,1630063069,0,vb6b0001,1458.0,3271.0,1466.0,0.0,0.0,0.0,0.0
1630063070058462149,1630063069,0,vb6b0001,1460.0,3270.0,1463.0,0.0,0.0,0.0,0.0
1630063070067077702,1630063069,0,vb6b0001,1462.0,3269.0,1463.0,0.0,0.0,0.0,0.0
1630063070072990599,1630063069,0,vb6b0001,1462.0,3269.0,1462.0,0.0,0.0,0.0,0.0
1630063070080780913,1630063069,0,vb6b0001,1463.0,3270.0,1456.0,0.0,0.0,0.0,0.0
1630063070086393043,1630063069,0,vb6b0001,1465.0,3269.0,1451.0,0.0,0.0,0.0,0.0
1630063070092820750,1630063069,0,vb6b0001,1465.0,3267.0,1449.0,0.0,0.0,0.0,0.0
1630063070100311241,1630063069,0,vb6b0001,1466.0,3268.0,1446.0,0.0,0.0,0.0,0.0
1630063070106195245,1630063069,0,vb6b0001,1467.0,3269.0,1442.0,0.0,0.0,0.0,0.0
1630063070110978066,1630063070,0,vb6b0001,1468.0,3269.0,1439.0,0.0,0.0,0.0,0.0
1630063070120744445,1630063070,0,vb6b0001,1470.0,3269.0,1434.0,0.0,0.0,0.0,0.0
1630063070128062198,1630063070,0,vb6b0001,1472.0,3268.0,1430.0,0.0,0.0,0.0,0.0
1630063070132484731,1630063070,0,vb6b0001,1472.0,3267.0,1427.0,0.0,0.0,0.0,0.0
1630063070137931181,1630063070,0,vb6b0001,1473.0,3267.0,1423.0,0.0,0.0,0.0,0.0
1630063070149313358,1630063070,0,vb6b0001,1471.0,3266.0,1412.0,0.0,0.0,0.0,0.0
1630063070157525864,1630063070,0,vb6b0001,1472.0,3267.0,1412.0,0.0,0.0,0.0,0.0
1630063070168289145,1630063070,0,vb6b0001,1471.0,3266.0,1419.0,0.0,0.0,0.0,0.0
1630063070174928765,1630063070,0,vb6b0001,1472.0,3266.0,1420.0,0.0,0.0,0.0,0.0
1630063070181598884,1630063070,0,vb6b0001,1472.0,3266.0,1417.0,0.0,0.0,0.0,0.0
1630063070187969132,1630063070,0,vb6b0001,1472.0,3266.0,1417.0,0.0,0.0,0.0,0.0
1630063070194746883,1630063070,0,vb6b0001,1470.0,3266.0,1415.0,0.0,0.0,0.0,0.0
1630063070202569202,1630063070,0,vb6b0001,1470.0,3265.0,1415.0,0.0,0.0,0.0,0.0
1630063070205712774,1630063070,0,vb6b0001,1471.0,3265.0,1416.0,0.0,0.0,0.0,0.0
1630063070213569555,1630063070,0,vb6b0001,1469.0,3265.0,1415.0,0.0,0.0,0.0,0.0
1630063070220229530,1630063070,0,vb6b0001,1468.0,3266.0,1410.0,0.0,0.0,0.0,0.0
1630063070227940705,1630063070,0,vb6b0001,1469.0,3265.0,1414.0,0.0,0.0,0.0,0.0
1630063070233215475,1630063070,0,vb6b0001,1468.0,3266.0,1413.0,0.0,0.0,0.0,0.0
1630063070244728654,1630063070,0,vb6b0001,1464.0,3264.0,1403.0,0.0,0.0,0.0,0.0
1630063070251265363,1630063070,0,vb6b0001,1464.0,3264.0,1403.0,0.0,0.0,0.0,0.0
1630063070256785099,1630063070,0,vb6b0001,1463.0,3263.0,1401.0,0.0,0.0,0.0,0.0
1630063070268763164,1630063070,0,vb6b0001,1463.0,3263.0,1399.0,0.0,0.0,0.0,0.0
1630063070275447152,1630063070,0,vb6b0001,1465.0,3263.0,1398.0,0.0,0.0,0.0,0.0
1630063070281820107,1630063070,0,vb6b0001,1466.0,3263.0,1397.0,0.0,0.0,0.0,0.0
1630063070289427157,1630063070,0,vb6b0001,1467.0,3262.0,1396.0,0.0,0.0,0.0,0.0
1630063070291524011,1630063070,0,vb6b0001,1466.0,3262.0,1393.0,0.0,0.0,0.0,0.0
1630063070299123253,1630063070,0,vb6b0001,1468.0,3262.0,1390.0,0.0,0.0,0.0,0.0
1630063070305851861,1630063070,0,vb6b0001,1467.0,3260.0,1390.0,0.0,0.0,0.0,0.0
1630063070313826674,1630063070,0,vb6b0001,1472.0,3259.0,1383.0,0.0,0.0,0.0,0.0
1630063070324490063,1630063070,0,vb6b0001,1467.0,3259.0,1387.0,0.0,0.0,0.0,0.0
1630063070331715259,1630063070,0,vb6b0001,1467.0,3260.0,1390.0,0.0,0.0,0.0,0.0
1630063070337375829,1630063070,0,vb6b0001,1467.0,3260.0,1392.0,0.0,0.0,0.0,0.0
1630063070345202701,1630063070,0,vb6b0001,1467.0,3260.0,1395.0,0.0,0.0,0.0,0.0
1630063070352168710,1630063070,0,vb6b0001,1468.0,3261.0,1397.0,0.0,0.0,0.0,0.0
1630063070354602873,0,0,,54321.0,54321.0,54321.0,0.0,0.0,0.0,0.0
1630063070358083611,1630063070,0,vb6b0001,1468.0,3261.0,1400.0,0.0,0.0,0.0,0.0
1630063070362683384,1630063070,0,vb6b0001,1468.0,3262.0,1400.0,0.0,0.0,0.0,0.0
1630063070369446036,1630063070,0,vb6b0001,1468.0,3262.0,1401.0,0.0,0.0,0.0,0.0
1630063070376300890,1630063070,0,vb6b0001,1468.0,3263.0,1401.0,0.0,0.0,0.0,0.0
1630063070383971681,1630063070,0,vb6b0001,1467.0,3264.0,1406.0,0.0,0.0,0.0,0.0
1630063070390706770,1630063070,0,vb6b0001,1468.0,3264.0,1407.0,0.0,0.0,0.0,0.0
1630063070401735639,1630063070,0,vb6b0001,1465.0,3262.0,1406.0,0.0,0.0,0.0,0.0
1630063070408016004,1630063070,0,vb6b0001,1465.0,3264.0,1408.0,0.0,0.0,0.0,0.0
1630063070415174652,1630063070,0,vb6b0001,1465.0,3264.0,1407.0,0.0,0.0,0.0,0.0
1630063070423138996,1630063070,0,vb6b0001,1464.0,3265.0,1406.0,0.0,0.0,0.0,0.0
1630063070430117747,1630063070,0,vb6b0001,1463.0,3266.0,1405.0,0.0,0.0,0.0,0.0
1630063070438914194,1630063070,0,vb6b0001,1463.0,3268.0,1405.0,0.0,0.0,0.0,0.0
1630063070447358957,1630063070,0,vb6b0001,1464.0,3268.0,1405.0,0.0,0.0,0.0,0.0
1630063070454937461,1630063070,0,vb6b0001,1465.0,3268.0,1407.0,0.0,0.0,0.0,0.0
1630063070461504930,1630063070,0,vb6b0001,1466.0,3267.0,1407.0,0.0,0.0,0.0,0.0
1630063070469079409,1630063070,0,vb6b0001,1464.0,3267.0,1407.0,0.0,0.0,0.0,0.0
1630063070475119161,1630063070,0,vb6b0001,1468.0,3267.0,1401.0,0.0,0.0,0.0,0.0
1630063070481358481,1630063070,0,vb6b0001,1468.0,3266.0,1407.0,0.0,0.0,0.0,0.0
1630063070489159865,1630063070,0,vb6b0001,1469.0,3265.0,1407.0,0.0,0.0,0.0,0.0
1630063070500389340,1630063070,0,vb6b0001,1473.0,3269.0,1410.0,0.0,0.0,0.0,0.0
1630063070506043226,1630063070,0,vb6b0001,1474.0,3270.0,1409.0,0.0,0.0,0.0,0.0
1630063070508494425,1630063070,0,vb6b0001,1475.0,3270.0,1411.0,0.0,0.0,0.0,0.0
1630063070517103955,1630063070,0,vb6b0001,1475.0,3270.0,1411.0,0.0,0.0,0.0,0.0
1630063070524139156,1630063070,0,vb6b0001,1475.0,3269.0,1412.0,0.0,0.0,0.0,0.0
1630063070529000973,1630063070,0,vb6b0001,1477.0,3270.0,1413.0,0.0,0.0,0.0,0.0
1630063070537114050,1630063070,0,vb6b0001,1477.0,3270.0,1412.0,0.0,0.0,0.0,0.0
1630063070544885161,1630063070,0,vb6b0001,1477.0,3270.0,1414.0,0.0,0.0,0.0,0.0
1630063070555661883,1630063070,0,vb6b0001,1481.0,3276.0,1408.0,0.0,0.0,0.0,0.0
1630063070557916467,1630063070,0,vb6b0001,1481.0,3275.0,1410.0,0.0,0.0,0.0,0.0
1630063070569928110,1630063070,0,vb6b0001,1483.0,3274.0,1420.0,0.0,0.0,0.0,0.0
1630063070580025724,1630063070,0,vb6b0001,1481.0,3274.0,1424.0,0.0,0.0,0.0,0.0
1630063070582465316,1630063070,0,vb6b0001,1481.0,3274.0,1424.0,0.0,0.0,0.0,0.0
1630063070586057062,1630063070,0,vb6b0001,1481.0,3273.0,1425.0,0.0,0.0,0.0,0.0
1630063070589128783,1630063070,0,vb6b0001,1482.0,3273.0,1425.0,0.0,0.0,0.0,0.0
1630063070592278507,1630063070,0,vb6b0001,1481.0,3273.0,1425.0,0.0,0.0,0.0,0.0
1630063070601367390,1630063070,0,vb6b0001,1482.0,3273.0,1426.0,0.0,0.0,0.0,0.0
1630063070603638745,1630063070,0,vb6b0001,1483.0,3272.0,1428.0,0.0,0.0,0.0,0.0
1630063070610346545,1630063070,0,vb6b0001,1484.0,3273.0,1429.0,0.0,0.0,0.0,0.0
1630063070618458450,1630063070,0,vb6b0001,1486.0,3273.0,1430.0,0.0,0.0,0.0,0.0
1630063070620960734,1630063070,0,vb6b0001,1485.0,3273.0,1432.0,0.0,0.0,0.0,0.0
1630063070628934169,1630063070,0,vb6b0001,1485.0,3275.0,1433.0,0.0,0.0,0.0,0.0
1630063070634308034,1630063070,0,vb6b0001,1485.0,3274.0,1436.0,0.0,0.0,0.0,0.0
1630063070642968179,1630063070,0,vb6b0001,1486.0,3274.0,1437.0,0.0,0.0,0.0,0.0
1630063070645434623,1630063070,0,vb6b0001,1486.0,3273.0,1438.0,0.0,0.0,0.0,0.0
1630063070649604550,1630063070,0,vb6b0001,1484.0,3274.0,1439.0,0.0,0.0,0.0,0.0
1630063070653225272,1630063070,0,vb6b0001,1482.0,3275.0,1441.0,0.0,0.0,0.0,0.0
1630063070655117713,0,0,,54321.0,54321.0,54321.0,0.0,0.0,0.0,0.0
1630063070676624641,1630063070,0,vb6b0001,1483.0,3273.0,1452.0,0.0,0.0,0.0,0.0
1630063070690097852,1630063070,0,vb6b0001,1484.0,3274.0,1449.0,0.0,0.0,0.0,0.0
1630063070696597459,1630063070,0,vb6b0001,1487.0,3273.0,1449.0,0.0,0.0,0.0,0.0
1630063070704766832,1630063070,0,vb6b0001,1491.0,3275.0,1449.0,0.0,0.0,0.0,0.0
1630063070715716908,1630063070,0,vb6b0001,1491.0,3274.0,1455.0,0.0,0.0,0.0,0.0
1630063070722774702,1630063070,0,vb6b0001,1495.0,3275.0,1454.0,0.0,0.0,0.0,0.0
1630063070740203472,1630063070,0,vb6b0001,1495.0,3275.0,1461.0,0.0,0.0,0.0,0.0
1630063070747277405,1630063070,0,vb6b0001,1496.0,3277.0,1464.0,0.0,0.0,0.0,0.0
1630063070751521966,1630063070,0,vb6b0001,1496.0,3276.0,1470.0,0.0,0.0,0.0,0.0
1630063070754220861,1630063070,0,vb6b0001,1496.0,3277.0,1470.0,0.0,0.0,0.0,0.0
1630063070764830840,1630063070,0,vb6b0001,1501.0,3276.0,1479.0,0.0,0.0,0.0,0.0
1630063070781399002,1630063070,0,vb6b0001,1502.0,3274.0,1484.0,0.0,0.0,0.0,0.0
1630063070787826570,1630063070,0,vb6b0001,1503.0,3273.0,1482.0,0.0,0.0,0.0,0.0
1630063070789855748,0,0,,54321.0,54321.0,54321.0,0.0,0.0,0.0,0.0
1630063070798140146,1630063070,0,vb6b0001,1502.0,3273.0,1486.0,0.0,0.0,0.0,0.0
1630063070809561617,1630063070,0,vb6b0001,1505.0,3271.0,1490.0,0.0,0.0,0.0,0.0
1630063070816400838,1630063070,0,vb6b0001,1507.0,3271.0,1492.0,0.0,0.0,0.0,0.0
1630063070824174133,1630063070,0,vb6b0001,1507.0,3271.0,1488.0,0.0,0.0,0.0,0.0
1630063070826891879,1630063070,0,vb6b0001,1507.0,3270.0,1488.0,0.0,0.0,0.0,0.0
1630063070847239570,1630063070,0,vb6b0001,1508.0,3272.0,1491.0,0.0,0.0,0.0,0.0
1630063070855856140,1630063070,0,vb6b0001,1508.0,3273.0,1489.0,0.0,0.0,0.0,0.0
1630063070862284615,1630063070,0,vb6b0001,1507.0,3272.0,1482.0,0.0,0.0,0.0,0.0
1630063070864173130,0,0,,54321.0,54321.0,54321.0,0.0,0.0,0.0,0.0
1630063070874878270,1630063070,0,vb6b0001,1505.0,3273.0,1481.0,0.0,0.0,0.0,0.0
1630063070891712878,1630063070,0,vb6b0001,1502.0,3272.0,1478.0,0.0,0.0,0.0,0.0
1630063070898203275,1630063070,0,vb6b0001,1498.0,3273.0,1473.0,0.0,0.0,0.0,0.0
1630063070905976215,1630063070,0,vb6b0001,1497.0,3271.0,1477.0,0.0,0.0,0.0,0.0
1630063070913933521,1630063070,0,vb6b0001,1494.0,3271.0,1478.0,0.0,0.0,0.0,0.0
1630063070920217245,1630063071,0,vb6b0001,1493.0,3271.0,1481.0,0.0,0.0,0.0,0.0
1630063070922095111,0,0,,54321.0,54321.0,54321.0,0.0,0.0,0.0,0.0
1630063070931715774,1630063071,0,vb6b0001,1490.0,3270.0,1477.0,0.0,0.0,0.0,0.0
1630063070939206112,1630063071,0,vb6b0001,1489.0,3270.0,1477.0,0.0,0.0,0.0,0.0
1630063070944811651,1630063071,0,vb6b0001,1486.0,3269.0,1477.0,0.0,0.0,0.0,0.0
1630063070946888204,0,0,,54321.0,54321.0,54321.0,0.0,0.0,0.0,0.0
1630063070952522563,1630063071,0,vb6b0001,1485.0,3269.0,1476.0,0.0,0.0,0.0,0.0
1630063070960628961,1630063071,0,vb6b0001,1482.0,3270.0,1469.0,0.0,0.0,0.0,0.0
1630063070962632275,0,0,,54321.0,54321.0,54321.0,0.0,0.0,0.0,0.0
1630063070970714855,1630063071,0,vb6b0001,1480.0,3271.0,1464.0,0.0,0.0,0.0,0.0
1630063070978262694,1630063071,0,vb6b0001,1480.0,3270.0,1461.0,0.0,0.0,0.0,0.0
1630063070988474879,1630063071,0,vb6b0001,1479.0,3268.0,1461.0,0.0,0.0,0.0,0.0
1630063070994832198,1630063071,0,vb6b0001,1479.0,3266.0,1458.0,0.0,0.0,0.0,0.0
1630063071016023551,1630063071,0,vb6b0001,1477.0,3264.0,1458.0,0.0,0.0,0.0,0.0
1630063071022508733,1630063071,0,vb6b0001,1476.0,3262.0,1457.0,0.0,0.0,0.0,0.0
1630063071036967427,0,0,,54321.0,54321.0,54321.0,0.0,0.0,0.0,0.0
1630063071039280233,1630063071,0,vb6b0001,1478.0,3260.0,1461.0,0.0,0.0,0.0,0.0
1630063071046023085,1630063071,0,vb6b0001,1475.0,3258.0,1460.0,0.0,0.0,0.0,0.0
1630063071055920378,1630063071,0,vb6b0001,1473.0,3260.0,1459.0,0.0,0.0,0.0,0.0
1630063071063854920,1630063071,0,vb6b0001,1472.0,3260.0,1460.0,0.0,0.0,0.0,0.0
1630063071070741732,1630063071,0,vb6b0001,1470.0,3257.0,1455.0,0.0,0.0,0.0,0.0
1630063071072869629,0,0,,54321.0,54321.0,54321.0,0.0,0.0,0.0,0.0
1630063071077164448,1630063071,0,vb6b0001,1470.0,3256.0,1456.0,0.0,0.0,0.0,0.0
1630063071089535801,1630063071,0,vb6b0001,1470.0,3254.0,1451.0,0.0,0.0,0.0,0.0
1630063071099352166,1630063071,0,vb6b0001,1474.0,3255.0,1450.0,0.0,0.0,0.0,0.0
1630063071109706034,1630063071,0,vb6b0001,1473.0,3254.0,1455.0,0.0,0.0,0.0,0.0
1630063071118217662,0,0,,54321.0,54321.0,54321.0,0.0,0.0,0.0,0.0
1630063071126850249,1630063071,0,vb6b0001,1477.0,3251.0,1454.0,0.0,0.0,0.0,0.0
1630063071132646888,1630063071,0,vb6b0001,1478.0,3250.0,1455.0,0.0,0.0,0.0,0.0
1630063071142259667,0,0,,54321.0,54321.0,54321.0,0.0,0.0,0.0,0.0
1630063071158226106,1630063071,0,vb6b0001,1478.0,3247.0,1459.0,0.0,0.0,0.0,0.0
1630063071164788408,1630063071,0,vb6b0001,1481.0,3250.0,1461.0,0.0,0.0,0.0,0.0
1630063071166738654,0,0,,54321.0,54321.0,54321.0,0.0,0.0,0.0,0.0
1630063071176891185,1630063071,0,vb6b0001,1480.0,3249.0,1454.0,0.0,0.0,0.0,0.0
1630063071178131154,0,0,,54321.0,54321.0,54321.0,0.0,0.0,0.0,0.0
1630063071182274406,1630063071,0,vb6b0001,1480.0,3247.0,1448.0,0.0,0.0,0.0,0.0
1630063071192026069,0,0,,54321.0,54321.0,54321.0,0.0,0.0,0.0,0.0
1630063071197619434,1630063071,0,vb6b0001,1481.0,3246.0,1448.0,0.0,0.0,0.0,0.0
1630063071217096440,1630063071,0,vb6b0001,1483.0,3245.0,1442.0,0.0,0.0,0.0,0.0
1630063071219301274,1630063071,0,vb6b0001,1484.0,3245.0,1442.0,0.0,0.0,0.0,0.0
1630063071226765754,1630063071,0,vb6b0001,1488.0,3245.0,1439.0,0.0,0.0,0.0,0.0
1630063071234438007,1630063071,0,vb6b0001,1485.0,3244.0,1430.0,0.0,0.0,0.0,0.0
1630063071236479878,0,0,,54321.0,54321.0,54321.0,0.0,0.0,0.0,0.0
1630063071255666698,1630063071,0,vb6b0001,1489.0,3243.0,1430.0,0.0,0.0,0.0,0.0
1630063071262659948,1630063071,0,vb6b0001,1492.0,3242.0,1426.0,0.0,0.0,0.0,0.0
1630063071269233787,1630063071,0,vb6b0001,1493.0,3240.0,1431.0,0.0,0.0,0.0,0.0
1630063071281869565,1630063071,0,vb6b0001,1494.0,3237.0,1424.0,0.0,0.0,0.0,0.0
1630063071285919595,1630063071,0,vb6b0001,1495.0,3234.0,1420.0,0.0,0.0,0.0,0.0
1630063071287876089,0,0,,54321.0,54321.0,54321.0,0.0,0.0,0.0,0.0
1630063071299577282,1630063071,0,vb6b0001,1502.0,3234.0,1418.0,0.0,0.0,0.0,0.0
1630063071305098978,1630063071,0,vb6b0001,1501.0,3233.0,1416.0,0.0,0.0,0.0,0.0
1630063071313089681,1630063071,0,vb6b0001,1502.0,3234.0,1421.0,0.0,0.0,0.0,0.0
1630063071314967565,0,0,,54321.0,54321.0,54321.0,0.0,0.0,0.0,0.0
1630063071320414072,1630063071,0,vb6b0001,1505.0,3233.0,1420.0,0.0,0.0,0.0,0.0
1630063071326305719,1630063071,0,vb6b0001,1508.0,3234.0,1421.0,0.0,0.0,0.0,0.0
1630063071328676238,0,0,,54321.0,54321.0,54321.0,0.0,0.0,0.0,0.0
1630063071338907518,1630063071,0,vb6b0001,1514.0,3231.0,1412.0,0.0,0.0,0.0,0.0
1630063071354215380,1630063071,0,vb6b0001,1517.0,3230.0,1408.0,0.0,0.0,0.0,0.0
1630063071361610300,1630063071,0,vb6b0001,1520.0,3228.0,1404.0,0.0,0.0,0.0,0.0
1630063071363018904,0,0,,54321.0,54321.0,54321.0,0.0,0.0,0.0,0.0
1630063071367573835,1630063071,0,vb6b0001,1526.0,3225.0,1396.0,0.0,0.0,0.0,0.0
1630063071378030843,1630063071,0,vb6b0001,1529.0,3225.0,1398.0,0.0,0.0,0.0,0.0
1630063071387979267,1630063071,0,vb6b0001,1529.0,3222.0,1393.0,0.0,0.0,0.0,0.0
1630063071398208610,1630063071,0,vb6b0001,1530.0,3219.0,1388.0,0.0,0.0,0.0,0.0
1630063071402217859,1630063071,0,vb6b0001,1530.0,3220.0,1390.0,0.0,0.0,0.0,0.0
1630063071409813762,1630063071,0,vb6b0001,1531.0,3220.0,1392.0,0.0,0.0,0.0,0.0
1630063071419606138,1630063071,0,vb6b0001,1531.0,3218.0,1389.0,0.0,0.0,0.0,0.0
1630063071423274703,1630063071,0,vb6b0001,1531.0,3218.0,1388.0,0.0,0.0,0.0,0.0
1630063071431278386,1630063071,0,vb6b0001,1530.0,3214.0,1383.0,0.0,0.0,0.0,0.0
1630063071433366327,0,0,,54321.0,54321.0,54321.0,0.0,0.0,0.0,0.0
1630063071448252176,1630063071,0,vb6b0001,1530.0,3212.0,1380.0,0.0,0.0,0.0,0.0
1630063071456073933,1630063071,0,vb6b0001,1532.0,3214.0,1381.0,0.0,0.0,0.0,0.0
1630063071457813741,0,0,,54321.0,54321.0,54321.0,0.0,0.0,0.0,0.0
1630063071467523284,1630063071,0,vb6b0001,1533.0,3212.0,1377.0,0.0,0.0,0.0,0.0
1630063071474049387,1630063071,0,vb6b0001,1530.0,3212.0,1377.0,0.0,0.0,0.0,0.0
1630063071480663345,1630063071,0,vb6b0001,1533.0,3211.0,1372.0,0.0,0.0,0.0,0.0
1630063071482757382,0,0,,54321.0,54321.0,54321.0,0.0,0.0,0.0,0.0
1630063071493226291,1630063071,0,vb6b0001,1533.0,3208.0,1374.0,0.0,0.0,0.0,0.0
1630063071496192199,1630063071,0,vb6b0001,1534.0,3208.0,1372.0,0.0,0.0,0.0,0.0
1630063071502994928,1630063071,0,vb6b0001,1534.0,3207.0,1366.0,0.0,0.0,0.0,0.0
1630063071514193761,1630063071,0,vb6b0001,1530.0,3205.0,1370.0,0.0,0.0,0.0,0.0
1630063071539869452,1630063071,0,vb6b0001,1532.0,3204.0,1363.0,0.0,0.0,0.0,0.0
1630063071543346629,1630063071,0,vb6b0001,1530.0,3203.0,1364.0,0.0,0.0,0.0,0.0
1630063071545392906,0,0,,54321.0,54321.0,54321.0,0.0,0.0,0.0,0.0
1630063071551978354,1630063071,0,vb6b0001,1529.0,3200.0,1362.0,0.0,0.0,0.0,0.0
1630063071553981973,1630063071,0,vb6b0001,1529.0,3200.0,1361.0,0.0,0.0,0.0,0.0
1630063071562219956,1630063071,0,vb6b0001,1530.0,3200.0,1358.0,0.0,0.0,0.0,0.0
1630063071568571362,1630063071,0,vb6b0001,1525.0,3197.0,1361.0,0.0,0.0,0.0,0.0
1630063071578289395,1630063071,0,vb6b0001,1526.0,3196.0,1356.0,0.0,0.0,0.0,0.0
1630063071585360906,1630063071,0,vb6b0001,1528.0,3195.0,1353.0,0.0,0.0,0.0,0.0
1630063071588010227,0,0,,54321.0,54321.0,54321.0,0.0,0.0,0.0,0.0
1630063071595460141,1630063071,0,vb6b0001,1529.0,3191.0,1348.0,0.0,0.0,0.0,0.0
1630063071602954373,1630063071,0,vb6b0001,1530.0,3189.0,1343.0,0.0,0.0,0.0,0.0
1630063071613085409,1630063071,0,vb6b0001,1530.0,3186.0,1341.0,0.0,0.0,0.0,0.0
1630063071614997551,0,0,,54321.0,54321.0,54321.0,0.0,0.0,0.0,0.0
1630063071625783470,1630063071,0,vb6b0001,1533.0,3183.0,1332.0,0.0,0.0,0.0,0.0
1630063071632436615,1630063071,0,vb6b0001,1531.0,3183.0,1331.0,0.0,0.0,0.0,0.0
1630063071642247578,1630063071,0,vb6b0001,1535.0,3180.0,1319.0,0.0,0.0,0.0,0.0
1630063071648176100,1630063071,0,vb6b0001,1533.0,3180.0,1317.0,0.0,0.0,0.0,0.0
1630063071660243814,1630063071,0,vb6b0001,1533.0,3178.0,1308.0,0.0,0.0,0.0,0.0
1630063071670362452,1630063071,0,vb6b0001,1533.0,3176.0,1304.0,0.0,0.0,0.0,0.0
1630063071681592785,1630063071,0,vb6b0001,1531.0,3175.0,1297.0,0.0,0.0,0.0,0.0
1630063071688399837,1630063071,0,vb6b0001,1531.0,3175.0,1293.0,0.0,0.0,0.0,0.0
1630063071690494653,0,0,,54321.0,54321.0,54321.0,0.0,0.0,0.0,0.0
1630063071699715443,1630063071,0,vb6b0001,1532.0,3174.0,1291.0,0.0,0.0,0.0,0.0
1630063071702102614,1630063071,0,vb6b0001,1531.0,3173.0,1290.0,0.0,0.0,0.0,0.0
1630063071711196419,1630063071,0,vb6b0001,1529.0,3172.0,1290.0,0.0,0.0,0.0,0.0
1630063071717777816,1630063071,0,vb6b0001,1529.0,3172.0,1285.0,0.0,0.0,0.0,0.0
1630063071728560175,1630063071,0,vb6b0001,1524.0,3170.0,1289.0,0.0,0.0,0.0,0.0
1630063071734452779,1630063071,0,vb6b0001,1520.0,3169.0,1288.0,0.0,0.0,0.0,0.0
1630063071736416580,0,0,,54321.0,54321.0,54321.0,0.0,0.0,0.0,0.0
1630063071747262240,1630063071,0,vb6b0001,1515.0,3169.0,1290.0,0.0,0.0,0.0,0.0
1630063071762780574,1630063071,0,vb6b0001,1513.0,3170.0,1290.0,0.0,0.0,0.0,0.0
1630063071772392852,1630063071,0,vb6b0001,1512.0,3170.0,1287.0,0.0,0.0,0.0,0.0
1630063071775366457,0,0,,54321.0,54321.0,54321.0,0.0,0.0,0.0,0.0
1630063071780464829,1630063071,0,vb6b0001,1510.0,3172.0,1285.0,0.0,0.0,0.0,0.0
1630063071784953513,1630063071,0,vb6b0001,1510.0,3173.0,1286.0,0.0,0.0,0.0,0.0
1630063071786581255,0,0,,54321.0,54321.0,54321.0,0.0,0.0,0.0,0.0
1630063071795800607,1630063071,0,vb6b0001,1509.0,3177.0,1286.0,0.0,0.0,0.0,0.0
1630063071802394001,1630063071,0,vb6b0001,1509.0,3178.0,1288.0,0.0,0.0,0.0,0.0
1630063071809445054,1630063071,0,vb6b0001,1508.0,3178.0,1289.0,0.0,0.0,0.0,0.0
1630063071811400592,0,0,,54321.0,54321.0,54321.0,0.0,0.0,0.0,0.0
1630063071815613377,1630063071,0,vb6b0001,1505.0,3179.0,1292.0,0.0,0.0,0.0,0.0
1630063071826922513,1630063071,0,vb6b0001,1505.0,3181.0,1294.0,0.0,0.0,0.0,0.0
1630063071837048681,1630063071,0,vb6b0001,1507.0,3182.0,1296.0,0.0,0.0,0.0,0.0
1630063071860925701,1630063071,0,vb6b0001,1507.0,3183.0,1298.0,0.0,0.0,0.0,0.0
1630063071868062375,0,0,,54321.0,54321.0,54321.0,0.0,0.0,0.0,0.0
1630063071878591560,1630063071,0,vb6b0001,1508.0,3186.0,1300.0,0.0,0.0,0.0,0.0
1630063071880935425,1630063071,0,vb6b0001,1506.0,3186.0,1303.0,0.0,0.0,0.0,0.0
1630063071887691115,1630063071,0,vb6b0001,1505.0,3185.0,1305.0,0.0,0.0,0.0,0.0
1630063071895654919,1630063071,0,vb6b0001,1506.0,3189.0,1308.0,0.0,0.0,0.0,0.0
1630063071906858694,1630063071,0,vb6b0001,1504.0,3191.0,1308.0,0.0,0.0,0.0,0.0
1630063071913684560,1630063072,0,vb6b0001,1503.0,3193.0,1311.0,0.0,0.0,0.0,0.0
1630063071915833317,0,0,,54321.0,54321.0,54321.0,0.0,0.0,0.0,0.0
1630063071924670920,1630063072,0,vb6b0001,1501.0,3195.0,1312.0,0.0,0.0,0.0,0.0
1630063071929537377,1630063072,0,vb6b0001,1498.0,3194.0,1314.0,0.0,0.0,0.0,0.0
1630063071936078199,1630063072,0,vb6b0001,1499.0,3197.0,1310.0,0.0,0.0,0.0,0.0
1630063071937892024,0,0,,54321.0,54321.0,54321.0,0.0,0.0,0.0,0.0
1630063071942944200,1630063072,0,vb6b0001,1495.0,3196.0,1310.0,0.0,0.0,0.0,0.0
1630063071954307406,1630063072,0,vb6b0001,1493.0,3199.0,1306.0,0.0,0.0,0.0,0.0
1630063071965458071,1630063072,0,vb6b0001,1491.0,3201.0,1308.0,0.0,0.0,0.0,0.0
1630063071976006273,1630063072,0,vb6b0001,1489.0,3205.0,1308.0,0.0,0.0,0.0,0.0
1630063071983561253,1630063072,0,vb6b0001,1489.0,3207.0,1304.0,0.0,0.0,0.0,0.0
1630063071986379265,0,0,,54321.0,54321.0,54321.0,0.0,0.0,0.0,0.0
1630063071994276660,1630063072,0,vb6b0001,1486.0,3208.0,1305.0,0.0,0.0,0.0,0.0
1630063071996942611,1630063072,0,vb6b0001,1484.0,3208.0,1308.0,0.0,0.0,0.0,0.0
1630063072005382234,1630063072,0,vb6b0001,1482.0,3208.0,1312.0,0.0,0.0,0.0,0.0
1630063072013609858,1630063072,0,vb6b0001,1483.0,3211.0,1307.0,0.0,0.0,0.0,0.0
1630063072024931027,1630063072,0,vb6b0001,1481.0,3212.0,1310.0,0.0,0.0,0.0,0.0
1630063072033449650,0,0,,54321.0,54321.0,54321.0,0.0,0.0,0.0,0.0
1630063072042438650,1630063072,0,vb6b0001,1478.0,3214.0,1311.0,0.0,0.0,0.0,0.0
1630063072048798350,1630063072,0,vb6b0001,1475.0,3212.0,1316.0,0.0,0.0,0.0,0.0
1630063072057890531,0,0,,54321.0,54321.0,54321.0,0.0,0.0,0.0,0.0
1630063072064605998,1630063072,0,vb6b0001,1469.0,3214.0,1324.0,0.0,0.0,0.0,0.0
1630063072077013529,1630063072,0,vb6b0001,1470.0,3218.0,1322.0,0.0,0.0,0.0,0.0
1630063072085724502,1630063072,0,vb6b0001,1467.0,3219.0,1327.0,0.0,0.0,0.0,0.0
1630063072104176710,1630063072,0,vb6b0001,1466.0,3219.0,1331.0,0.0,0.0,0.0,0.0
1630063072110477704,1630063072,0,vb6b0001,1466.0,3221.0,1331.0,0.0,0.0,0.0,0.0
1630063072111423137,0,0,,54321.0,54321.0,54321.0,0.0,0.0,0.0,0.0
1630063072120529216,1630063072,0,vb6b0001,1464.0,3217.0,1336.0,0.0,0.0,0.0,0.0
1630063072124514662,1630063072,0,vb6b0001,1462.0,3218.0,1339.0,0.0,0.0,0.0,0.0
1630063072131418834,1630063072,0,vb6b0001,1460.0,3218.0,1344.0,0.0,0.0,0.0,0.0
1630063072139505303,1630063072,0,vb6b0001,1461.0,3210.0,1348.0,0.0,0.0,0.0,0.0
1630063072149458039,1630063072,0,vb6b0001,1464.0,3200.0,1354.0,0.0,0.0,0.0,0.0
1630063072157009552,1630063072,0,vb6b0001,1464.0,3199.0,1353.0,0.0,0.0,0.0,0.0
1630063072158923410,0,0,,54321.0,54321.0,54321.0,0.0,0.0,0.0,0.0
1630063072168056311,1630063072,0,vb6b0001,1461.0,3200.0,1356.0,0.0,0.0,0.0,0.0
1630063072175987086,1630063072,0,vb6b0001,1459.0,3207.0,1362.0,0.0,0.0,0.0,0.0
1630063072182382871,1630063072,0,vb6b0001,1461.0,3206.0,1360.0,0.0,0.0,0.0,0.0
1630063072184255294,0,0,,54321.0,54321.0,54321.0,0.0,0.0,0.0,0.0
1630063072191323192,1630063072,0,vb6b0001,1458.0,3211.0,1365.0,0.0,0.0,0.0,0.0
1630063072201768423,1630063072,0,vb6b0001,1463.0,3214.0,1369.0,0.0,0.0,0.0,0.0
1630063072212707393,1630063072,0,vb6b0001,1462.0,3212.0,1375.0,0.0,0.0,0.0,0.0
1630063072223781124,1630063072,0,vb6b0001,1457.0,3209.0,1377.0,0.0,0.0,0.0,0.0
1630063072230314359,1630063072,0,vb6b0001,1454.0,3205.0,1374.0,0.0,0.0,0.0,0.0
1630063072232295019,0,0,,54321.0,54321.0,54321.0,0.0,0.0,0.0,0.0
1630063072242990197,1630063072,0,vb6b0001,1451.0,3202.0,1372.0,0.0,0.0,0.0,0.0
1630063072249662055,1630063072,0,vb6b0001,1452.0,3201.0,1373.0,0.0,0.0,0.0,0.0
1630063072259790889,1630063072,0,vb6b0001,1452.0,3200.0,1370.0,0.0,0.0,0.0,0.0
1630063072267361548,1630063072,0,vb6b0001,1453.0,3199.0,1369.0,0.0,0.0,0.0,0.0
1630063072276799332,1630063072,0,vb6b0001,1450.0,3196.0,1370.0,0.0,0.0,0.0,0.0
1630063072287972903,1630063072,0,vb6b0001,1447.0,3193.0,1374.0,0.0,0.0,0.0,0.0
1630063072290811935,1630063072,0,vb6b0001,1447.0,3193.0,1375.0,0.0,0.0,0.0,0.0
1630063072298800715,1630063072,0,vb6b0001,1445.0,3193.0,1376.0,0.0,0.0,0.0,0.0
1630063072305821898,1630063072,0,vb6b0001,1444.0,3193.0,1376.0,0.0,0.0,0.0,0.0
1630063072316115228,1630063072,0,vb6b0001,1443.0,3190.0,1379.0,0.0,0.0,0.0,0.0
1630063072326229614,1630063072,0,vb6b0001,1440.0,3185.0,1381.0,0.0,0.0,0.0,0.0
